     2.01           OBSERVATION DATA    G                   RINEX VERSION / TYPE
Gnsser              GeoSolution         20180624 181014 UTC PGM / RUN BY / DATE
Built by Gnsser. www.gnsser.com, gnsser@163.com             COMMENT
Gnsser, a GNSS data processing software, created in China   COMMENT
Linux 2.4.20-8|Pentium IV|gcc -static|Linux|486/DX+         COMMENT
BIT 2 OF LLI FLAGS DATA COLLECTED UNDER A/S CONDITION       COMMENT
RINEXED from Javad JPS-binary: ken.macleod@nrcan.gc.ca      COMMENT
Forced Modulo Decimation to 30 seconds                      COMMENT
This data is subject to the Open Government Licence -Canada COMMENT
http://open.canada.ca/en/open-government-licence-canada     COMMENT
SNR is mapped to RINEX snr flag value [0-9]                 COMMENT
L1 & L2: min(max(int(snr_dBHz/6), 0), 9)                    COMMENT
pseudorange smoothing corrections not applied               COMMENT
ALGO                                                        MARKER NAME
40104M002                                                   MARKER NUMBER
NRCan/GEODETIC SURVEY OF CANADA                             OBSERVER / AGENCY
01882               JAVAD TRE_G3TH DELTA3.6.3 Jul,01,2015   REC # / TYPE / VERS
303                 AOAD/M_T        NONE                    ANT # / TYPE
   918129.4000 -4346071.2000  4561977.8000                  APPROX POSITION XYZ
        0.1000        0.0000        0.0000                  ANTENNA: DELTA H/E/N
     5    L1    L2    C1    P2    P1                        # / TYPES OF OBSERV
    30.000                                                  INTERVAL
  2018     1     1     0     0    0.0000000                 TIME OF FIRST OBS
  2018     1     1    23    59   30.0000000                 TIME OF LAST OBS
    18                                                      LEAP SECONDS
                                                            END OF HEADER
 18 01 01 00 00 00.0000000  0 10G08G07G21G03G16G27G23G09G31G26       0.000000000
 127105626.94646  99043338.54446  24187394.069    24187397.979    24187393.440  
 130366616.19347 101584344.90246  24807934.744    24807933.298    24807933.438  
 134909200.74546 105124060.83942  25672366.613    25672365.477    25672365.439  
 131660180.18046 102592338.85646  25054095.030    25054097.648    25054094.440  
 105236691.12448  82002631.79147  20025869.203    20025868.772    20025868.570  
 114095025.95648  88905219.63648  21711557.103    21711559.970    21711556.336  
 109119757.40048  85028386.61447  20764790.338    20764788.236    20764790.002  
 114563297.27948  89270104.56548  21800665.961    21800668.498    21800665.824  
 126689324.05947  98718914.46047  24108156.938    24108156.198    24108156.436  
 112984070.33048  88039516.75548  21500137.445    21500140.322    21500136.774  
 18 01 01 00 00 30.0000000  0 10G08G07G21G03G16G27G23G09G31G26       0.000000000
 126990610.71646  98953715.56347  24165507.314    24165512.033    24165506.795  
 130274522.74347 101512583.81046  24790407.637    24790409.099    24790407.598  
 134871902.67246 105094997.40042  25665269.278    25665269.285    25665268.212  
 131755879.17045 102666909.46146  25072304.972    25072309.392    25072304.678  
 105255442.25548  82017243.07047  20029437.349    20029436.952    20029436.710  
 114010193.00148  88839116.07548  21695413.251    21695416.516    21695413.249  
 109115273.86948  85024892.94647  20763937.397    20763935.185    20763936.752  
 114500126.74148  89220880.77348  21788645.099    21788647.393    21788644.746  
 126777517.85747  98787636.85947  24124939.093    24124939.603    24124939.414  
 113053198.98748  88093383.23948  21513291.940    21513295.146    21513291.522  
 18 01 01 00 01 00.0000000  0 10G08G07G21G03G16G27G23G09G31G26       0.000000000
 126875664.43446  98864147.09046  24143634.122    24143637.179    24143633.236  
 130182415.71847 101440812.16446  24772881.334    24772880.812    24772880.479  
 134834927.06746 105066185.26742  25658233.882    25658231.626    25658231.603  
 131851562.22845 102741467.71246  25090511.405    25090516.687    25090512.878  
 105274685.52048  82032237.82247  20033099.222    20033098.837    20033098.415  
 113925783.25248  88773342.27948  21679351.660    21679354.094    21679350.889  
 109111374.80848  85021854.71047  20763195.398    20763193.201    20763194.916  
 114437420.69248  89172018.91748  21776712.757    21776714.729    21776712.199  
 126865807.93847  98856434.26747  24141740.134    24141740.591    24141740.386  
 113122602.71048  88147464.06248  21526498.693    21526502.313    21526498.616  
 18 01 01 00 01 30.0000000  0 10G08G07G21G03G16G27G23G09G31G26       0.000000000
 126760790.68146  98774635.07647  24121773.577    24121778.114    24121772.781  
 130090296.10047 101369030.67746  24755352.225    24755352.437    24755352.133  
 134798274.88146 105037625.20642  25651257.228    25651257.513    25651256.670  
 131947226.51946 102816011.27446  25108718.498    25108720.467    25108716.844  
 105294419.09648  82047614.64047  20036854.609    20036854.055    20036853.711  
 113841799.46748  88707900.39148  21663369.420    21663372.395    21663369.230  
 109108060.44048  85019272.09047  20762564.685    20762562.543    20762564.047  
 114375181.37347  89123520.75848  21764868.797    21764871.170    21764868.541  
 126954193.40247  98925306.05046  24158559.415    24158558.485    24158559.313  
 113192279.61749  88201757.75848  21539758.062    21539761.056    21539757.580  
 18 01 01 00 02 00.0000000  0 10G08G07G21G03G16G27G23G09G31G26       0.000000000
 126645991.72246  98685181.41247  24099926.848    24099932.432    24099927.813  
 129998164.07246 101297239.54146  24737819.457    24737819.943    24737818.433  
 134761948.20746 105009318.68742  25644345.532    25644345.738    25644343.856  
 132042869.17846 102890537.98046  25126917.291    25126922.957    25126917.564  
 105314641.99348  82063372.74747  20040702.788    20040702.282    20040702.000  
 113758244.46348  88642792.63948  21647469.414    21647472.302    21647469.393  
 109105331.73348  85017145.81947  20762045.245    20762043.415    20762044.748  
 114313411.04547  89075388.04548  21753114.348    21753116.416    21753114.011  
 127042674.08547  98994252.03746  24175396.980    24175396.413    24175396.854  
 113262227.81748  88256262.85148  21553069.032    21553071.882    21553068.437  
 18 01 01 00 02 30.0000000  0 10G08G07G21G03G16G27G23G09G31G26       0.000000000
 126531271.14546  98595788.78946  24078097.629    24078101.639    24078097.571  
 129906020.59047 101225439.49046  24720285.331    24720284.793    24720284.513  
 134725949.03346 104981267.40942  25637494.135    25637494.910    25637493.378  
 132138487.22346 102965045.51846  25145113.795    25145117.178    25145114.771  
 105335352.18548  82079510.56447  20044643.658    20044643.326    20044643.032  
 113675121.04248  88578021.15948  21631652.422    21631654.221    21631651.437  
 109103189.05848  85015476.20047  20761637.571    20761635.565    20761637.045  
 114252111.89048  89027622.47748  21741449.976    21741451.986    21741449.118  
 127131249.49547  99063271.80346  24192252.234    24192252.154    24192252.267  
 113332445.46348  88310977.90248  21566430.885    21566434.084    21566430.288  
 18 01 01 00 03 00.0000000  0 10G08G07G21G03G16G27G23G09G31G26       0.000000000
 126416631.22646  98506459.00247  24056282.389    24056287.184    24056282.339  
 129813866.23447 101153630.96846  24702748.926    24702748.444    24702748.656  
 134690278.98546 104953472.56942  25630707.049    25630705.913    25630706.278  
 132234077.97345 103039531.77346  25163302.390    25163307.952    25163302.419  
 105356548.39648  82096027.09747  20048677.504    20048676.919    20048676.501  
 113592431.95548  88513588.12148  21615916.581    21615919.495    21615916.207  
 109101632.90848  85014263.61547  20761341.477    20761339.563    20761340.823  
 114191286.16548  88980225.80748  21729875.025    21729876.892    21729874.371  
 127219919.15647  99132365.02746  24209126.162    24209126.513    24209125.641  
 113402930.68748  88365901.45348  21579843.413    21579846.960    21579843.025  
 18 01 01 00 03 30.0000000  0 10G08G07G21G03G16G27G23G09G31G26       0.000000000
 126302074.78946  98417194.28147  24034482.676    24034487.444    24034482.013  
 129721701.78047 101081814.55746  24685210.660    24685209.093    24685209.809  
 134654940.19246 104925935.87742  25623981.589    25623983.074    25623981.987  
 132329638.45046 103113994.50645  25181487.963    25181491.107    25181488.430  
 105378229.10948  82112921.16047  20052803.014    20052802.516    20052802.295  
 113510179.96248  88449495.69848  21600264.071    21600267.348    21600263.602  
 109100663.87248  85013508.51947  20761156.979    20761155.110    20761156.522  
 114130936.04948  88933199.74948  21718390.531    21718392.475    21718390.187  
 127308682.32847  99201531.10346  24226016.806    24226016.639    24226016.788  
 113473681.60348  88421032.04548  21593307.151    21593310.185    21593306.606  
 18 01 01 00 04 00.0000000  0 10G08G07G21G03G16G27G23G09G31G26       0.000000000
 126187604.15047  98327996.39447  24012700.006    24012704.062    24012699.402  
 129629528.10246 101009990.97746  24667668.752    24667670.549    24667668.574  
 134619933.87946 104898658.24443  25617321.142    25617321.467    25617321.004  
 132425165.89646 103188431.42745  25199666.402    25199670.279    25199665.478  
 105400392.88448  82130191.64147  20057020.608    20057020.076    20057019.880  
 113428367.85748  88385746.03948  21584696.772    21584698.906    21584695.720  
 109100282.27448  85013211.16847  20761084.520    20761082.420    20761083.853  
 114071063.69048  88886545.97048  21706997.317    21706999.497    21706996.847  
 127397538.63347  99270769.78046  24242925.215    24242926.169    24242924.544  
 113544696.36848  88476368.22248  21606820.691    21606823.899    21606820.227  
 18 01 01 00 04 30.0000000  0 10G08G07G21G03G16G27G23G09G31G26       0.000000000
 126073222.70446  98238868.05547  23990933.341    23990937.558    23990933.005  
 129537345.48347 100938160.43246  24650127.896    24650128.059    24650127.662  
 134585262.41546 104871641.56143  25610723.910    25610722.912    25610722.850  
 132520657.31745 103262840.32445  25217836.351    25217841.943    25217837.054  
 105423038.28148  82147837.40747  20061329.920    20061329.413    20061329.049  
 113346998.33248  88322341.24348  21569211.701    21569214.381    21569211.644  
 109100488.71548  85013372.02347  20761123.655    20761121.643    20761123.146  
 114011671.31848  88840266.20948  21695695.191    21695697.589    21695694.926  
 127486487.59647  99340080.59546  24259852.146    24259851.859    24259851.629  
 113615973.12048  88531908.55548  21620384.224    21620387.499    21620383.747  
 18 01 01 00 05 00.0000000  0 10G08G07G21G03G16G27G23G09G31G26       0.000000000
 125958932.93546  98149811.10546  23969185.436    23969188.541    23969185.749  
 129445155.00447 100866323.76946  24632585.005    24632585.259    24632584.527  
 134550927.39546 104844887.04143  25604189.949    25604189.982    25604189.201  
 132616110.11745 103337219.06345  25236000.611    25236005.509    25236001.452  
 105446163.71948  82165857.23347  20065730.708    20065730.135    20065729.790  
 113266074.11748  88259283.44248  21553812.418    21553815.275    21553812.224  
 109101283.64348  85013991.44247  20761274.929    20761272.957    20761274.449  
 113952761.08148  88794362.13148  21684484.652    21684486.814    21684484.841  
 127575528.87247  99409463.36147  24276795.213    24276796.559    24276795.689  
 113687510.00348  88587651.57948  21633996.812    21634000.459    21633996.766  
 18 01 01 00 05 30.0000000  0  9G08G07G21G16G27G23G09G31G26          0.000000000
 125844737.53346  98060827.70747  23947453.818    23947458.932    23947454.353  
 129352957.35347 100794481.48446  24615039.749    24615040.119    24615039.048  
 134516931.06246 104818396.44043  25597720.501    25597720.319    25597718.664  
 105469767.74248  82184249.98347  20070222.202    20070221.748    20070221.542  
 113185597.95248  88196574.76448  21538498.731    21538501.006    21538498.289  
 109102667.31648  85015069.62947  20761538.457    20761536.173    20761537.807  
 113894335.15648  88748835.43348  21673367.400    21673368.699    21673366.526  
 127664661.70447  99478917.50947  24293757.584    24293758.522    24293757.905  
 113759305.17448  88643595.87048  21647659.447    21647662.518    21647658.944  
 18 01 01 00 06 00.0000000  0  9G08G07G21G16G27G23G09G31G26          0.000000000
 125730639.40347  97971920.12147  23925743.019    23925746.435    23925742.084  
 129260752.99147 100722634.00646  24597493.956    24597493.392    24597493.323  
 134483274.59646 104792170.60743  25591315.378    25591315.391    25591314.085  
 105493848.62948  82203014.31447  20074804.474    20074804.254    20074803.910  
 113105572.51648  88134217.30248  21523270.142    21523272.811    21523269.856  
 109104640.31748  85016607.02847  20761913.822    20761911.547    20761913.147  
 113836395.66248  88703687.78948  21662341.436    21662343.462    21662340.917  
 127753885.77647  99548442.72047  24310736.246    24310736.979    24310736.261  
 113831356.79148  88699739.99348  21661370.221    21661373.672    21661369.845  
 18 01 01 00 06 30.0000000  0  9G08G07G21G16G27G23G09G31G26          0.000000000
 125616640.89346  97883090.09547  23904048.867    23904053.560    23904048.163  
 129168542.95647 100650782.05046  24579946.929    24579947.561    24579946.161  
 134449959.28546 104766210.69443  25584976.875    25584976.110    25584975.376  
 105518404.89848  82222149.07147  20079477.367    20079477.117    20079476.734  
 113026000.48548  88072213.16048  21508127.983    21508130.902    21508127.566  
 109107202.90848  85018603.84747  20762401.358    20762399.456    20762400.936  
 113778944.76548  88658920.85648  21651408.938    21651410.769    21651408.155  
 127843200.34747  99618038.47147  24327731.193    24327732.733    24327731.964  
 113903663.00948  88756082.50348  21675130.029    21675133.055    21675129.422  
 18 01 01 00 07 00.0000000  0  9G08G07G21G16G27G23G09G31G26          0.000000000
 125502745.01747  97794340.08146  23882375.654    23882378.219    23882375.157  
 129076327.69147 100578926.03746  24562399.104    24562399.523    24562398.518  
 134416987.30946 104740518.25943  25578700.845    25578700.573    25578700.117  
 105543434.91048  82241652.97847  20084240.533    20084240.042    20084239.871  
 112946884.56548  88010564.41348  21493072.960    21493075.401    21493072.492  
 109110355.22448  85021060.19347  20763001.408    20762999.324    20763000.575  
 113721984.50948  88614536.24748  21640569.578    21640571.821    21640569.141  
 127932604.98847  99687704.41047  24344744.527    24344745.516    24344744.400  
 113976221.98348  88812621.95948  21688937.191    21688940.641    21688936.741  
 18 01 01 00 07 30.0000000  0  9G08G07G21G16G27G23G09G31G26          0.000000000
 125388954.40946  97705672.08847  23860722.047    23860726.394    23860721.440  
 128984108.20247 100507066.74846  24544850.409    24544850.473    24544850.350  
 134384360.64146 104715094.94843  25572494.016    25572493.460    25572492.380  
 105568937.23748  82261524.92247  20089093.488    20089093.059    20089092.843  
 112868227.38448  87949273.13248  21478104.407    21478107.098    21478104.347  
 109114097.81048  85023976.48547  20763713.229    20763711.434    20763712.937  
 113665517.06948  88570535.65048  21629824.146    21629826.188    21629823.867  
 128022099.29847  99757440.19247  24361775.419    24361775.827    24361774.618  
 114049031.87248  88869356.94148  21702792.486    21702795.904    21702792.111  
 18 01 01 00 08 00.0000000  0  9G08G07G21G16G27G23G09G31G26          0.000000000
 125275271.77946  97617088.26247  23839087.285    23839092.096    23839088.002  
 128891885.22447 100435204.74746  24527301.206    24527300.770    24527301.027  
 134352080.64546 104689941.70643  25566350.922    25566350.049    25566349.267  
 105594909.96048  82281763.40847  20094036.093    20094035.470    20094035.288  
 112790031.62948  87888341.39748  21463224.592    21463227.464    21463224.179  
 109118430.95948  85027352.96647  20764538.017    20764536.084    20764537.422  
 113609544.50248  88526920.66848  21619173.090    21619175.114    21619172.553  
 128111682.80947  99827245.48046  24378822.699    24378822.542    24378822.675  
 114122090.85848  88926286.03148  21716695.258    21716698.344    21716694.704  
 18 01 01 00 08 30.0000000  0  9G08G07G21G16G27G23G09G31G26          0.000000000
 125161700.15247  97528590.94647  23817477.581    23817480.840    23817477.005  
 128799659.43247 100363340.54946  24509750.254    24509750.770    24509750.087  
 134320149.02646 104665059.97742  25560273.887    25560273.678    25560274.823  
 105621351.99548  82302367.59847  20099067.728    20099067.174    20099066.957  
 112712299.89848  87827771.25148  21448432.848    21448435.315    21448432.448  
 109123354.89948  85031189.80047  20765475.204    20765472.956    20765474.555  
 113554068.94548  88483692.96548  21608616.456    21608618.718    21608616.007  
 128201354.66047  99897119.61347  24395887.862    24395887.587    24395887.042  
 114195397.10648  88983407.77648  21730644.885    21730648.179    21730644.397  
 18 01 01 00 09 00.0000000  0  9G08G07G21G16G27G23G09G31G26          0.000000000
 125048242.21346  97440182.19047  23795886.070    23795890.147    23795884.904  
 128707431.39947 100291474.55846  24492200.134    24492200.330    24492200.440  
 134288567.89545 104640451.29943  25554262.830    25554264.303    25554262.038  
 105648261.33348  82323335.91147  20104188.439    20104187.871    20104187.818  
 112635034.82948  87767564.72448  21433729.611    21433732.218    21433729.298  
 109128869.78248  85035487.10647  20766524.474    20766522.519    20766523.872  
 113499092.39648  88440854.10148  21598155.106    21598156.964    21598154.188  
 128291114.42147  99967062.24346  24412967.934    24412967.856    24412967.259  
 114268948.80148  89040720.78148  21744641.201    21744644.467    21744640.679  
 18 01 01 00 09 30.0000000  0  9G08G07G21G16G27G23G09G31G26          0.000000000
 124934900.52646  97351863.97947  23774318.172    23774322.671    23774317.837  
 128615202.25047 100219607.71546  24474649.995    24474649.805    24474650.031  
 134257338.73046 104616116.92543  25548320.547    25548321.812    25548320.732  
 105675636.57948  82344667.27147  20109397.789    20109397.333    20109397.096  
 112558239.01248  87707723.86848  21419116.182    21419118.547    21419115.414  
 109134975.80248  85040245.04047  20767686.672    20767684.505    20767685.927  
 113444616.97248  88398405.72248  21587788.278    21587790.419    21587788.042  
 128380962.08247 100037073.40746  24430062.950    24430064.875    24430063.955  
 114342744.12948  89098223.63848  21758684.016    21758687.451    21758683.695  
 18 01 01 00 10 00.0000000  0  9G08G07G21G16G27G23G09G31G26          0.000000000
 124821678.06746  97263638.72347  23752772.883    23752776.369    23752773.005  
 128522972.71347 100147740.58046  24457098.742    24457099.716    24457098.860  
 134226462.53145 104592057.60243  25542445.407    25542446.412    25542444.340  
 105703475.99948  82366360.33047  20114695.458    20114694.839    20114694.652  
 112481915.06348  87648250.68848  21404592.179    21404594.752    21404591.590  
 109141673.47248  85045463.99247  20768960.609    20768959.050    20768960.233  
 113390644.66048  88356349.38848  21577517.980    21577519.972    21577517.293  
 128470896.84747 100107152.40046  24447179.622    24447179.677    24447178.198  
 114416781.27048  89155914.91448  21772772.758    21772776.083    21772772.367  
 18 01 01 00 10 30.0000000  0  9G08G07G21G16G27G23G09G31G26          0.000000000
 124708577.38646  97175508.33347  23731250.942    23731253.978    23731250.145  
 128430743.56147 100075873.76646  24439548.597    24439548.343    24439548.013  
 134195941.49746 104568275.00043  25536638.535    25536637.955    25536637.296  
 105731777.95848  82388413.80947  20120081.237    20120080.556    20120080.517  
 112406065.54948  87589147.20548  21390157.951    21390160.842    21390157.706  
 109148962.87148  85051144.03947  20770348.160    20770346.023    20770347.489  
 113337177.55948  88314686.71448  21567343.237    21567345.448    21567342.927  
 128560917.95847 100177298.68846  24464310.235    24464310.730    24464309.407  
 114491058.41948  89213793.21548  21786907.422    21786910.663    21786906.777  
 18 01 01 00 11 00.0000000  0  9G08G07G21G16G27G23G09G31G26          0.000000000
 124595601.32446  97087475.03447  23709751.960    23709754.912    23709751.047  
 128338515.28347 100004007.60947  24421998.251    24421997.480    24421997.684  
 134165777.52646 104544770.63743  25530898.989    25530899.403    25530897.053  
 105760540.67848  82410826.32247  20125554.604    20125553.965    20125553.914  
 112330693.03348  87530415.39948  21375815.423    21375818.057    21375814.797  
 109156843.84148  85057285.04747  20771847.759    20771845.818    20771847.311  
 113284217.62548  88273419.23448  21557265.328    21557267.351    21557264.903  
 128651025.10947 100247512.01746  24481455.649    24481456.816    24481456.160  
 114565573.74348  89271857.10448  21801087.039    21801090.488    21801086.461  
 18 01 01 00 11 30.0000000  0  9G08G07G21G16G27G23G09G31G26          0.000000000
 124482752.74246  96999541.10447  23688277.534    23688281.164    23688276.667  
 128246288.93847  99932142.96746  24404448.698    24404448.539    24404447.901  
 134135972.00846 104521545.59143  25525226.493    25525226.354    25525225.812  
 105789762.52248  82433596.58947  20131115.303    20131114.584    20131114.501  
 112255800.05048  87472057.26148  21361563.567    21361566.067    21361563.033  
 109165316.68548  85063887.25947  20773460.094    20773458.214    20773459.466  
 113231766.89848  88232548.53948  21547284.103    21547286.360    21547283.846  
 128741217.59847 100317791.88146  24498619.569    24498619.031    24498618.673  
 114640325.48948  89330105.22148  21815311.679    21815315.147    21815311.491  
 18 01 01 00 12 00.0000000  0  9G08G07G21G16G27G23G09G31G26          0.000000000
 124370033.77946  96911708.18447  23666827.728    23666831.831    23666826.990  
 128154065.16547  99860280.33546  24386897.311    24386897.977    24386898.182  
 134106526.18846 104498600.81743  25519623.746    25519622.302    25519621.157  
 105819441.99648  82456723.45747  20136762.976    20136762.439    20136762.335  
 112181389.15948  87414074.77548  21347403.761    21347406.247    21347403.212  
 109174381.38348  85070950.65647  20775184.967    20775183.098    20775184.521  
 113179827.34548  88192076.16148  21537400.161    21537402.754    21537399.939  
 128831495.14247 100388137.97646  24515798.412    24515798.265    24515798.146  
 114715311.82448  89388536.13048  21829581.492    21829584.691    21829580.972  
 18 01 01 00 12 30.0000000  0  9G08G07G21G16G27G23G09G31G26          0.000000000
 124257448.04847  96823979.06947  23645404.018    23645407.508    23645402.556  
 128061844.90947  99788420.44146  24369348.406    24369349.374    24369348.475  
 134077442.07046 104475937.87343  25514088.385    25514087.880    25514088.122  
 105849577.42548  82480205.61547  20142497.616    20142497.109    20142496.780  
 112107462.87648  87356469.90148  21333335.663    21333338.419    21333335.339  
 109184037.92448  85078475.22547  20777022.704    20777020.754    20777022.107  
 113128400.95048  88152003.65548  21527614.048    21527616.700    21527614.011  
 128921857.14847 100458549.91646  24532994.212    24532994.141    24532993.566  
 114790530.97148  89447148.45348  21843895.176    21843898.349    21843894.711  
 18 01 01 00 13 00.0000000  0  9G08G07G21G16G27G23G09G31G26          0.000000000
 124144997.92747  96736355.65347  23624004.374    23624008.727    23624004.172  
 127969629.23247  99716564.09346  24351800.896    24351801.295    24351800.223  
 134048721.03646 104453557.88143  25508622.310    25508622.416    25508621.631  
 105880167.29248  82504041.88147  20148318.583    20148318.135    20148317.918  
 112034023.68048  87299244.58448  21319361.167    21319363.382    21319360.375  
 109194286.73848  85086461.30547  20778972.905    20778971.041    20778972.327  
 113077489.66648  88112332.52348  21517926.156    21517928.487    21517925.888  
 129012303.11347 100529027.25146  24550205.925    24550205.768    24550205.278  
 114865981.13648  89505940.79348  21858252.701    21858256.085    21858252.209  
 18 01 01 00 13 30.0000000  0  9G08G07G21G16G27G23G09G31G26          0.000000000
 124032686.34847  96648840.13747  23602632.202    23602636.245    23602632.530  
 127877418.87947  99644711.89446  24334254.201    24334253.569    24334253.995  
 134020364.62646 104431461.99443  25503225.239    25503226.443    25503225.273  
 105911209.82648  82528230.87447  20154225.844    20154225.284    20154225.171  
 111961074.09148  87242400.76948  21305478.854    21305481.318    21305478.598  
 109205128.06748  85094909.09047  20781036.004    20781034.022    20781035.353  
 113027095.44148  88073064.29848  21508336.252    21508338.615    21508336.081  
 129102832.37947 100599569.50246  24567432.750    24567432.633    24567432.544  
 114941660.54648  89564911.76348  21872654.126    21872657.263    21872653.697  
 18 01 01 00 14 00.0000000  0  9G08G07G21G16G27G23G09G31G26          0.000000000
 123920515.91447  96561434.63147  23581286.900    23581290.915    23581286.334  
 127785214.59747  99572864.39846  24316707.323    24316708.305    24316707.711  
 133992374.61446 104409651.62543  25497900.187    25497899.615    25497899.494  
 105942703.39848  82552771.33047  20160218.832    20160218.382    20160218.249  
 111888616.56248  87185940.38848  21291691.436    21291693.484    21291690.433  
 109216561.24648  85103818.05547  20783211.523    20783209.562    20783210.946  
 112977220.21948  88034200.49248  21498845.496    21498847.905    21498845.198  
 129193444.41746 100670176.28946  24584674.170    24584675.593    24584674.428  
 115017567.43548  89624059.98248  21887098.519    21887101.993    21887098.293  
 18 01 01 00 14 30.0000000  0  9G08G07G21G16G27G23G09G31G26          0.000000000
 123808489.34447  96474141.23947  23559968.619    23559972.903    23559969.025  
 127693016.88947  99501022.04946  24299163.477    24299164.314    24299162.666  
 133964752.26046 104388127.72843  25492645.031    25492643.698    25492643.211  
 105974645.96648  82577661.64847  20166297.338    20166296.847    20166296.729  
 111816653.55548  87129865.34148  21277996.500    21277999.227    21277996.226  
 109228586.57948  85113188.44647  20785499.927    20785497.979    20785499.344  
 112927865.90048  87995742.58248  21489454.000    21489455.899    21489453.288  
 129284138.74447 100740847.11747  24601933.936    24601934.440    24601933.129  
 115093700.00148  89683384.06448  21901585.956    21901589.533    21901585.864  
 18 01 01 00 15 00.0000000  0  9G08G07G21G16G27G23G09G31G26          0.000000000
 123696609.64347  96386962.30247  23538678.240    23538682.921    23538677.612  
 127600826.90947  99429185.71246  24281620.569    24281619.874    24281621.001  
 133937499.49046 104366891.84343  25487458.044    25487456.815    25487456.417  
 106007035.71348  82602900.41947  20172460.581    20172460.350    20172460.307  
 111745187.48548  87074177.52348  21264397.650    21264399.849    21264396.627  
 109241204.05148  85123020.23447  20787901.175    20787899.019    20787900.330  
 112879034.41848  87957692.07948  21480161.642    21480163.918    21480161.224  
 129374914.83247 100811581.68447  24619207.931    24619209.135    24619208.093  
 115170056.49048  89742882.63148  21916116.039    21916119.552    21916115.811  
 18 01 01 00 15 30.0000000  0  9G08G07G21G16G27G23G09G31G26          0.000000000
 123584879.40747  96299899.80147  23517416.671    23517422.524    23517416.792  
 127508645.38847  99357356.01646  24264078.673    24264078.207    24264078.264  
 133910617.40446 104345944.75043  25482343.475    25482342.422    25482342.228  
 106039871.21648  82628486.52647  20178709.317    20178708.778    20178708.702  
 111674220.81648  87018878.84048  21250892.055    21250895.177    21250892.042  
 109254413.47648  85133313.28747  20790414.644    20790412.803    20790414.238  
 112830727.62648  87920050.42348  21470968.895    21470971.122    21470968.709  
 129465772.09947 100882379.51646  24636497.921    24636498.464    24636498.416  
 115246635.15048  89802554.31448  21930689.097    21930692.082    21930688.508  
 18 01 01 00 16 00.0000000  0  9G08G07G21G16G27G23G09G31G26          0.000000000
 123473301.30747  96212955.88547  23496186.037    23496188.739    23496184.423  
 127416473.27647  99285533.61146  24246538.122    24246539.220    24246538.161  
 133884106.88446 104325287.22944  25477297.832    25477297.038    25477297.956  
 106073150.71148  82654418.59947  20185042.076    20185041.748    20185041.439  
 111603755.93648  86963971.16048  21237483.859    21237485.968    21237482.843  
 109268214.77848  85144067.54447  20793041.254    20793039.134    20793040.694  
 112782947.37548  87882819.06248  21461876.682    21461878.782    21461876.419  
 129556710.26147 100953240.39146  24653803.365    24653803.980    24653802.724  
 115323434.20848  89862397.73748  21945303.356    21945306.503    21945302.815  
 18 01 01 00 16 30.0000000  0  9G08G07G21G16G27G23G09G31G26          0.000000000
 123361878.38047  96126132.84547  23474981.361    23474985.823    23474981.264  
 127324311.35247  99213719.18247  24229000.792    24229000.777    24229000.650  
 133857970.03246 104304920.86043  25472324.983    25472322.425    25472323.015  
 106106872.62148  82680695.41747  20191459.112    20191458.659    20191458.472  
 111533795.23548  86909456.35548  21224170.522    21224173.031    21224169.999  
 109282607.81848  85155282.89447  20795779.684    20795777.981    20795779.412  
 112735695.55648  87845999.46748  21452884.965    21452887.018    21452884.452  
 129647728.52547 101024163.68946  24671124.125    24671124.258    24671122.698  
 115400451.90548  89922411.53948  21959959.301    21959962.498    21959958.719  
 18 01 01 00 17 00.0000000  0  9G08G07G21G16G27G23G09G31G26          0.000000000
 123250613.21347  96039432.72447  23453808.627    23453812.311    23453808.104  
 127232160.75947  99141913.56747  24211464.932    24211465.528    24211464.373  
 133832209.03246 104284847.39343  25467420.385    25467421.763    25467419.836  
 106141035.28648  82707315.67547  20197960.007    20197959.532    20197959.450  
 111464341.11848  86855336.27748  21210953.519    21210956.272    21210953.265  
 109297592.65148  85166959.38047  20798631.369    20798629.557    20798630.854  
 112688974.00848  87809593.07048  21443994.396    21443996.317    21443993.971  
 129738826.59147 101095149.16646  24688458.433    24688458.105    24688457.734  
 115477686.52848  89982594.35148  21974656.284    21974659.739    21974655.888  
 18 01 01 00 17 30.0000000  0  9G08G07G21G16G27G23G09G31G26          0.000000000
 123139508.34847  95952857.52847  23432666.448    23432670.420    23432665.337  
 127140022.17647  99070117.32646  24193931.747    24193931.695    24193931.643  
 133806824.33146 104265067.12343  25462592.115    25462589.244    25462591.344  
 106175636.74748  82734277.86047  20204544.729    20204544.020    20204543.979  
 111395395.89248  86801612.76448  21197834.415    21197836.184    21197833.315  
 109313168.70548  85179096.55647  20801595.506    20801593.473    20801595.044  
 112642784.54048  87773601.28148  21435204.875    21435206.699    21435204.292  
 129830003.59547 101166196.17846  24705809.869    24705808.879    24705809.284  
 115555136.30148  90042944.83548  21989394.705    21989397.771    21989394.057  
 18 01 01 00 18 00.0000000  0  9G08G07G21G16G27G23G09G31G26          0.000000000
 123028566.83147  95866409.63347  23411554.453    23411559.161    23411553.909  
 127047896.59947  98998331.18546  24176400.394    24176401.364    24176400.953  
 133781817.75546 104245581.50543  25457832.924    25457832.899    25457831.069  
 106210675.29248  82761580.62547  20211212.368    20211211.675    20211211.381  
 111326961.94848  86748287.61648  21184811.224    21184813.649    21184811.104  
 109329335.88248  85191694.35647  20804671.964    20804669.978    20804671.505  
 112597128.97848  87738025.52248  21426516.920    21426518.802    21426516.184  
 129921259.21147 101237304.37246  24723173.712    24723174.744    24723173.280  
 115632799.50348  90103461.61148  22004173.338    22004176.805    22004172.954  
 18 01 01 00 18 30.0000000  0  9G08G07G21G16G27G23G09G31G26          0.000000000
 122917791.49347  95780091.22147  23390474.873    23390478.887    23390474.319  
 126955784.71047  98926555.71746  24158872.312    24158872.678    24158871.757  
 133757191.13146 104226391.97043  25453145.776    25453146.379    25453144.337  
 106246149.05148  82789222.51047  20217962.764    20217962.028    20217962.006  
 111259041.57448  86695362.66548  21171886.996    21171888.993    21171886.211  
 109346094.27148  85204752.83247  20807861.106    20807858.895    20807860.420  
 112552009.09648  87702867.17448  21417930.748    21417932.545    21417930.543  
 130012593.02147 101308473.56046  24740554.810    24740555.091    24740555.055  
 115710674.38648  90164143.33448  22018992.636    22018995.559    22018992.083  
 18 01 01 00 19 00.0000000  0  9G08G07G21G16G27G23G09G31G26          0.000000000
 122807185.06247  95693904.42747  23369426.655    23369431.720    23369426.738  
 126863687.54547  98854791.71246  24141346.250    24141346.792    24141346.504  
 133732945.50746 104207499.33943  25448532.913    25448531.988    25448531.654  
 106282056.57648  82817202.40947  20224795.522    20224795.169    20224794.861  
 111191637.09248  86642839.72148  21159059.789    21159062.255    21159059.261  
 109363443.63848  85218271.81647  20811162.778    20811160.529    20811162.006  
 112507426.68248  87668127.62548  21409447.040    21409448.807    21409446.662  
 130104004.21847 101379703.01446  24757949.047    24757949.849    24757948.730  
 115788759.25648  90224988.68948  22033852.110    22033854.885    22033851.125  
 18 01 01 00 19 30.0000000  0  9G08G07G21G16G27G23G09G31G26          0.000000000
 122696750.25847  95607851.34847  23348411.923    23348415.526    23348410.725  
 126771605.98347  98783039.88046  24123823.715    24123824.295    24123823.536  
 133709081.67346 104188904.11443  25443991.275    25443991.135    25443990.692  
 106318395.79148  82845518.67847  20231710.856    20231710.314    20231709.967  
 111124750.81148  86590720.55348  21146331.598    21146334.179    21146331.379  
 109381383.83848  85232251.18047  20814576.428    20814574.482    20814575.725  
 112463383.49648  87633808.26248  21401065.644    21401067.616    21401065.614  
 130195492.42247 101450992.42446  24775359.048    24775360.434    24775358.534  
 115867052.37248  90285996.31448  22048750.191    22048753.858    22048749.835  
 18 01 01 00 20 00.0000000  0  9G08G07G21G16G27G23G09G31G26          0.000000000
 122586489.83847  95521934.12647  23327428.922    23327433.856    23327429.110  
 126679540.87747  98711300.86146  24106304.831    24106304.779    24106304.598  
 133685601.46446 104170607.89343  25439522.925    25439522.157    25439522.223  
 106355165.01948  82874170.02447  20238707.689    20238707.122    20238707.008  
 111058384.97248  86539006.93748  21133703.189    21133705.245    21133702.527  
 109399914.20648  85246690.41847  20818102.642    20818100.683    20818102.095  
 112419881.25448  87599910.41048  21392787.873    21392789.659    21392787.473  
 130287056.97247 101522341.41046  24792783.197    24792784.274    24792783.329  
 115945552.00648  90347164.85648  22063688.224    22063691.530    22063687.723  
 18 01 01 00 20 30.0000000  0  9G08G07G21G16G27G23G09G31G26          0.000000000
 122476406.42947  95436154.87947  23306481.557    23306485.233    23306481.463  
 126587493.34447  98639575.55447  24088789.118    24088788.948    24088789.096  
 133662506.43146 104152611.76743  25435127.739    25435127.782    25435128.134  
 106392362.55148  82903155.11847  20245785.935    20245785.691    20245785.375  
 110992541.83548  86487700.62048  21121172.593    21121175.875    21121172.884  
 109419034.35448  85261589.24147  20821741.314    20821738.945    20821740.647  
 112376921.71048  87566435.43948  21384612.561    21384614.806    21384612.393  
 130378697.31747 101593749.44746  24810221.638    24810222.983    24810221.576  
 116024256.45248  90408493.00648  22078664.926    22078668.522    22078664.808  
 18 01 01 00 21 00.0000000  0  9G08G07G21G16G27G23G09G31G26          0.000000000
 122366502.84847  95350515.77647  23285568.939    23285572.155    23285568.433  
 126495464.26047  98567864.60646  24071276.202    24071276.313    24071275.490  
 133639797.94546 104134916.85043  25430807.147    25430806.916    25430805.765  
 106429986.67948  82932472.62347  20252945.686    20252945.291    20252945.048  
 110927223.63648  86436803.33648  21108743.772    21108745.985    21108743.158  
 109438744.02648  85276947.41447  20825491.739    20825489.748    20825491.292  
 112334506.56348  87533384.67748  21376540.950    21376543.502    21376540.619  
 130470412.77847 101665215.98546  24827673.554    24827674.863    24827674.865  
 116103164.01848  90469979.41848  22093680.597    22093684.362    22093680.340  
 18 01 01 00 21 30.0000000  0  9G08G07G21G16G27G23G09G31G26          0.000000000
 122256782.30047  95265019.28547  23264688.297    23264692.555    23264687.871  
 126403454.23347  98496168.50747  24053768.172    24053767.349    24053767.537  
 133617476.82646 104117523.81143  25426557.990    25426559.156    25426558.517  
 106468035.24848  82962120.85847  20260186.203    20260185.621    20260185.485  
 110862432.60948  86386316.85048  21096414.448    21096416.802    21096413.814  
 109459042.90448  85292764.71547  20829354.419    20829352.459    20829353.880  
 112292637.48248  87500759.42248  21368573.528    21368576.054    21368573.237  
 130562203.16547 101736740.92046  24845142.171    24845142.383    24845141.637  
 116182273.00548  90531622.78648  22108735.070    22108737.932    22108734.482  
 18 01 01 00 22 00.0000000  0  9G08G07G21G16G27G23G09G31G26          0.000000000
 122147246.92047  95179667.08447  23243843.856    23243848.796    23243843.880  
 126311464.67447  98424488.35247  24036262.442    24036262.229    24036262.771  
 133595544.82346 104100433.97643  25422385.506    25422385.160    25422385.502  
 106506506.73648  82992098.64247  20267507.080    20267506.490    20267506.416  
 110798170.94048  86336242.84348  21084185.475    21084188.181    21084185.238  
 109479930.79748  85309040.99047  20833329.231    20833327.399    20833328.923  
 112251316.13448  87468560.96148  21360710.586    21360712.716    21360710.178  
 130654067.72947 101808323.66046  24862622.920    24862623.859    24862622.708  
 116261581.71848  90593421.78748  22123826.763    22123830.123    22123826.269  
 18 01 01 00 22 30.0000000  0  9G08G07G21G16G27G23G09G31G26          0.000000000
 122037899.61947  95094461.42347  23223036.175    23223041.189    23223035.710  
 126219496.42247  98352824.79447  24018760.752    24018761.031    24018760.851  
 133574003.37846 104083648.47143  25418286.103    25418286.070    25418285.750  
 106545399.58948  83022404.76947  20274908.248    20274907.473    20274907.344  
 110734440.82248  86286583.03648  21072058.095    21072060.595    21072057.911  
 109501407.32648  85325775.93747  20837415.943    20837414.294    20837415.429  
 112210544.19948  87436790.62448  21352951.856    21352954.229    21352951.755  
 130746005.89747 101879963.79646  24880118.654    24880119.671    24880118.066  
 116341088.44848  90655375.08348  22138956.263    22138959.452    22138956.032  
 18 01 01 00 23 00.0000000  0  9G08G07G21G16G27G23G09G31G26          0.000000000
 121928743.26147  95009404.54547  23202264.392    23202269.209    23202264.019  
 126127550.29347  98281178.50447  24001264.066    24001264.720    24001264.632  
 133552853.55346 104067168.09943  25414262.809    25414260.976    25414261.093  
 106584711.69748  83053037.57947  20282388.897    20282388.306    20282388.239  
 110671244.37548  86237339.07048  21060032.536    21060034.904    21060031.695  
 109523471.75748  85342968.99247  20841614.818    20841612.952    20841614.289  
 112170323.33848  87405449.69848  21345298.301    21345300.663    21345297.926  
 130838017.03447 101951660.76046  24897626.973    24897629.094    24897627.251  
 116420791.55648  90717481.39148  22154123.561    22154126.542    22154123.047  
 18 01 01 00 23 30.0000000  0  9G08G07G21G16G27G23G09G31G26          0.000000000
 121819780.76147  94924498.73047  23181528.935    23181533.409    23181529.285  
 126035627.24147  98209550.16947  23983771.928    23983772.560    23983771.335  
 133532096.45246 104050993.76843  25410311.819    25410311.604    25410310.403  
 106624441.48048  83083995.85947  20289949.365    20289948.759    20289948.637  
 110608583.76648  86188512.65148  21048108.771    21048110.757    21048107.836  
 109546123.70048  85360619.84547  20845925.629    20845923.503    20845924.912  
 112130655.12548  87374539.40348  21337749.566    21337751.801    21337749.271  
 130930100.81047 102023414.30446  24915150.269    24915151.267    24915150.465  
 116500689.31848  90779739.40148  22169327.570    22169330.814    22169326.702  
 18 01 01 00 24 00.0000000  0  9G08G07G21G16G27G23G09G31G26          0.000000000
 121711014.59747  94839745.91147  23160831.392    23160836.667    23160831.283  
 125943728.19147  98137940.53746  23966284.480    23966285.040    23966284.290  
 133511733.59046 104035126.62543  25406436.688    25406436.359    25406435.801  
 106664586.68748  83115277.84047  20297588.550    20297588.079    20297587.718  
 110546461.12248  86140105.41148  21036286.511    21036289.391    21036286.515  
 109569362.78348  85378728.20447  20850347.575    20850345.739    20850346.997  
 112091541.17948  87344060.99848  21330306.645    21330308.821    21330306.103  
 131022256.62747 102095223.98946  24932687.170    24932688.130    24932687.282  
 116580780.10448  90842147.80148  22184567.761    22184571.259    22184567.580  
 18 01 01 00 24 30.0000000  0  9G08G07G21G16G27G23G09G31G26          0.000000000
 121602447.63747  94755148.31747  23140173.208    23140176.771    23140172.874  
 125851854.32147  98066350.53946  23948801.545    23948801.897    23948801.128  
 133491765.99246 104019567.47943  25402636.821    25402636.430    25402636.742  
 106705145.79548  83146882.34747  20305306.728    20305306.185    20305305.891  
 110484878.55848  86092119.01548  21024568.087    21024570.559    21024567.579  
 109593188.54948  85397293.73147  20854881.510    20854879.691    20854880.896  
 112052983.07748  87314015.72548  21322969.240    21322971.361    21322968.862  
 131114483.63446 102167089.14946  24950236.902    24950238.535    24950236.770  
 116661062.21648  90904705.28848  22199845.079    22199848.659    22199844.577  
 18 01 01 00 25 00.0000000  0  9G08G07G21G16G27G23G09G31G26          0.000000000
 121494082.56347  94670708.01847  23119551.640    23119555.541    23119550.851  
 125760006.42247  97994780.77047  23931323.555    23931323.323    23931323.285  
 133472195.06146 104004317.40143  25398913.784    25398912.179    25398912.794  
 106746116.89448  83178807.88247  20313103.147    20313102.763    20313102.472  
 110423838.13448  86044555.08048  21012952.624    21012954.978    21012952.041  
 109617600.40448  85416315.94747  20859527.203    20859525.032    20859526.395  
 112014982.38448  87284404.79648  21315737.824    21315740.036    21315737.556  
 131206781.28547 102239009.31646  24967801.630    24967801.389    24967800.662  
 116741534.02648  90967410.59848  22215158.663    22215161.950    22215158.149  
 18 01 01 00 25 30.0000000  0  9G08G07G21G16G27G23G09G31G26          0.000000000
 121385922.40047  94586427.41047  23098969.551    23098973.387    23098968.931  
 125668185.81447  97923232.25047  23913849.781    23913850.638    23913849.852  
 133453021.73646 103989377.17143  25395264.307    25395263.609    25395262.131  
 106787498.02248  83211052.91647  20320977.651    20320977.346    20320977.071  
 110363341.94448  85997415.22648  21001440.400    21001442.696    21001439.902  
 109642597.65048  85435794.31147  20864283.909    20864281.893    20864283.219  
 111977540.66948  87255229.43248  21308613.117    21308614.983    21308612.555  
 131299149.45347 102310984.50646  24985378.414    24985379.033    24985378.229  
 116822193.83948  91030262.40148  22230507.705    22230511.197    22230507.129  
 18 01 01 00 26 00.0000000  0  9G08G07G21G16G27G23G09G31G26          0.000000000
 121277969.59647  94502308.35947  23078426.789    23078429.753    23078425.980  
 125576393.25947  97851705.61447  23896382.959    23896383.436    23896382.236  
 133434247.34546 103974747.75943  25391691.296    25391690.753    25391690.873  
 106829287.62348  83243616.24747  20328930.055    20328929.490    20328929.271  
 110303392.01248  85950701.00748  20990031.786    20990034.610    20990032.011  
 109668179.96448  85455728.57947  20869152.147    20869149.867    20869151.562  
 111940659.43548  87226490.81048  21301594.839    21301597.032    21301594.178  
 131391587.29447 102383013.92946  25002968.609    25002969.491    25002968.586  
 116903040.07148  91093259.47948  22245891.936    22245895.037    22245891.708  
 18 01 01 00 26 30.0000000  0  9G08G07G21G16G27G23G09G31G26          0.000000000
 121170227.17747  94418353.26147  23057923.328    23057926.843    23057923.207  
 125484629.83047  97780201.64547  23878920.912    23878920.747    23878920.900  
 133415873.32246 103960430.37643  25388195.401    25388195.274    25388194.712  
 106871483.92848  83276496.49447  20336959.814    20336959.241    20336959.138  
 110243990.36748  85904414.03548  20978728.857    20978730.927    20978728.009  
 109694346.70048  85476118.23447  20874131.618    20874129.518    20874130.864  
 111904340.19948  87198190.11048  21294683.366    21294685.539    21294683.018  
 131484094.24946 102455097.24846  25020572.539    25020573.657    25020571.940  
 116984071.04048  91156400.48748  22261311.942    22261315.045    22261311.370  
 18 01 01 00 27 00.0000000  0  9G08G07G21G16G27G23G09G31G26          0.000000000
 121062697.65847  94334564.06447  23037461.359    23037465.419    23037461.387  
 125392896.47647  97708721.15047  23861464.401    23861464.166    23861464.151  
 133397900.84046 103946425.83743  25384774.958    25384774.673    25384774.160  
 106914084.88848  83309692.04947  20345066.554    20345065.897    20345065.786  
 110185138.99848  85858555.85348  20967529.810    20967531.878    20967529.021  
 109721096.87448  85496962.51547  20879221.797    20879219.757    20879221.149  
 111868584.44448  87170328.48448  21287879.292    21287881.196    21287878.829  
 131576669.61846 102527233.84946  25038188.506    25038188.661    25038187.505  
 117065285.09848  91219684.16548  22276766.314    22276769.573    22276766.010  
 18 01 01 00 27 30.0000000  0  9G08G07G21G16G27G23G09G31G26          0.000000000
 120955383.74147  94250942.87347  23017040.551    23017044.436    23017040.089  
 125301194.18247  97637264.83546  23844013.742    23844013.136    23844013.279  
 133380330.88646 103932735.01343  25381432.444    25381431.254    25381430.187  
 106957088.73648  83343201.54147  20353250.170    20353249.238    20353249.097  
 110126839.90348  85813128.02248  20956435.149    20956437.773    20956434.910  
 109748430.19048  85518261.19147  20884423.046    20884421.277    20884422.448  
 111833393.62248  87142907.06448  21281182.702    21281184.821    21281182.242  
 131669313.06546 102599423.46546  25055817.488    25055818.608    25055817.717  
 117146680.64348  91283109.26348  22292255.391    22292258.524    22292254.877  
 18 01 01 00 28 00.0000000  0  9G08G07G21G16G27G23G09G31G26          0.000000000
 120848288.44747  94167492.02447  22996661.252    22996664.989    22996660.502  
 125209524.21447  97565833.69847  23826570.557    23826569.535    23826569.774  
 133363164.64946 103919358.72543  25378165.040    25378165.802    25378163.744  
 107000493.47648  83377023.41947  20361509.460    20361509.036    20361508.746  
 110069095.06448  85768132.05848  20945446.613    20945449.333    20945446.567  
 109776345.91548  85540013.69947  20889735.279    20889733.467    20889734.669  
 111798769.22048  87115927.01448  21274593.650    21274596.035    21274593.468  
 131762023.74246 102671665.50046  25073460.807    25073461.924    25073460.677  
 117228256.04948  91346674.51148  22307778.582    22307782.178    22307778.087  
 18 01 01 00 28 30.0000000  0  9G08G07G21G16G27G23G09G31G26          0.000000000
 120741414.07047  94084213.34047  22976323.618    22976327.577    22976322.728  
 125117887.33247  97494428.35747  23809132.106    23809130.947    23809131.481  
 133346402.96846 103906297.70743  25374975.630    25374974.838    25374974.875  
 107044297.57248  83411156.48647  20369845.378    20369844.719    20369844.532  
 110011906.40548  85723569.48548  20934564.748    20934566.605    20934564.026  
 109804842.96348  85562219.18147  20895158.393    20895156.266    20895157.520  
 111764712.63148  87089389.41048  21268112.987    21268115.233    21268112.580  
 131854801.39446 102743959.72746  25091115.292    25091116.259    25091115.458  
 117310009.68448  91410378.64848  22323335.775    22323339.043    22323335.095  
 18 01 01 00 29 00.0000000  0  9G08G07G21G16G27G23G09G31G26          0.000000000
 120634763.55947  94001109.08647  22956028.097    22956032.322    22956027.522  
 125026284.51747  97423049.58447  23791700.571    23791699.725    23791700.077  
 133330047.41246 103893553.14843  25371862.155    25371862.260    25371862.249  
 107088498.75648  83445598.96747  20378256.162    20378255.892    20378255.679  
 109955275.82948  85679441.78948  20923788.080    20923790.279    20923787.433  
 109833921.40348  85584877.69647  20900691.637    20900689.414    20900690.868  
 111731225.29348  87063295.38848  21261740.511    21261742.995    21261740.163  
 131947645.22846 102816305.53846  25108782.581    25108784.373    25108782.500  
 117391939.97748  91474220.44248  22338926.739    22338930.148    22338925.825  
 18 01 01 00 29 30.0000000  0  9G08G07G21G16G27G23G09G31G26          0.000000000
 120528339.99447  93918181.67847  22935777.228    22935781.009    22935776.648  
 124934717.31147  97351698.53447  23774275.656    23774275.583    23774275.355  
 133314098.64946 103881125.55743  25368828.307    25368827.588    25368826.377  
 107133095.55748  83480349.71947  20386742.781    20386742.360    20386742.154  
 109899205.26748  85635750.47248  20913117.947    20913120.228    20913117.485  
 109863579.92448  85607988.22447  20906335.314    20906333.290    20906334.605  
 111698308.56548  87037645.99048  21255476.849    21255479.055    21255476.544  
 132040554.78646 102888702.49546  25126462.576    25126464.031    25126463.497  
 117474045.29948  91538198.61148  22354551.315    22354554.288    22354550.532  
 18 01 01 00 30 00.0000000  0  9G08G07G21G16G27G23G09G31G26          0.000000000
 120422145.75547  93835432.95447  22915568.987    22915572.083    22915568.603  
 124843186.26647  97280375.67247  23756857.778    23756857.644    23756858.025  
 133298558.01046 103869015.99043  25365870.963    25365870.668    25365869.803  
 107178085.90948  83515407.13647  20395304.276    20395303.785    20395303.462  
 109843696.58948  85592496.97748  20902554.819    20902557.258    20902554.437  
 109893817.89148  85631550.26647  20912089.514    20912087.647    20912088.802  
 111665963.98648  87012442.42248  21249321.675    21249323.953    21249321.543  
 132133529.21846 102961150.11146  25144155.052    25144157.116    25144155.527  
 117556324.02248  91602311.89348  22370208.146    22370210.979    22370207.501  
 18 01 01 00 30 30.0000000  0  9G08G07G21G16G27G23G09G31G26          0.000000000
 120316183.69847  93752865.14047  22895404.305    22895408.609    22895403.682  
 124751692.84347  97209082.13247  23739447.497    23739447.940    23739447.114  
 133283426.30146 103857225.03243  25362990.606    25362989.587    25362989.622  
 107223468.02548  83550769.82547  20403940.146    20403939.682    20403939.451  
 109788751.65848  85549682.76748  20892099.044    20892101.600    20892098.740  
 109924634.58048  85655563.26147  20917953.723    20917951.774    20917953.145  
 111634192.62648  86987685.50948  21243275.601    21243278.110    21243275.633  
 132226568.32346 103033648.07845  25161860.221    25161861.395    25161861.064  
 117638774.59748  91666559.09848  22385897.817    22385901.412    22385897.275  
 18 01 01 00 31 00.0000000  0  9G08G07G21G16G27G23G09G31G26          0.000000000
 120210456.61547  93670480.42747  22875286.213    22875289.776    22875284.861  
 124660237.88347  97137818.53347  23722044.615    23722043.396    23722043.871  
 133268704.32245 103845753.43643  25360189.106    25360188.880    25360187.980  
 107269239.98648  83586436.28647  20412650.101    20412649.671    20412649.465  
 109734372.31448  85507309.26948  20881750.971    20881753.535    20881750.675  
 109956029.07848  85680026.49347  20923927.630    20923926.056    20923927.416  
 111602995.94448  86963376.41548  21237339.624    21237341.776    21237339.003  
 132319671.14546 103106195.68446  25179577.012    25179578.367    25179578.031  
 117721395.41948  91730938.96447  22401619.974    22401623.384    22401619.422  
 18 01 01 00 31 30.0000000  0  9G08G07G21G16G27G23G09G31G26          0.000000000
 120104966.95847  93588280.73647  22855211.002    22855214.831    22855211.133  
 124568822.51247  97066585.79447  23704648.096    23704648.107    23704647.997  
 133254393.86246 103834602.42843  25357465.767    25357467.612    25357465.911  
 107315400.03048  83622405.15447  20421434.316    20421433.657    20421433.362  
 109680560.34048  85465377.87748  20871511.148    20871513.482    20871510.733  
 109988000.68448  85704939.42647  20930011.849    20930009.987    20930011.302  
 111572375.26248  86939516.14348  21231512.331    21231514.577    21231512.092  
 132412837.37446 103178792.66946  25197306.728    25197308.062    25197306.287  
 117804184.91548  91795450.26548  22417374.487    22417377.198    22417373.772  
 18 01 01 00 32 00.0000000  0  9G08G07G21G16G27G23G09G31G26          0.000000000
 119999717.50247  93506268.20647  22835183.147    22835186.668    22835182.545  
 124477447.89547  96995384.83647  23687260.477    23687260.062    23687260.077  
 133240495.85846 103823772.81243  25354821.433    25354822.340    25354820.167  
 107361946.00148  83658674.74347  20430291.375    20430291.067    20430290.921  
 109627317.56149  85423890.00948  20861379.780    20861381.617    20861378.851  
 110020548.37548  85730301.25547  20936205.448    20936203.637    20936204.887  
 111542331.86748  86916105.71148  21225795.525    21225797.576    21225795.126  
 132506066.32746 103251438.52946  25215047.784    25215049.432    25215047.953  
 117887141.51948  91860091.77848  22433160.335    22433163.734    22433159.945  
 18 01 01 00 32 30.0000000  0  9G08G07G21G16G27G23G09G31G26          0.000000000
 119894711.03747  93424445.02947  22815200.758    22815204.456    22815200.154  
 124386115.25947  96924216.55347  23669880.609    23669880.046    23669879.719  
 133227010.60646 103813264.84143  25352255.785    25352255.164    25352255.218  
 107408876.25348  83695243.76947  20439221.986    20439221.636    20439221.409  
 109574645.76849  85382847.08448  20851356.711    20851358.673    20851355.801  
 110053671.07748  85756111.14447  20942508.461    20942506.759    20942507.942  
 111512867.02648  86893146.08648  21220188.495    21220190.436    21220188.210  
 132599357.18246 103324132.60446  25232800.511    25232801.384    25232799.048  
 117970263.64148  91924862.26048  22448978.137    22448981.365    22448977.802  
 18 01 01 00 33 00.0000000  0  9G08G07G21G16G27G23G09G31G26          0.000000000
 119789950.47247  93342813.46647  22795265.349    22795268.435    22795265.122  
 124294825.38947  96853081.61847  23652508.537    23652507.158    23652508.167  
 133213939.31346 103803079.40243  25349768.425    25349768.344    25349767.135  
 107456189.01248  83732110.85147  20448225.462    20448224.761    20448224.797  
 109522546.69149  85342250.42548  20841442.300    20841444.661    20841441.813  
 110087368.08848  85782368.55147  20948921.117    20948918.959    20948920.504  
 111483981.94948  86870638.24048  21214691.988    21214693.923    21214691.686  
 132692709.93346 103396874.89446  25250563.818    25250566.135    25250564.757  
 118053549.74548  91989760.51648  22464826.535    22464830.284    22464826.232  
 18 01 01 00 33 30.0000000  0  9G08G07G21G16G27G23G09G31G26          0.000000000
 119685438.29747  93261375.44047  22775377.044    22775381.826    22775377.291  
 124203579.47948  96781980.92447  23635144.325    23635144.934    23635144.312  
 133201283.37846 103793217.69743  25347360.328    25347359.288    25347357.877  
 107503882.33048  83769274.48547  20457301.115    20457300.606    20457300.514  
 109471022.03248  85302101.36148  20831636.984    20831639.579    20831636.840  
 110121638.44648  85809072.71647  20955442.443    20955440.215    20955441.714  
 111455677.90448  86848583.14748  21209305.687    21209307.851    21209305.356  
 132786123.55046 103469664.66446  25268340.453    25268340.388    25268340.459  
 118136998.24848  92054785.33147  22480706.554    22480709.549    22480706.129  
 18 01 01 00 34 00.0000000  0  9G08G07G21G16G27G23G09G31G26          0.000000000
 119581177.20547  93180133.06247  22755537.235    22755541.463    22755536.890  
 124112378.88848  96710915.54147  23617789.941    23617788.469    23617788.842  
 133189043.27946 103783679.99543  25345030.419    25345030.076    25345029.801  
 107551954.46648  83806733.29147  20466448.754    20466448.441    20466448.242  
 109420073.55848  85262401.26548  20821941.575    20821944.222    20821941.648  
 110156481.43048  85836223.08247  20962072.805    20962070.860    20962072.388  
 111427956.09048  86826981.73248  21204030.353    21204032.726    21204030.182  
 132879597.33046 103542501.33046  25286127.746    25286128.915    25286128.893  
 118220607.64248  92119935.50747  22496617.243    22496620.061    22496616.693  
 18 01 01 00 34 30.0000000  0  9G08G07G21G16G27G23G09G31G26          0.000000000
 119477170.25247  93099088.73447  22735745.358    22735749.495    22735744.846  
 124021224.87247  96639886.44247  23600443.216    23600442.704    23600442.758  
 133177219.80546 103774466.87743  25342782.010    25342780.982    25342780.698  
 107600403.25548  83844485.59347  20475668.677    20475668.027    20475667.728  
 109369702.89648  85223151.41048  20812356.388    20812359.046    20812356.281  
 110191895.94948  85863818.80147  20968811.973    20968810.023    20968811.421  
 111400817.66148  86805834.90348  21198866.174    21198868.277    21198865.780  
 132973130.85746 103615384.56546  25303927.490    25303929.589    25303926.466  
 118304376.37348  92185209.84748  22512557.414    22512560.872    22512557.355  
 18 01 01 00 35 00.0000000  0  9G08G07G21G16G27G23G09G31G26          0.000000000
 119373419.92047  93018244.34747  22716001.718    22716005.673    22716001.958  
 123930117.74847  96568893.89047  23583105.990    23583106.521    23583105.724  
 133165814.25646 103765579.48143  25340610.053    25340609.230    25340610.125  
 107649226.69948  83882529.84347  20484959.479    20484958.849    20484958.718  
 109319911.76649  85184353.14448  20802881.548    20802884.171    20802881.512  
 110227880.89748  85891859.01047  20975659.591    20975657.807    20975658.970  
 111374263.81448  86785143.60448  21193812.932    21193815.309    21193812.670  
 133066723.41546 103688313.77446  25321736.795    25321736.812    25321737.112  
 118388302.88048  92250607.12047  22528528.164    22528531.918    22528527.823  
 18 01 01 00 35 30.0000000  0  9G08G07G21G16G27G23G09G31G26          0.000000000
 119269928.51847  92937601.71947  22696307.982    22696312.640    22696308.009  
 123839059.20348  96497939.21147  23565778.300    23565779.090    23565778.216  
 133154827.82446 103757018.66243  25338520.185    25338520.873    25338518.304  
 107698423.26648  83920864.83147  20494321.144    20494320.593    20494320.368  
 109270701.73949  85146007.68348  20793517.870    20793519.607    20793516.976  
 110264435.33048  85920342.97247  20982615.530    20982613.872    20982615.284  
 111348295.69448  86764908.69248  21188871.769    21188873.769    21188871.356  
 133160374.61446 103761288.66045  25339556.587    25339559.122    25339558.242  
 118472385.65248  92316126.18147  22544528.652    22544531.793    22544528.283  
 18 01 01 00 36 00.0000000  0  9G08G07G21G16G27G23G09G31G26          0.000000000
 119166699.24347  92857163.37447  22676664.460    22676668.444    22676663.969  
 123748050.58747  96427023.44047  23548459.885    23548460.199    23548459.577  
 133144261.14046 103748784.88243  25336509.858    25336507.978    25336508.416  
 107747990.83148  83959488.91247  20503753.412    20503753.212    20503752.608  
 109222074.46649  85108116.31349  20784264.177    20784266.209    20784263.666  
 110301558.03149  85949269.73447  20989680.077    20989678.218    20989679.376  
 111322914.38248  86745131.04848  21184041.288    21184043.906    21184041.103  
 133254083.73746 103834308.68846  25357389.761    25357392.069    25357389.261  
 118556623.18948  92381765.81247  22560558.949    22560561.454    22560558.096  
 18 01 01 00 36 30.0000000  0  9G08G07G21G16G27G23G09G31G26          0.000000000
 119063734.63947  92776931.24947  22657070.920    22657074.959    22657070.763  
 123657092.81148  96356147.25147  23531152.058    23531151.034    23531151.612  
 133134114.85846 103740878.74343  25334578.770    25334577.689    25334577.471  
 107797927.61248  83998400.69447  20513256.346    20513255.778    20513255.412  
 109174031.54249  85070680.28948  20775121.939    20775124.050    20775121.260  
 110339247.98148  85978638.51847  20996852.079    20996850.060    20996851.585  
 111298121.03048  86725811.54748  21179323.518    21179325.608    21179323.071  
 133347850.19346 103907373.36546  25375233.908    25375235.200    25375233.253  
 118641013.96748  92447524.85947  22576617.926    22576620.499    22576617.025  
 18 01 01 00 37 00.0000000  0  9G08G07G21G16G27G23G09G31G26          0.000000000
 118961037.25147  92696907.34647  22637527.647    22637532.028    22637528.009  
 123566186.88748  96285311.46147  23513852.291    23513852.953    23513852.091  
 133124388.58946 103733299.78943  25332728.126    25332726.680    25332727.297  
 107848231.80248  84037598.76347  20522828.763    20522828.315    20522828.082  
 109126574.53149  85033700.81148  20766091.154    20766092.976    20766090.495  
 110377504.22048  86008448.56547  21004132.360    21004130.081    21004131.646  
 111273916.64548  86706950.98048  21174717.598    21174720.089    21174717.116  
 133441673.27646 103980482.22246  25393086.881    25393088.881    25393087.689  
 118725556.46748  92513402.13747  22592705.489    22592709.033    22592704.804  
 18 01 01 00 37 30.0000000  0  9G08G07G21G16G27G23G09G31G26          0.000000000
 118858609.88347  92617093.84747  22618036.523    22618040.623    22618036.603  
 123475334.29848  96214517.25247  23496563.960    23496564.297    23496563.167  
 133115085.05246 103726050.31943  25330957.289    25330955.754    25330955.318  
 107898901.46148  84077081.62147  20532470.987    20532470.363    20532470.131  
 109079704.97648  84997179.09849  20757171.970    20757174.111    20757171.549  
 110416325.34948  86038698.77847  21011519.598    21011517.589    21011518.712  
 111250302.31148  86688550.19848  21170224.206    21170226.321    21170223.536  
 133535552.30246 104053634.61046  25410952.130    25410953.940    25410952.096  
 118810249.19648  92579396.46747  22608822.186    22608825.062    22608821.746  
 18 01 01 00 38 00.0000000  0  8G08G07G21G16G27G23G09G26             0.000000000
 118756455.28947  92537492.90247  22598598.034    22598600.898    22598597.095  
 123384536.16548  96143765.47747  23479285.820    23479285.358    23479285.121  
 133106204.85246 103719130.69243  25329267.934    25329267.780    25329265.788  
 107949934.64948  84116847.74747  20542182.276    20542181.498    20542181.403  
 109033424.41149  84961116.33349  20748365.276    20748367.255    20748364.595  
 110455710.39148  86069388.41447  21019014.045    21019012.468    21019013.749  
 111227279.07548  86670610.01648  21165842.692    21165845.175    21165842.528  
 118895090.65548  92645506.69647  22624966.699    22624969.841    22624966.400  
 18 01 01 00 38 30.0000000  0  8G08G07G21G16G27G23G09G26             0.000000000
 118654576.11547  92458106.57947  22579211.109    22579214.544    22579210.485  
 123293793.69848  96073057.07147  23462018.245    23462017.436    23462018.388  
 133097748.54446 103712541.35043  25327657.820    25327657.930    25327655.742  
 108001329.49048  84156895.67747  20551962.196    20551961.699    20551961.544  
 108987734.30249  84925513.66449  20739670.474    20739672.891    20739670.081  
 110495658.39248  86100516.70547  21026616.241    21026614.226    21026615.594  
 111204847.91648  86653131.18248  21161574.261    21161576.657    21161573.952  
 118980079.35548  92711731.64347  22641139.936    22641142.888    22641139.218  
 18 01 01 00 39 00.0000000  0  8G08G07G21G16G27G23G09G26             0.000000000
 118552975.04647  92378936.92947  22559876.603    22559880.371    22559875.911  
 123203107.92548  96002392.83547  23444761.086    23444761.289    23444760.278  
 133089716.70046 103706282.78543  25326129.014    25326129.221    25326127.312  
 108053084.10948  84197223.95547  20561811.103    20561810.188    20561810.052  
 108942636.20449  84890372.30649  20731088.654    20731091.016    20731088.166  
 110536167.96548  86132082.59947  21034324.897    21034322.921    21034324.302  
 111183009.84748  86636114.50548  21157418.713    21157420.993    21157418.401  
 119065213.63448  92778070.04047  22657340.479    22657343.336    22657339.685  
 18 01 01 00 39 30.0000000  0  8G08G07G21G16G27G23G09G26             0.000000000
 118451654.68047  92299986.03347  22540595.504    22540599.665    22540595.458  
 123112480.14248  95931773.81247  23427515.117    23427515.175    23427514.930  
 133082109.90646 103700355.39943  25324681.239    25324681.282    25324680.286  
 108105196.56948  84237831.07247  20571727.568    20571726.966    20571726.819  
 108898131.51549  84855693.34049  20722619.900    20722621.997    20722619.199  
 110577237.94648  86164085.17247  21042140.378    21042138.153    21042139.693  
 111161765.80648  86619560.71048  21153376.150    21153378.367    21153375.787  
 119150492.36848  92844521.01947  22673568.499    22673571.254    22673567.097  
 18 01 01 00 40 00.0000000  0  8G08G07G21G16G27G23G09G26             0.000000000
 118350617.70247  92221255.95847  22521369.465    22521372.246    22521368.407  
 123021911.59348  95861200.91747  23410280.798    23410280.755    23410280.017  
 133074929.03746 103694759.92443  25323316.122    25323315.701    25323315.446  
 108157664.97848  84278715.54947  20581711.920    20581711.329    20581711.293  
 108854221.65849  84821477.87649  20714264.290    20714266.162    20714263.467  
 110618867.02948  86196523.41147  21050061.950    21050059.876    21050061.562  
 111141116.74848  86603470.53248  21149446.786    21149448.926    21149446.294  
 119235913.94748  92911083.28247  22689823.174    22689826.501    22689822.894  
 18 01 01 00 40 30.0000000  0  8G08G07G21G16G27G23G09G26             0.000000000
 118249866.69547  92142748.69547  22502197.301    22502200.300    22502196.265  
 122931403.55648  95790675.19547  23393056.926    23393058.039    23393057.057  
 133068174.90746 103689496.96443  25322029.868    25322030.103    25322028.961  
 108210487.53048  84319875.97647  20591763.771    20591763.234    20591763.023  
 108810908.05449  84787727.03149  20706021.728    20706023.806    20706021.075  
 110661053.98648  86229396.35347  21058089.989    21058087.993    21058089.204  
 111121063.60948  86587844.70448  21145630.709    21145632.955    21145630.413  
 119321476.87247  92977755.69047  22706105.054    22706108.751    22706104.964  
 18 01 01 00 41 00.0000000  0  8G08G07G21G16G27G23G09G26             0.000000000
 118149404.24747  92064466.32147  22483079.973    22483082.970    22483078.820  
 122840957.41548  95720197.71247  23375845.543    23375846.031    23375845.735  
 133061848.16646 103684567.08943  25320827.443    25320825.831    25320826.341  
 108263662.33248  84361310.89647  20601882.540    20601881.948    20601881.838  
 108768192.06449  84754441.86149  20697892.988    20697895.254    20697892.492  
 110703797.57448  86262703.02847  21066223.938    21066221.580    21066223.316  
 111101607.23648  86572683.89448  21141928.549    21141930.442    21141928.113  
 119407179.70647  93044537.10847  22722413.769    22722417.281    22722413.477  
 18 01 01 00 41 30.0000000  0  8G08G07G21G16G27G23G09G26             0.000000000
 118049233.36647  91986411.11247  22464017.209    22464021.276    22464016.953  
 122750574.01348  95649769.09447  23358646.584    23358646.122    23358646.945  
 133055949.76146 103679970.92443  25319703.396    25319703.993    25319703.231  
 108317187.43448  84403018.77147  20612068.007    20612067.363    20612067.158  
 108726075.07549  84721623.44349  20689878.591    20689880.547    20689877.689  
 110747096.49848  86296442.44447  21074463.425    21074461.242    21074462.723  
 111082748.52148  86557988.78948  21138339.884    21138341.838    21138339.312  
 119493020.99647  93111426.43647  22738749.271    22738752.548    22738748.769  
 18 01 01 00 42 00.0000000  0  8G08G07G21G16G27G23G09G26             0.000000000
 117949356.72647  91908585.19748  22445011.190    22445015.148    22445011.181  
 122660254.70748  95579390.41347  23341459.769    23341459.461    23341459.414  
 133050480.17246 103675708.88443  25318662.456    25318661.372    25318661.828  
 108371060.91848  84444998.11047  20622319.696    20622319.269    20622318.970  
 108684558.39249  84689272.79749  20681978.404    20681980.337    20681977.416  
 110790949.39748  86330613.51847  21082808.295    21082806.229    21082807.675  
 111064488.30948  86543760.04548  21134865.279    21134867.139    21134864.532  
 119578999.29848  93178422.51947  22755110.194    22755113.966    22755109.881  
 18 01 01 00 42 30.0000000  0  8G08G07G21G16G27G23G09G26             0.000000000
 117849776.64747  91830990.35948  22426062.961    22426065.824    22426061.851  
 122570000.96648  95509062.84147  23324284.643    23324284.292    23324284.893  
 133045439.93446 103671781.43343  25317705.480    25317701.958    25317703.942  
 108425280.97248  84487247.50047  20632637.424    20632636.923    20632636.817  
 108643643.33849  84657390.94949  20674192.052    20674194.401    20674191.353  
 110835355.06948  86365215.32347  21091257.922    21091256.528    21091257.766  
 111046827.41348  86529998.31048  21131503.892    21131506.249    21131503.696  
 119665113.18847  93245524.24947  22771496.814    22771500.541    22771496.477  
 18 01 01 00 43 00.0000000  0  8G08G07G21G16G27G23G09G26             0.000000000
 117750495.64747  91753628.58148  22407169.907    22407173.241    22407169.365  
 122479813.90148  95438787.20747  23307122.580    23307122.952    23307122.383  
 133040829.83746 103668189.16243  25316827.150    25316825.324    25316826.294  
 108479845.62448  84529765.41147  20643020.487    20643020.299    20643019.884  
 108603331.19648  84625978.91049  20666520.663    20666523.151    20666520.382  
 110880311.98748  86400246.67847  21099813.241    21099811.341    21099812.894  
 111029766.68048  86516704.23148  21128257.611    21128259.842    21128257.325  
 119751361.23847  93312730.52247  22787909.228    22787912.644    22787909.393  
 18 01 01 00 43 30.0000000  0  8G08G07G21G16G27G23G09G26             0.000000000
 117651516.69147  91676502.15648  22388335.035    22388338.282    22388334.543  
 122389694.78148  95368564.53447  23289973.673    23289973.925    23289973.209  
 133036650.33346 103664932.39943  25316030.747    25316031.117    25316030.182  
 108534753.12448  84572550.47347  20653469.246    20653468.839    20653468.630  
 108563623.21848  84595037.64249  20658964.646    20658966.941    20658964.131  
 110925818.81448  86435706.53147  21108472.982    21108471.166    21108472.337  
 111013306.86648  86503878.40048  21125125.423    21125127.779    21125125.037  
 119837741.98547  93380040.20247  22804347.057    22804350.873    22804346.813  
 18 01 01 00 44 00.0000000  0  8G08G07G21G16G27G23G09G26             0.000000000
 117552842.12747  91599612.91648  22369557.971    22369560.481    22369557.193  
 122299644.73448  95298395.66247  23272837.979    23272838.097    23272837.564  
 133032901.87746 103662011.54143  25315317.177    25315318.085    25315316.556  
 108590001.26048  84615600.97947  20663982.479    20663982.071    20663982.165  
 108524520.65148  84564568.12649  20651523.388    20651525.918    20651523.190  
 110971874.01548  86471593.69347  21117236.945    21117235.010    21117236.491  
 110997448.70848  86491521.39648  21122107.725    21122109.805    21122107.295  
 119924254.09147  93447452.22047  22820810.235    22820813.313    22820809.741  
 18 01 01 00 44 30.0000000  0  8G08G07G21G16G27G23G09G26             0.000000000
 117454474.57647  91522962.91148  22350838.845    22350842.602    22350838.410  
 122209665.44648  95228281.95847  23255715.253    23255715.158    23255714.767  
 133029585.81046 103659427.57743  25314687.417    25314685.038    25314685.924  
 108645588.41948  84658915.64847  20674560.735    20674560.228    20674559.983  
 108486024.67348  84534571.27849  20644198.210    20644200.496    20644197.678  
 111018476.03648  86507906.94147  21126105.160    21126103.415    21126104.828  
 110982192.94548  86479633.79148  21119204.880    21119206.861    21119204.278  
 120010896.09147  93514965.46647  22837297.946    22837300.609    22837297.057  
 18 01 01 00 45 00.0000000  0  8G08G07G21G16G27G23G09G26             0.000000000
 117356416.72147  91446554.21948  22332178.789    22332182.474    22332178.224  
 122119757.95048  95158224.18947  23238606.101    23238605.696    23238606.211  
 133026702.26546 103657180.67343  25314138.656    25314137.801    25314137.090  
 108701512.77748  84702493.07047  20685202.801    20685202.272    20685201.942  
 108448136.51048  84505048.05749  20636988.252    20636990.472    20636987.713  
 111065623.85748  86544645.48647  21135077.210    21135075.037    21135076.669  
 110967540.28848  86468216.13448  21116416.012    21116418.309    21116415.806  
 120097666.59147  93582578.83747  22853809.720    22853812.600    22853809.385  
 18 01 01 00 45 30.0000000  0  8G08G07G21G16G27G23G09G26             0.000000000
 117258671.18447  91370388.90548  22313578.207    22313582.568    22313578.153  
 122029923.41148  95088223.25947  23221511.402    23221511.294    23221510.866  
 133024251.64646 103655271.08643  25313673.046    25313670.924    25313671.320  
 108757772.23548  84746331.61347  20695908.457    20695907.947    20695907.846  
 108410857.30948  84475999.34549  20629894.406    20629896.510    20629893.710  
 111113315.81648  86581808.04047  21144152.603    21144150.661    21144152.060  
 110953491.40548  86457268.95148  21113742.640    21113744.885    21113742.478  
 120184564.21447  93650291.28147  22870345.723    22870348.740    22870344.923  
 18 01 01 00 46 00.0000000  0  8G08G07G21G16G27G23G09G26             0.000000000
 117161240.55747  91294468.96648  22295037.673    22295041.418    22295037.055  
 121940163.46648  95018280.46247  23204431.336    23204430.910    23204430.606  
 133022234.34046 103653699.17843  25313287.287    25313288.065    25313287.068  
 108814364.94048  84790429.82547  20706677.669    20706677.189    20706676.922  
 108374188.19848  84447426.02549  20622916.721    20622918.587    20622915.972  
 111161550.44048  86619393.44447  21153331.364    21153329.416    21153330.802  
 110940046.96748  86446792.76348  21111184.391    21111186.734    21111184.121  
 120271587.59547  93718101.68647  22886904.628    22886909.302    22886904.558  
 18 01 01 00 46 30.0000000  0  8G08G07G21G16G27G23G09G26             0.000000000
 117064127.55647  91218796.51748  22276557.814    22276561.511    22276557.498  
 121850479.32348  94948396.72847  23187364.006    23187363.386    23187363.602  
 133020651.24846 103652465.61043  25312987.826    25312985.397    25312985.787  
 108871289.19248  84834786.39047  20717510.185    20717509.490    20717509.328  
 108338130.26748  84419328.95049  20616054.770    20616056.973    20616054.235  
 111210326.34848  86657400.63547  21162613.054    21162611.222    21162612.535  
 110927207.58948  86436788.05748  21108741.260    21108743.325    21108740.998  
 120358735.32047  93786009.00947  22903490.138    22903492.042    22903488.774  
 18 01 01 00 47 00.0000000  0  8G08G07G21G16G27G23G09G26             0.000000000
 116967334.61847  91143373.47848  22258138.552    22258142.610    22258138.536  
 121760872.16748  94878572.96647  23170312.993    23170312.126    23170312.143  
 133019502.61546 103651570.53243  25312767.958    25312767.862    25312768.932  
 108928542.90748  84879399.67547  20728405.203    20728404.488    20728404.360  
 108302684.59848  84391708.95849  20609309.900    20609311.818    20609309.293  
 111259641.73948  86695828.19547  21171997.329    21171995.381    21171997.081  
 110914973.91248  86427255.31448  21106413.223    21106415.501    21106412.980  
 120446006.03947  93854012.17147  22920096.265    22920099.338    22920095.604  
 18 01 01 00 47 30.0000000  0  8G08G07G21G16G27G23G09G26             0.000000000
 116870864.17547  91068201.72748  22239781.309    22239784.648    22239780.972  
 121671343.34748  94808810.26447  23153275.711    23153275.708    23153275.182  
 133018788.92846 103651014.43943  25312632.368    25312631.479    25312631.342  
 108986124.00648  84924268.06647  20739362.356    20739361.807    20739361.614  
 108267852.28248  84364566.90449  20602681.480    20602683.527    20602680.964  
 111309495.04948  86734674.91847  21181484.127    21181482.186    21181483.622  
 110903346.51848  86418195.01248  21104200.752    21104202.804    21104200.284  
 120533398.36147  93922110.07347  22936726.124    22936729.666    22936725.816  
 18 01 01 00 48 00.0000000  0  8G08G07G21G16G27G23G09G26             0.000000000
 116774719.08647  90993283.50348  22221485.248    22221488.867    22221484.842  
 121581894.41348  94739109.80147  23136254.073    23136254.027    23136254.089  
 133018510.76445 103650797.70143  25312578.582    25312579.444    25312577.870  
 109044031.01748  84969390.40547  20750381.688    20750381.283    20750380.970  
 108233634.34948  84337903.58949  20596169.808    20596172.060    20596169.442  
 111359884.79148  86773939.63847  21191073.100    21191071.249    21191072.481  
 110892325.95448  86409607.55948  21102103.524    21102105.500    21102102.896  
 120620910.92547  93990301.68147  22953380.384    22953382.712    22953379.481  
 18 01 01 00 48 30.0000000  0  8G08G07G21G16G27G23G09G26             0.000000000
 116678901.47347  90918620.45148  22203251.774    22203255.131    22203251.491  
 121492526.47047  94669472.47747  23119247.686    23119248.093    23119247.569  
 133018668.70846 103650920.72543  25312609.721    25312608.422    25312608.447  
 109102262.16348  85014765.32547  20761462.472    20761462.070    20761461.985  
 108200031.78648  84311719.78649  20589775.267    20589777.748    20589774.993  
 111410809.54748  86813621.25347  21200763.685    21200762.101    21200763.288  
 110881912.75748  86401493.38248  21100121.834    21100123.930    21100121.334  
 120708542.42647  94058585.96547  22970054.815    22970058.497    22970054.912  
 18 01 01 00 49 00.0000000  0  8G08G07G21G16G27G23G09G26             0.000000000
 116583414.46547  90844215.00148  22185080.888    22185084.738    22185081.082  
 121403240.97048  94599899.36147  23102257.933    23102257.693    23102257.464  
 133019263.11846 103651383.92543  25312721.518    25312721.433    25312720.615  
 109160815.16548  85060391.04747  20772604.837    20772604.481    20772604.308  
 108167045.56648  84286016.25549  20583498.444    20583500.666    20583497.849  
 111462267.49648  86853718.34247  21210555.927    21210554.059    21210555.086  
 110872107.43748  86393852.87548  21098256.057    21098258.219    21098255.495  
 120796291.45047  94126961.82947  22986753.249    22986756.606    22986752.751  
 18 01 01 00 49 30.0000000  0  8G08G07G21G16G27G23G09G26             0.000000000
 116488260.17247  90770068.83248  22166973.745    22166977.404    22166973.460  
 121314039.36047  94530391.63447  23085283.438    23085283.301    23085282.924  
 133020294.45046 103652187.55043  25312918.754    25312918.941    25312918.134  
 109219688.31348  85106266.23247  20783808.275    20783807.606    20783807.478  
 108134676.67848  84260793.75949  20577338.739    20577341.014    20577338.239  
 111514256.88148  86894229.53347  21220449.100    21220447.426    21220448.680  
 110862910.51148  86386686.44148  21096505.761    21096508.220    21096505.412  
 120884156.72647  94195428.27347  23003473.466    23003476.800    23003472.910  
 18 01 01 00 50 00.0000000  0  8G08G07G21G16G27G23G09G26             0.000000000
 116393441.43647  90696184.12948  22148930.603    22148934.066    22148930.195  
 121224922.86047  94460950.20347  23068324.531    23068325.209    23068324.267  
 133021762.63846 103653331.61343  25313198.366    25313198.298    25313197.372  
 109278879.72048  85152389.40147  20795072.016    20795071.433    20795071.117  
 108102926.03248  84236053.00849  20571296.645    20571299.021    20571296.254  
 111566776.37948  86935153.79747  21230443.485    21230441.404    21230442.668  
 110854322.40248  86379994.39948  21094871.452    21094873.804    21094871.265  
 120972136.87647  94263984.23147  23020215.914    23020218.809    23020214.951  
 18 01 01 00 50 30.0000000  0  8G08G07G21G16G27G23G09G26             0.000000000
 116298960.63347  90622562.75748  22130951.057    22130955.104    22130951.021  
 121135893.06747  94391576.32947  23051383.066    23051382.673    23051382.791  
 133023668.72646 103654816.83143  25313561.628    25313560.548    25313560.559  
 109338387.52948  85198759.12647  20806395.797    20806395.313    20806395.239  
 108071794.56648  84211794.73249  20565372.502    20565374.842    20565372.112  
 111619823.98148  86976489.58147  21240537.783    21240536.165    21240537.347  
 110846343.55848  86373777.12348  21093353.235    21093355.415    21093352.875  
 121060230.59847  94332628.68047  23036979.277    23036982.745    23036978.787  
 18 01 01 00 51 00.0000000  0  8G08G07G21G16G27G23G09G26             0.000000000
 116204820.46847  90549206.81748  22113036.950    22113040.819    22113036.591  
 121046951.47047  94322271.19447  23034457.869    23034457.789    23034456.941  
 133026012.62146 103656643.27143  25314007.639    25314005.475    25314006.619  
 109398209.73348  85245373.82547  20817779.617    20817779.081    20817778.986  
 108041283.08348  84188019.56449  20559566.496    20559568.821    20559566.153  
 111673398.31648  87018235.79547  21250732.824    21250730.937    21250732.301  
 110838974.42648  86368034.94348  21091951.144    21091953.111    21091950.631  
 121148436.56847  94401360.59647  23053764.243    23053767.710    23053764.121  
 18 01 01 00 51 30.0000000  0  8G08G07G21G16G27G23G09G26             0.000000000
 116111022.90747  90476117.83748  22095187.563    22095191.575    22095187.302  
 120958098.96347  94253035.49347  23017550.131    23017550.185    23017549.759  
 133028794.60146 103658811.04743  25314536.374    25314536.452    25314534.205  
 109458344.47748  85292232.07347  20829222.732    20829222.180    20829222.033  
 108011392.49348  84164728.20449  20553878.489    20553880.703    20553878.209  
 111727497.45248  87060390.95347  21261027.865    21261025.634    21261027.092  
 110832215.35148  86362768.12648  21090664.645    21090667.179    21090664.503  
 121236753.45847  94470178.95347  23070570.230    23070573.576    23070570.053  
 18 01 01 00 52 00.0000000  0  8G08G07G21G16G27G23G09G26             0.000000000
 116017570.93847  90403298.15248  22077404.141    22077408.302    22077404.463  
 120869337.45647  94183870.68447  23000659.270    23000659.275    23000659.003  
 133032015.59846 103661320.89943  25315149.475    25315148.238    25315148.655  
 109518789.93148  85339332.42747  20840725.098    20840724.738    20840724.543  
 107982123.61548  84141921.29749  20548309.137    20548310.989    20548308.452  
 111782119.63148  87102953.67847  21271421.896    21271420.114    21271421.372  
 110826066.73648  86357977.00048  21089495.028    21089497.115    21089494.530  
 121325180.00747  94539082.75847  23087397.298    23087400.727    23087396.512  
 18 01 01 00 52 30.0000000  0  8G08G07G21G16G27G23G09G26             0.000000000
 115924467.07847  90330749.73248  22059687.769    22059691.183    22059687.446  
 120780667.79247  94114777.44547  22983785.720    22983785.706    22983785.794  
 133035675.66146 103664172.87943  25315847.239    25315844.908    25315845.566  
 109579544.33948  85386673.53047  20852286.295    20852285.777    20852285.731  
 107953477.25348  84119599.46549  20542857.841    20542859.972    20542857.055  
 111837263.13748  87145922.61647  21281915.158    21281913.536    21281914.692  
 110820528.89948  86353661.79748  21088440.993    21088443.134    21088440.631  
 121413714.89647  94608070.99047  23104244.895    23104247.928    23104244.158  
 18 01 01 00 53 00.0000000  0  8G08G07G21G16G27G23G09G26             0.000000000
 115831713.59047  90258474.30748  22042036.895    22042040.794    22042036.690  
 120692091.68847  94045757.11347  22966929.704    22966930.396    22966929.801  
 133039774.31546 103667366.56943  25316626.578    25316624.236    25316625.418  
 109640605.83848  85434253.92647  20863906.113    20863905.628    20863905.472  
 107925454.15048  84097763.28949  20537525.016    20537527.256    20537524.481  
 111892926.28148  87189296.47747  21292507.659    21292505.749    21292507.283  
 110815602.13248  86349822.76248  21087503.403    21087505.555    21087502.973  
 121502356.83047  94677142.62847  23121113.277    23121116.213    23121112.439  
 18 01 01 00 53 30.0000000  0  8G08G07G21G16G27G23G09G26             0.000000000
 115739313.18247  90186474.01848  22024453.726    22024457.931    22024453.271  
 120603610.71747  93976810.91147  22950092.655    22950092.916    22950092.702  
 133044312.88846 103670903.14143  25317489.449    25317488.494    25317488.885  
 109701972.49648  85482072.10447  20875583.576    20875583.300    20875582.999  
 107898055.06848  84076413.36949  20532310.841    20532313.373    20532310.612  
 111949107.25848  87233073.84447  21303198.751    21303196.554    21303197.906  
 110811286.77448  86346460.14048  21086682.130    21086684.362    21086681.887  
 121591104.55847  94746296.68947  23138000.673    23138004.552    23138000.490  
 18 01 01 00 54 00.0000000  0  8G08G07G21G16G27G23G09G26             0.000000000
 115647268.04047  90114750.56148  22006938.070    22006941.588    22006937.671  
 120515226.60947  93907940.17447  22933274.328    22933273.645    22933273.979  
 133049291.09646 103674782.26143  25318438.030    25318435.275    25318435.543  
 109763642.45548  85530126.61647  20887319.184    20887318.756    20887318.308  
 107871280.75748  84055550.28049  20527216.032    20527218.295    20527215.687  
 112005804.17348  87277253.25147  21313987.480    21313985.924    21313987.076  
 110807583.05548  86343574.12748  21085977.461    21085979.558    21085977.087  
 121679956.74447  94815532.15447  23154909.331    23154912.468    23154909.044  
 18 01 01 00 54 30.0000000  0  8G08G07G21G16G27G23G09G26             0.000000000
 115555581.04947  90043306.18248  21989490.516    21989494.089    21989490.420  
 120426940.16348  93839145.55447  22916473.953    22916473.783    22916473.765  
 133054709.40146 103679004.32343  25319467.750    25319466.094    25319466.180  
 109825613.81048  85578415.98347  20899111.965    20899111.422    20899110.978  
 107845131.89248  84035174.55249  20522239.805    20522242.441    20522239.574  
 112063015.22648  87321833.26747  21324874.489    21324872.729    21324873.964  
 110804491.22448  86341164.90148  21085389.024    21085391.253    21085388.692  
 121768912.17347  94884848.05847  23171836.725    23171840.512    23171836.839  
 18 01 01 00 55 00.0000000  0  8G08G07G21G16G27G23G09G26             0.000000000
 115464254.25947  89972142.48848  21972111.817    21972114.864    21972111.447  
 120338753.04548  93770428.31647  22899692.606    22899692.426    22899692.041  
 133060568.15446 103683569.56943  25320582.844    25320581.833    25320580.525  
 109887884.71848  85626938.77847  20910961.826    20910961.025    20910960.877  
 107819609.13848  84015286.70249  20517383.297    20517385.571    20517382.783  
 112120738.50348  87366812.42447  21335858.778    21335857.115    21335858.252  
 110802011.47748  86339232.63148  21084916.986    21084919.320    21084916.812  
 121857969.51047  94954243.37747  23188784.495    23188787.133    23188783.384  
 18 01 01 00 55 30.0000000  0  8G08G07G21G16G27G23G09G26             0.000000000
 115373290.30547  89901261.51348  21954802.233    21954805.275    21954801.371  
 120250666.80647  93701789.71647  22882930.407    22882930.061    22882929.923  
 133066867.14246 103688477.87943  25321781.338    25321781.201    25321781.142  
 109950453.30348  85675693.52147  20922868.036    20922867.451    20922867.260  
 107794713.13048  83995887.22449  20512645.958    20512647.920    20512645.333  
 112178972.10348  87412189.24547  21346940.204    21346938.786    21346939.835  
 110800144.03248  86337777.47148  21084561.948    21084563.876    21084561.321  
 121947127.56747  95023717.19547  23205749.891    23205752.701    23205749.948  
 18 01 01 00 56 00.0000000  0  8G08G07G21G16G27G23G09G26             0.000000000
 115282691.76847  89830665.27848  21937561.988    21937565.109    21937561.223  
 120162682.77847  93633230.73847  22866187.131    22866187.089    22866186.965  
 133073606.52646 103693729.34643  25323063.320    25323062.855    25323062.003  
 110013317.67748  85724678.76047  20934830.825    20934830.247    20934829.934  
 107770444.51148  83976976.61249  20508027.464    20508029.530    20508027.108  
 112237714.19148  87457962.27747  21358118.990    21358117.149    21358118.092  
 110798889.04348  86336799.55348  21084323.064    21084325.337    21084322.600  
 122036385.08947  95093268.51947  23222735.068    23222738.721    23222734.572  
 18 01 01 00 56 30.0000000  0  9G08G07G21G16G27G23G09G30G26          0.000000000
 115192461.00147  89760355.61448  21920391.297    21920394.740    21920390.543  
 120074802.43747  93564752.56347  22849464.265    22849463.744    22849464.104  
 133080786.78046 103699324.36743  25324429.945    25324428.497    25324429.081  
 110076476.37348  85773893.31747  20946849.579    20946848.938    20946848.635  
 107746803.83948  83958555.32349  20503528.605    20503531.072    20503528.375  
 112296962.90948  87504130.08347  21369393.439    21369391.685    21369393.077  
 110798246.61748  86336298.95048  21084200.732    21084202.894    21084200.315  
 132168674.59946 102988572.96845  25150860.890    25150862.633    25150858.481  
 122125740.85047  95162896.37747  23239739.847    23239742.780    23239738.400  
 18 01 01 00 57 00.0000000  0  9G08G07G21G16G27G23G09G30G26          0.000000000
 115102600.25447  89690334.28148  21903291.084    21903294.356    21903290.683  
 119987027.52547  93496356.52847  22832761.088    22832761.129    22832760.905  
 133088408.36746 103705263.26443  25325880.201    25325879.732    25325879.352  
 110139927.28248  85823335.58947  20958923.734    20958923.167    20958922.871  
 107723791.68849  83940623.78649  20499149.515    20499151.965    20499149.361  
 112356716.26748  87550691.13047  21380764.312    21380762.342    21380763.575  
 110798216.95448  86336275.83348  21084194.937    21084197.388    21084194.555  
 132068629.90546 102910616.12246  25131822.334    25131828.154    25131822.476  
 122215193.54347  95232599.76247  23256761.615    23256764.748    23256761.083  
 18 01 01 00 57 30.0000000  0  9G08G07G21G16G27G23G09G30G26          0.000000000
 115013111.96447  89620603.16748  21886262.245    21886265.554    21886261.935  
 119899359.31148  93428043.63747  22816078.311    22816078.398    22816077.938  
 133096471.19046 103711545.96943  25327414.930    25327413.324    25327412.766  
 110203668.57348  85873004.13647  20971053.214    20971052.954    20971052.539  
 107701408.60549  83923182.43349  20494890.369    20494892.750    20494889.930  
 112416972.24448  87597643.82147  21392230.166    21392228.665    21392229.879  
 110798800.03548  86336730.18248  21084306.192    21084308.312    21084305.613  
 131968566.63046 102832644.76946  25112781.465    25112784.064    25112781.350  
 122304742.01547  95302377.78947  23273801.033    23273805.069    23273800.191  
 18 01 01 00 58 00.0000000  0  9G08G07G21G16G27G23G09G30G26          0.000000000
 114923998.61547  89551164.22048  21869303.544    21869307.792    21869304.155  
 119811799.59147  93359815.28347  22799416.265    22799416.286    22799416.130  
 133104975.03146 103718172.33243  25329032.704    25329031.543    25329032.692  
 110267698.30648  85922897.43647  20983237.762    20983237.287    20983237.168  
 107679655.08249  83906231.65049  20490750.623    20490752.996    20490750.361  
 112477728.96748  87644986.69147  21403792.063    21403790.262    21403791.489  
 110799995.96848  86337662.07348  21084533.720    21084535.929    21084533.164  
 131868485.92946 102754659.84246  25093737.209    25093739.064    25093736.100  
 122394385.01947  95372229.48047  23290860.206    23290864.098    23290859.666  
 18 01 01 00 58 30.0000000  0  9G08G07G21G16G27G23G09G30G26          0.000000000
 114835262.48047  89482019.21648  21852418.127    21852421.980    21852417.725  
 119724349.33247  93291672.22747  22782774.973    22782775.017    22782774.875  
 133113920.31046 103725142.67743  25330735.112    25330734.781    25330735.036  
 110332014.71848  85973014.12347  20995476.675    20995476.361    20995476.055  
 107658531.62749  83889771.81849  20486731.183    20486733.312    20486730.796  
 112538984.56048  87692718.29847  21415448.466    21415446.846    21415447.863  
 110801804.77848  86339071.53248  21084877.883    21084879.943    21084877.526  
 131768388.72846 102676662.02246  25074687.724    25074691.810    25074689.077  
 122484121.33347  95442153.87347  23307936.862    23307939.759    23307936.564  
 18 01 01 00 59 00.0000000  0  9G08G07G21G16G27G23G09G30G26          0.000000000
 114746906.22447  89413170.21548  21835605.053    21835608.286    21835604.366  
 119637010.37847  93223615.90747  22766155.307    22766154.635    22766154.684  
 133123306.42346 103732456.53443  25332522.011    25332520.532    25332521.363  
 110396616.02948  86023352.80547  21007770.285    21007769.598    21007769.246  
 107638038.67349  83873803.29849  20482831.490    20482833.723    20482831.138  
 112600736.96448  87740837.03547  21427200.017    21427197.722    21427199.328  
 110804226.50448  86340958.58148  21085338.921    21085340.934    21085338.193  
 131668276.04946 102598652.23046  25055637.064    25055641.196    25055637.571  
 122573949.76247  95512150.03647  23325030.039    23325033.628    23325029.835  
 18 01 01 00 59 30.0000000  0  9G08G07G21G16G27G23G09G30G26          0.000000000
 114658931.71047  89344618.66048  21818864.071    21818866.943    21818863.205  
 119549784.18047  93155647.45447  22749556.519    22749556.197    22749556.196  
 133133134.16246 103740114.50643  25334391.313    25334390.530    25334390.578  
 110461500.36148  86073912.02047  21020117.170    21020116.398    21020116.391  
 107618176.64249  83858326.39649  20479051.926    20479054.025    20479051.253  
 112662983.98148  87789341.17347  21439045.059    21439043.097    21439044.442  
 110807261.08848  86343323.19248  21085915.983    21085918.457    21085915.802  
 131568149.09146 102520631.32846  25036584.454    25036587.582    25036584.749  
 122663869.10547  95582217.06147  23342141.530    23342143.933    23342141.158  
 18 01 01 01 00 00.0000000  0  9G08G07G21G16G27G23G09G30G26          0.000000000
 114571341.68447  89276366.70548  21802196.454    21802199.441    21802195.675  
 119462672.44447  93087768.19547  22732979.799    22732979.268    22732979.249  
 133143403.79246 103748116.82043  25336345.816    25336345.224    25336344.940  
 110526665.85348  86124690.32847  21032517.738    21032517.057    21032516.918  
 107598945.98349  83843341.47649  20475392.348    20475394.561    20475391.970  
 112725723.63248  87838229.19846  21450983.610    21450982.156    21450983.464  
 110810908.52148  86346165.34148  21086610.368    21086612.538    21086610.012  
 131468008.76346 102442599.93946  25017527.947    25017532.040    25017527.223  
 122753878.14547  95652353.94347  23359270.561    23359273.355    23359269.081  
 18 01 01 01 00 30.0000000  0  9G08G07G21G16G27G23G09G30G26          0.000000000
 114484138.68147  89208416.34148  21785601.823    21785605.516    21785601.454  
 119375676.71447  93019979.32947  22716424.723    22716424.855    22716424.250  
 133154114.87446 103756463.14943  25338384.527    25338383.994    25338384.120  
 110592110.75248  86175686.36747  21044971.276    21044971.042    21044970.561  
 107580347.01649  83828848.78649  20471852.877    20471855.382    20471852.736  
 112788953.91347  87887499.52847  21463015.988    21463014.498    21463015.827  
 110815168.73348  86349484.98548  21087420.939    21087423.224    21087420.526  
 131367856.15346 102364558.98746  24998470.047    24998472.637    24998468.374  
 122843975.72747  95722559.83947  23376414.318    23376418.081    23376414.120  
 18 01 01 01 01 00.0000000  0  9G08G07G21G16G27G23G09G30G26          0.000000000
 114397324.66547  89140769.09248  21769081.282    21769085.094    21769081.216  
 119288798.36347  92952281.90947  22699892.592    22699892.484    22699892.277  
 133165267.10146 103765153.17743  25340506.176    25340505.564    25340504.684  
 110657833.47848  86226898.87847  21057477.974    21057477.472    21057477.381  
 107562380.14249  83814848.63549  20468434.255    20468436.315    20468433.627  
 112852672.88448  87937150.64747  21475141.709    21475139.964    21475140.908  
 110820041.61348  86353282.03248  21088348.156    21088350.630    21088348.084  
 131267692.26346 102286509.26046  24979409.278    24979412.649    24979408.286  
 122934160.65747  95792833.82147  23393576.418    23393579.155    23393576.483  
 18 01 01 01 01 30.0000000  0  9G08G07G21G16G27G23G09G30G26          0.000000000
 114310902.27547  89073426.99148  21752636.358    21752639.579    21752635.617  
 119202038.64447  92884676.93447  22683382.638    22683382.652    22683382.821  
 133176861.14846 103774187.51243  25342711.692    25342710.779    25342711.153  
 110723832.04247  86278326.33447  21070036.859    21070036.449    21070036.311  
 107545045.64449  83801341.24349  20465135.422    20465137.773    20465135.176  
 112916878.52348  87987180.99747  21487359.702    21487357.802    21487359.165  
 110825527.07048  86357556.40648  21089392.361    21089394.284    21089391.948  
 131167518.28746 102208451.66446  24960346.525    24960348.677    24960345.959  
 123024431.71847  95863174.91747  23410753.968    23410757.020    23410753.592  
 18 01 01 01 02 00.0000000  0  9G08G07G21G16G27G23G09G30G26          0.000000000
 114224874.09047  89006392.06248  21736265.177    21736268.487    21736264.877  
 119115399.43947  92817165.87047  22666895.347    22666895.933    22666895.691  
 133188896.45246 103783565.64743  25345001.873    25345003.492    25345001.158  
 110790104.41248  86329967.14247  21082648.513    21082647.834    21082647.650  
 107528343.84049  83788326.86149  20461957.251    20461959.374    20461956.733  
 112981568.42448  88037588.68246  21499670.043    21499668.034    21499669.187  
 110831624.95048  86362308.00348  21090552.504    21090554.795    21090551.962  
 131067335.26546 102130387.04446  24941283.196    24941285.402    24941281.910  
 123114787.87147  95933582.28247  23427947.641    23427952.263    23427948.514  
 18 01 01 01 02 30.0000000  0  9G08G07G21G16G27G23G09G30G26          0.000000000
 114139241.62147  88939665.49348  21719969.825    21719973.320    21719969.441  
 119028882.87547  92749750.37547  22650432.183    22650432.195    22650432.003  
 133201373.56546 103793288.06843  25347377.528    25347376.463    25347376.353  
 110856648.85648  86381819.95647  21095311.252    21095310.875    21095310.459  
 107512274.99349  83775805.69149  20458899.676    20458901.558    20458899.070  
 113046740.45848  88088372.06746  21512071.534    21512069.754    21512070.948  
 110838335.08448  86367536.66648  21091829.415    21091831.530    21091829.058  
 130967144.26846 102052316.13346  24922216.929    24922220.460    24922216.080  
 123205227.81647  96004054.94347  23445159.025    23445161.662    23445158.059  
 18 01 01 01 03 00.0000000  0  9G08G07G21G16G27G23G09G30G26          0.000000000
 114054007.68947  88873249.48348  21703750.257    21703754.111    21703750.059  
 118942489.51948  92682430.88747  22633991.885    22633992.064    22633991.545  
 133214292.30146 103803354.61643  25349834.621    25349833.943    25349834.152  
 110923463.90948  86433883.63747  21108025.731    21108025.445    21108025.006  
 107496839.34049  83763777.91649  20455962.467    20455964.260    20455961.810  
 113112392.47648  88139529.45946  21524564.720    21524562.795    21524564.106  
 110845657.28148  86373242.26748  21093223.189    21093225.174    21093222.563  
 130866946.34646 101974239.89046  24903149.018    24903153.206    24903149.357  
 123295750.48147  96074592.08447  23462384.984    23462388.153    23462385.107  
 18 01 01 01 03 30.0000000  0  9G08G07G21G16G27G23G09G30G26          0.000000000
 113969174.26047  88807145.54848  21687607.381    21687610.530    21687606.901  
 118856221.37848  92615208.96047  22617575.406    22617575.576    22617574.957  
 133227652.32046 103813765.01343  25352378.754    25352377.328    25352377.134  
 110990547.53847  86486156.59747  21120791.461    21120790.882    21120790.678  
 107482037.09449  83752243.70549  20453145.378    20453147.618    20453144.974  
 113178522.64847  88191059.44746  21537148.491    21537147.069    21537148.343  
 110853591.29148  86379424.61448  21094732.558    21094734.770    21094732.171  
 130766742.68146 101896159.11346  24884080.886    24884083.081    24884080.447  
 123386354.70147  96145192.75747  23479626.364    23479628.710    23479625.615  
 18 01 01 01 04 00.0000000  0  9G08G07G21G16G27G23G09G30G26          0.000000000
 113884743.99448  88741355.74748  21671540.967    21671544.071    21671540.044  
 118770080.21048  92548085.97047  22601183.370    22601183.283    22601183.177  
 133241453.35946 103824519.03843  25355003.845    25355003.404    25355003.340  
 111057897.94348  86538637.43547  21133607.356    21133607.193    21133607.043  
 107467868.43849  83741203.20349  20450449.042    20450451.362    20450448.706  
 113245128.84048  88242960.35646  21549823.443    21549821.688    21549823.000  
 110862136.88548  86386083.50648  21096358.698    21096361.029    21096358.302  
 130666534.38846 101818074.75546  24865013.099    24865015.555    24865012.053  
 123477039.34347  96215856.11647  23496882.754    23496886.272    23496882.135  
 18 01 01 01 04 30.0000000  0  9G08G07G21G16G27G23G09G30G26          0.000000000
 113800719.07048  88675881.81048  21655551.326    21655554.416    21655550.682  
 118684067.29548  92481062.94347  22584815.395    22584815.341    22584815.584  
 133255695.44946 103835616.79243  25357714.068    25357712.338    25357713.408  
 111125513.48648  86591324.87447  21146474.388    21146474.146    21146473.706  
 107454333.55749  83730656.54649  20447873.625    20447875.634    20447873.032  
 113312208.54348  88295230.23546  21562588.976    21562586.391    21562587.969  
 110871293.83348  86393218.78848  21098101.224    21098103.670    21098100.864  
 130566322.52746 101739987.60346  24845942.973    24845945.606    24845943.411  
 123567803.26347  96286581.24747  23514154.676    23514158.439    23514154.154  
 18 01 01 01 05 00.0000000  0  9G08G07G21G16G27G23G09G30G26          0.000000000
 113717101.76348  88610725.50248  21639639.288    21639642.725    21639638.760  
 118598184.49848  92414141.27647  22568473.154    22568472.883    22568472.812  
 133270378.46546 103847058.10743  25360508.660    25360506.045    25360507.016  
 111193392.02248  86644217.23647  21159391.201    21159390.903    21159390.603  
 107441432.59449  83720603.85849  20445418.602    20445420.724    20445418.110  
 113379759.45048  88347867.27946  21575442.984    21575441.544    21575442.437  
 110881061.79248  86400830.18548  21099959.759    21099962.331    21099959.535  
 130466108.22746 101661898.55946  24826873.989    24826875.118    24826871.805  
 123658645.35347  96357367.28347  23531441.549    23531444.873    23531440.581  
 18 01 01 01 05 30.0000000  0  9G08G07G21G16G27G23G09G30G26          0.000000000
 113633893.93448  88545888.27048  21623805.859    21623808.668    21623804.897  
 118512433.38148  92347322.23847  22552155.218    22552154.664    22552154.795  
 133285502.29846 103858842.92243  25363386.056    25363386.175    25363385.725  
 111261532.20048  86697313.47347  21172358.245    21172357.447    21172357.418  
 107429165.62849  83711045.19249  20443084.164    20443086.398    20443083.748  
 113447779.62348  88400869.98846  21588386.593    21588384.926    21588386.123  
 110891440.45348  86408917.44148  21101934.902    21101937.353    21101934.479  
 130365892.66246 101583808.48746  24807802.664    24807804.588    24807801.707  
 123749564.48547  96428213.34947  23548741.261    23548746.425    23548741.990  
 18 01 01 01 06 00.0000000  0  9G08G07G21G16G27G23G09G30G26          0.000000000
 113551098.52548  88481372.38948  21608050.043    21608053.223    21608049.650  
 118426815.73948  92280607.20647  22535862.516    22535862.386    22535862.234  
 133301067.34746 103870971.53143  25366347.535    25366348.005    25366348.529  
 111329931.96048  86750611.99047  21185374.202    21185373.534    21185373.281  
 107417532.75649  83701980.61949  20440870.769    20440872.769    20440870.112  
 113516267.01848  88454236.75846  21601419.297    21601417.821    21601418.775  
 110902429.45148  86417480.29348  21104026.157    21104028.403    21104025.961  
 130265676.98246 101505718.41646  24788732.882    24788735.204    24788732.193  
 123840559.53947  96499118.55347  23566058.284    23566061.976    23566057.964  
 18 01 01 01 06 30.0000000  0  9G08G07G21G16G27G23G09G30G26          0.000000000
 113468716.86548  88417178.91848  21592372.688    21592376.577    21592372.756  
 118341332.91348  92213997.21647  22519595.737    22519595.526    22519595.426  
 133317072.77946 103883443.33243  25369393.574    25369392.279    25369392.399  
 111398589.67748  86804111.51647  21198439.421    21198438.802    21198438.400  
 107406534.04049  83693410.19649  20438777.269    20438779.791    20438776.998  
 113585218.99548  88507965.55446  21614540.538    21614538.985    21614540.013  
 110914028.43348  86426518.46148  21106233.646    21106235.779    21106233.232  
 130165462.26046 101427629.03546  24769660.337    24769663.863    24769660.679  
 123931629.42747  96570082.07847  23583388.802    23583392.017    23583387.802  
 18 01 01 01 07 00.0000000  0  9G08G07G21G16G27G23G09G30G26          0.000000000
 113386751.68848  88353309.97748  21576775.747    21576778.936    21576775.263  
 118255986.71448  92147493.69047  22503354.922    22503354.376    22503354.742  
 133333518.56446 103896258.21643  25372523.792    25372523.662    25372522.381  
 111467503.32448  86857810.45647  21211552.999    21211552.651    21211552.351  
 107396169.47149  83685333.91949  20436805.302    20436807.259    20436804.763  
 113654633.22048  88562054.54246  21627749.567    21627747.715    21627748.982  
 110926236.99248  86436031.61848  21108556.744    21108559.113    21108556.183  
 130065249.72946 101349541.42046  24750591.197    24750594.190    24750591.302  
 124022773.01347  96641103.07447  23600732.274    23600736.189    23600731.891  
 18 01 01 01 07 30.0000000  0  9G08G07G21G16G27G23G09G30G26          0.000000000
 113305205.44648  88289767.47348  21561257.807    21561260.909    21561257.204  
 118170778.84948  92081097.94747  22487140.026    22487139.952    22487139.894  
 133350404.26546 103909415.90643  25375737.491    25375736.651    25375736.719  
 111536671.35248  86911707.62947  21224715.449    21224715.220    21224714.829  
 107386439.10849  83677751.80649  20434953.605    20434955.648    20434953.202  
 113724507.71348  88616502.16946  21641046.087    21641044.648    21641045.728  
 110939054.69048  86446019.42748  21110995.596    21110998.104    21110995.545  
 129965040.61246 101271456.40146  24731522.844    24731525.723    24731522.225  
 124113989.25547  96712180.63647  23618090.025    23618094.594    23618089.656  
 18 01 01 01 08 00.0000000  0  9G08G07G21G16G27G23G09G30G26          0.000000000
 113224079.73848  88226552.67448  21545820.210    21545823.510    21545819.859  
 118085710.72648  92014811.11547  22470952.030    22470952.374    22470951.796  
 133367730.26346 103922916.64643  25379033.637    25379032.294    25379032.562  
 111606092.44447  86965801.97947  21237925.537    21237925.394    21237924.934  
 107377342.87649  83670663.84149  20433222.508    20433224.762    20433222.074  
 113794840.10147  88671306.61046  21654430.215    21654428.621    21654429.477  
 110952481.11148  86456481.56848  21113550.551    21113553.022    21113550.283  
 129864835.92646 101193374.88546  24712453.557    24712456.764    24712453.504  
 124205277.04847  96783313.99047  23635462.481    23635465.277    23635462.168  
 18 01 01 01 08 30.0000000  0  9G08G07G21G16G27G23G09G30G26          0.000000000
 113143376.84248  88163667.31848  21530463.194    21530466.190    21530462.566  
 118000784.03048  91948634.48247  22454791.079    22454791.832    22454790.963  
 133385495.91346 103936760.01143  25382413.643    25382414.845    25382412.976  
 111675764.42948  87020091.83947  21251183.709    21251183.547    21251183.019  
 107368880.75549  83664069.98849  20431612.396    20431614.499    20431611.908  
 113865627.80148  88726465.83146  21667901.003    21667898.804    21667899.990  
 110966515.73848  86467417.63748  21116221.518    21116223.872    21116221.097  
 129764636.97446 101115297.84246  24693387.380    24693390.087    24693386.384  
 124296635.31247  96854502.22547  23652846.731    23652850.533    23652846.738  
 18 01 01 01 09 00.0000000  0  9G08G07G21G16G27G23G09G30G26          0.000000000
 113063099.59748  88101113.64248  21515186.706    21515190.077    21515186.356  
 117916000.56848  91882569.44647  22438657.792    22438657.507    22438657.823  
 133403700.92446 103950945.70543  25385878.726    25385877.877    25385877.743  
 111745685.25648  87074575.59747  21264489.385    21264488.797    21264488.656  
 107361052.65749  83657970.17549  20430122.331    20430124.798    20430122.221  
 113936868.73048  88781978.22346  21681457.056    21681455.566    21681457.052  
 110981158.06748  86478827.23948  21119007.742    21119010.068    21119007.316  
 129664444.90246 101037226.11046  24674321.191    24674323.736    24674320.898  
 124388062.99347  96925744.57947  23670245.091    23670249.057    23670244.071  
 18 01 01 01 09 30.0000000  0  9G08G07G21G16G27G23G09G30G26          0.000000000
 112983249.37648  88038892.72048  21499991.946    21499994.783    21499991.631  
 117831361.94148  91816617.26547  22422551.637    22422551.261    22422551.399  
 133422345.02946 103965473.61143  25389426.032    25389426.380    25389425.743  
 111815853.55848  87129252.20247  21277841.766    21277841.504    21277841.134  
 107353858.47449  83652364.32449  20428753.838    20428755.876    20428753.194  
 114008560.72748  88837842.09246  21695099.633    21695098.422    21695099.132  
 110996407.61148  86490709.98948  21121909.744    21121911.968    21121909.295  
 129564260.90746 100959160.72546  24655256.999    24655259.634    24655255.983  
 124479559.00447  96997040.12447  23687655.561    23687659.549    23687655.750  
 18 01 01 01 10 00.0000000  0  9G08G07G21G16G27G23G09G30G26          0.000000000
 112903828.84848  87977006.61748  21484878.454    21484881.539    21484877.940  
 117746869.91848  91750779.33847  22406473.331    22406473.081    22406473.029  
 133441427.67146 103980343.15043  25393058.116    25393058.461    25393056.905  
 111886267.58348  87184120.27347  21291241.290    21291240.910    21291240.559  
 107347298.06749  83647252.32649  20427505.315    20427507.417    20427504.844  
 114080701.26148  88894055.46146  21708828.333    21708826.403    21708827.175  
 111012263.79948  86503065.45648  21124927.376    21124929.405    21124926.800  
 129464086.21846 100881102.53446  24636193.761    24636196.236    24636192.081  
 124571122.27647  97068388.12447  23705079.666    23705083.434    23705078.821  
 18 01 01 01 10 30.0000000  0  9G08G07G21G16G27G23G09G30G26          0.000000000
 112824839.67548  87915456.64548  21469847.092    21469850.371    21469846.758  
 117662526.03348  91685056.83447  22390423.492    22390422.725    22390422.731  
 133460949.10646 103995554.67443  25396772.527    25396772.796    25396772.327  
 111956925.65948  87239178.50747  21304687.049    21304686.303    21304686.168  
 107341371.29549  83642634.06949  20426377.797    20426379.527    20426376.985  
 114153288.03448  88950616.55846  21722640.975    21722638.952    21722640.309  
 111028726.04248  86515893.17848  21128059.525    21128061.984    21128059.200  
 129363922.02546 100803052.50946  24617133.716    24617135.315    24617132.794  
 124662751.77547  97139787.74347  23722516.395    23722519.927    23722515.755  
 18 01 01 01 11 00.0000000  0  9G08G07G21G16G27G23G09G30G26          0.000000000
 112746284.34448  87854244.73448  21454898.830    21454901.787    21454898.274  
 117578332.05048  91619451.13147  22374401.553    22374401.246    22374401.277  
 133480908.71146 104011107.59143  25400571.224    25400570.371    25400570.159  
 112027825.94848  87294425.49147  21318179.259    21318178.521    21318178.235  
 107336077.96349  83638509.39649  20425370.356    20425372.311    20425369.623  
 114226318.32948  89007523.26746  21736538.028    21736536.280    21736537.306  
 111045793.75148  86529192.68848  21131307.439    21131310.075    21131307.130  
 129263769.56346 100725011.66346  24598075.005    24598077.713    24598074.350  
 124754446.45047  97211238.11747  23739964.889    23739968.692    23739964.626  
 18 01 01 01 11 30.0000000  0  9G08G07G21G16G27G23G09G30G26          0.000000000
 112668164.83648  87793372.41348  21440033.218    21440036.144    21440032.572  
 117494289.70648  91553963.59847  22358408.939    22358408.103    22358408.886  
 133501306.40246 104027001.86543  25404452.004    25404451.472    25404451.841  
 112098966.74048  87349859.86347  21331716.916    21331716.019    21331716.033  
 107331417.87049  83634878.16349  20424483.438    20424485.501    20424482.960  
 114299790.21848  89064774.06046  21750519.132    21750517.864    21750518.764  
 111063466.29248  86542963.48548  21134670.662    21134672.778    21134670.107  
 129163630.03646 100646980.90146  24579018.496    24579021.284    24579018.423  
 124846205.25147  97282738.47047  23757426.589    23757430.510    23757426.027  
 18 01 01 01 12 00.0000000  0  9G08G07G21G16G27G23G09G30G26          0.000000000
 112590482.87548  87732841.04348  21425250.409    21425253.937    21425250.307  
 117410400.67648  91488595.52347  22342445.339    22342445.177    22342445.001  
 133522141.28746 104043236.84443  25408417.336    25408416.599    25408416.581  
 112170346.25848  87405480.27347  21345299.715    21345298.998    21345298.942  
 107327390.78149  83631740.17149  20423717.254    20423719.216    20423716.504  
 114373701.42348  89122367.17846  21764583.794    21764582.847    21764583.303  
 111081742.99248  86557205.07148  21138148.610    21138150.510    21138147.830  
 129063504.64146 100568961.12446  24559966.813    24559967.702    24559965.492  
 124938027.19947  97354288.00547  23774899.694    23774903.268    23774899.287  
 18 01 01 01 12 30.0000000  0  9G08G07G21G16G27G23G09G30G26          0.000000000
 112513241.29248  87672652.82948  21410551.982    21410555.055    21410551.334  
 117326667.02248  91423348.54047  22326511.056    22326511.085    22326510.836  
 133543413.44946 104059812.54443  25412465.768    25412463.739    25412463.503  
 112241963.05848  87461285.57347  21358927.878    21358927.471    21358926.996  
 107323996.40549  83629095.21349  20423070.921    20423073.258    20423070.672  
 114448048.74048  89180300.13346  21778731.777    21778730.322    21778731.366  
 111100623.19048  86571916.90948  21141741.376    21141743.545    21141740.759  
 128963394.77146 100490953.43346  24540914.891    24540917.684    24540914.900  
 125029911.23947  97425885.94947  23792384.807    23792387.161    23792383.852  
 18 01 01 01 13 00.0000000  0  9G08G07G21G16G27G23G09G30G26          0.000000000
 112436441.39948  87612808.78248  21395937.241    21395940.659    21395937.083  
 117243089.92748  91358223.53047  22310606.763    22310607.105    22310606.679  
 133565122.35946 104076728.58143  25416597.159    25416596.116    25416595.267  
 112313815.11048  87517274.18846  21372600.770    21372600.174    21372600.048  
 107321234.50449  83626943.08749  20422545.827    20422547.602    20422545.183  
 114522830.12748  89238571.31346  21792962.813    21792960.816    21792961.879  
 111120106.17648  86587098.45648  21145448.673    21145451.117    21145448.414  
 128863301.53046 100412958.76246  24521866.862    24521871.730    24521868.321  
 125121856.36447  97497531.47047  23809880.789    23809884.667    23809880.391  
 18 01 01 01 13 30.0000000  0  9G08G07G21G16G27G23G09G30G26          0.000000000
 112360085.60048  87553310.77648  21381408.014    21381410.459    21381407.188  
 117159671.20948  91293221.94747  22294732.606    22294732.733    22294732.753  
 133587267.57946 104093984.58343  25420811.112    25420810.377    25420809.952  
 112385900.84948  87573444.89447  21386318.622    21386317.888    21386317.846  
 107319104.74649  83625283.54349  20422140.045    20422142.358    20422139.805  
 114598043.18148  89297178.85946  21807274.502    21807273.236    21807274.435  
 111140191.21948  86602749.12748  21149270.728    21149273.159    21149270.269  
 128763226.21346 100334978.01346  24502824.265    24502827.567    24502823.810  
 125213861.49247  97569223.79247  23827389.129    23827393.037    23827388.523  
 18 01 01 01 14 00.0000000  0  9G08G07G21G16G27G23G09G30G26          0.000000000
 112284175.88248  87494160.37548  21366961.957    21366965.219    21366961.954  
 117076412.60148  91228345.11147  22278889.349    22278889.067    22278888.770  
 133609848.72446 104111580.22943  25425108.344    25425105.285    25425106.508  
 112458218.82348  87629796.56047  21400079.814    21400079.460    21400079.297  
 107317606.74149  83624116.27049  20421855.395    20421857.318    20421854.796  
 114673685.48348  89356120.89246  21821669.108    21821667.910    21821668.576  
 111160877.58748  86618868.37048  21153207.080    21153209.634    21153206.784  
 128663170.18346 100257012.25646  24483784.969    24483787.258    24483784.489  
 125305925.68347  97640962.11447  23844908.190    23844912.361    23844908.648  
 18 01 01 01 14 30.0000000  0  9G08G07G21G16G27G23G09G30G26          0.000000000
 112208714.31948  87435359.18948  21352602.494    21352605.409    21352601.765  
 116993315.97548  91163594.50347  22263076.366    22263076.412    22263076.482  
 133632864.86346 104129514.83843  25429487.566    25429486.935    25429485.407  
 112530766.94548  87686327.56346  21413885.524    21413884.852    21413884.812  
 107316740.16849  83623441.02749  20421690.132    20421692.418    20421689.853  
 114749754.48748  89415395.41046  21836144.329    21836142.920    21836144.074  
 111182164.43348  86635455.51448  21157257.862    21157260.441    21157257.522  
 128563134.57846 100179062.47046  24464747.976    24464750.881    24464747.475  
 125398047.95947  97712745.66547  23862438.861    23862441.491    23862437.597  
 18 01 01 01 15 00.0000000  0  9G08G07G21G16G27G23G09G30G26          0.000000000
 112133702.67048  87376908.57348  21338327.849    21338331.358    21338327.882  
 116910383.37148  91098971.69547  22247294.872    22247294.728    22247294.506  
 133656316.17746 104147788.60943  25433950.606    25433949.336    25433949.720  
 112603543.68048  87743036.70946  21427734.496    21427733.935    21427733.817  
 107316504.63449  83623257.49849  20421645.892    20421647.540    20421645.018  
 114826247.76048  89475000.52646  21850701.191    21850699.232    21850700.490  
 111204051.02748  86652509.99148  21161422.875    21161425.415    21161422.560  
 128463120.74746 100101129.65646  24445716.708    24445718.635    24445715.684  
 125490227.27247  97784573.69147  23879979.877    23879983.018    23879979.182  
 18 01 01 01 15 30.0000000  0  9G08G07G21G16G27G23G09G30G26          0.000000000
 112059143.12548  87318810.25148  21324139.869    21324142.932    21324139.549  
 116827616.35248  91034477.91747  22231544.945    22231544.764    22231544.673  
 133680202.37946 104166401.25243  25438495.917    25438494.038    25438495.121  
 112676547.28148  87799922.63546  21441626.343    21441625.851    21441625.860  
 107316899.72549  83623565.36449  20421720.391    20421722.747    20421720.179  
 114903162.66748  89534934.18446  21865337.228    21865336.105    21865336.965  
 111226536.51148  86670031.13848  21165701.667    21165704.084    21165701.325  
 128363130.02046 100023214.83047  24426688.792    24426692.030    24426688.585  
 125582462.63047  97856445.39747  23897531.998    23897534.959    23897531.048  
 18 01 01 01 16 00.0000000  0  9G08G07G21G16G27G23G09G30G26          0.000000000
 111985037.74048  87261065.81648  21310037.971    21310040.942    21310037.691  
 116745016.77149  90970114.61347  22215826.895    22215826.681    22215826.836  
 133704522.54345 104185352.00043  25443123.104    25443122.773    25443121.527  
 112749776.25648  87856984.16646  21455561.521    21455560.960    21455560.717  
 107317924.95949  83624364.25849  20421915.929    20421917.852    20421915.250  
 114980496.77048  89595194.50446  21880053.291    21880052.178    21880052.794  
 111249620.03248  86688018.29548  21170094.333    21170096.801    21170094.089  
 128263163.63746  99945318.96146  24407666.093    24407668.440    24407665.122  
 125674753.08047  97928360.01047  23915093.882    23915098.058    23915093.924  
 18 01 01 01 16 30.0000000  0  9G08G07G21G16G27G23G09G30G26          0.000000000
 111911388.34748  87203676.69848  21296023.201    21296026.052    21296022.713  
 116662586.12949  90905882.94747  22200140.871    22200140.622    22200140.522  
 133729275.56346 104204640.04843  25447833.896    25447834.271    25447833.181  
 112823229.08848  87914220.14446  21469539.273    21469538.535    21469538.078  
 107319579.89749  83625653.82749  20422230.539    20422232.822    20422230.092  
 115058247.76048  89655779.66646  21894849.175    21894847.482    21894848.553  
 111273300.68248  86706470.73948  21174600.722    21174603.156    21174600.352  
 128163222.92546  99867443.13446  24388646.754    24388649.351    24388647.748  
 125767097.65647  98000316.78647  23932666.526    23932669.441    23932665.981  
 18 01 01 01 17 00.0000000  0  9G08G07G21G16G27G23G09G30G26          0.000000000
 111838196.87548  87146644.40748  21282095.100    21282098.119    21282094.932  
 116580326.35848  90841784.43247  22184487.116    22184486.935    22184486.534  
 133754461.95246 104224265.78743  25452626.362    25452626.062    25452625.454  
 112896903.71348  87971628.94546  21483558.921    21483558.381    21483558.182  
 107321864.01949  83627433.66449  20422665.363    20422667.446    20422664.658  
 115136412.58348  89716687.27946  21909723.171    21909721.989    21909722.631  
 111297577.61148  86725387.81548  21179220.226    21179222.752    21179219.869  
 128063309.25646  99789588.28146  24369634.571    24369637.096    24369634.866  
 125859495.40247  98072315.03347  23950249.766    23950252.935    23950248.798  
 18 01 01 01 17 30.0000000  0  9G08G07G21G16G27G23G09G30G26          0.000000000
 111765465.12848  87089970.33648  21268254.830    21268257.555    21268254.373  
 116498239.19748  90777820.40747  22168866.488    22168866.466    22168866.313  
 133780080.52645 104244228.30343  25457501.739    25457502.834    25457500.625  
 112970798.88148  88029209.58946  21497620.622    21497620.182    21497619.995  
 107324776.81349  83629703.38249  20423219.399    20423221.707    20423219.091  
 115214988.80748  89777915.48346  21924676.359    21924674.336    21924675.766  
 111322449.84648  86744768.77148  21183953.412    21183955.914    21183953.090  
 127963423.84046  99711755.51646  24350627.220    24350629.160    24350626.090  
 125951945.31947  98144353.93647  23967842.385    23967844.823    23967841.146  
 18 01 01 01 18 00.0000000  0  9G08G07G21G16G27G23G09G30G26          0.000000000
 111693195.23548  87033656.15548  21254502.184    21254505.383    21254501.705  
 116416326.22049  90713992.13147  22153279.353    22153278.988    22153279.008  
 133806131.07645 104264527.39743  25462457.806    25462458.250    25462457.815  
 113044912.67048  88086960.60246  21511724.167    21511723.343    21511723.334  
 107328317.74749  83632462.55549  20423893.223    20423895.532    20423892.796  
 115293974.46848  89839462.72446  21939706.630    21939705.417    21939706.012  
 111347916.45648  86764612.87348  21188799.443    21188802.087    21188799.343  
 127863568.08246  99633945.86746  24331626.112    24331628.129    24331625.120  
 126044446.46547  98216432.72247  23985444.646    23985448.329    23985444.948  
 18 01 01 01 18 30.0000000  0  9G08G07G21G16G27G23G09G30G26          0.000000000
 111621389.00648  86977703.27848  21240837.879    21240841.139    21240837.470  
 116334589.57948  90650301.23647  22137724.973    22137725.124    22137724.785  
 133832612.72546 104285162.42643  25467498.104    25467497.451    25467497.523  
 113119243.02948  88144880.36246  21525868.601    21525868.071    21525867.944  
 107332486.23449  83635710.73449  20424686.708    20424688.756    20424686.187  
 115373366.63148  89901326.71646  21954814.521    21954813.221    21954813.638  
 111373976.42648  86784919.33548  21193758.422    21193760.944    21193758.106  
 127763743.36546  99556160.36446  24312629.682    24312631.951    24312628.580  
 126136997.92646  98288550.71647  24003055.968    24003060.096    24003055.815  
 18 01 01 01 19 00.0000000  0  9G08G07G21G16G27G23G09G30G26          0.000000000
 111550048.81948  86922113.53648  21227262.311    21227265.488    21227261.835  
 116253030.84048  90586748.97747  22122205.017    22122204.686    22122204.494  
 133859525.31546 104306133.25143  25472619.134    25472618.176    25472618.340  
 113193788.99548  88202968.12746  21540054.375    21540053.825    21540053.585  
 107337281.66749  83639447.43849  20425599.055    20425601.261    20425598.625  
 115453162.66148  89963505.40546  21969999.072    21969997.448    21969998.594  
 111400628.76848  86805687.38348  21198830.337    21198832.715    21198829.900  
 127663950.91446  99478400.01146  24293639.239    24293641.720    24293639.200  
 126229598.72647  98360707.14747  24020677.491    24020681.157    24020677.216  
 18 01 01 01 19 30.0000000  0  9G08G07G21G16G27G23G09G30G26          0.000000000
 111479175.80948  86866887.84648  21213775.831    21213778.613    21213775.108  
 116171652.02648  90523336.91447  22106719.128    22106718.776    22106718.805  
 133886867.70646 104327439.06343  25477823.001    25477823.738    25477821.674  
 113268548.94048  88261222.63146  21554280.727    21554280.061    21554279.845  
 107342703.44149  83643672.19849  20426630.973    20426632.864    20426630.409  
 115533359.97148  90025996.79246  21985259.884    21985258.582    21985259.497  
 111427872.46748  86826916.23548  21204014.736    21204017.282    21204014.314  
 127564192.17246  99400665.96846  24274655.291    24274658.750    24274655.392  
 126322247.93847  98432901.31647  24038308.138    24038311.940    24038308.656  
 18 01 01 01 20 00.0000000  0  9G08G07G21G16G27G23G09G30G26          0.000000000
 111408772.16548  86812027.88248  21200377.861    21200381.501    21200377.751  
 116090454.88148  90460066.40147  22091267.528    22091267.526    22091267.516  
 133914639.40446 104349079.25043  25483109.346    25483106.927    25483105.751  
 113343521.04748  88319642.45146  21568547.184    21568546.805    21568546.556  
 107348750.91149  83648384.52149  20427781.616    20427783.786    20427781.236  
 115613955.94948  90088798.82846  22000597.225    22000595.380    22000596.309  
 111455706.48348  86848605.06748  21209311.515    21209313.838    21209310.893  
 127464468.49346  99322959.23946  24255678.494    24255681.662    24255677.741  
 126414944.62447  98505132.49147  24055948.362    24055951.617    24055947.877  
 18 01 01 01 20 30.0000000  0  9G08G07G21G16G27G23G09G30G26          0.000000000
 111338839.59948  86757535.00348  21187070.647    21187073.541    21187070.059  
 116009441.29348  90396938.93147  22075851.315    22075851.127    22075850.956  
 133942839.41946 104371053.28843  25488472.818    25488473.430    25488472.662  
 113418703.69948  88378226.33446  21582854.082    21582853.397    21582853.325  
 107355423.37449  83653583.84249  20429051.467    20429053.410    20429050.900  
 115694947.81348  90151909.34046  22016008.874    22016007.539    22016009.006  
 111484129.71148  86870753.02548  21214720.189    21214722.499    21214719.786  
 127364781.24046  99245280.85546  24236709.183    24236711.373    24236708.912  
 126507687.85947  98577399.91247  24073596.259    24073599.787    24073595.935  
 18 01 01 01 21 00.0000000  0  9G08G07G21G16G27G23G09G30G26          0.000000000
 111269380.11748  86703410.74448  21173852.371    21173855.795    21173852.357  
 115928613.14348  90333955.96647  22060470.373    22060469.912    22060469.946  
 133971468.35045 104393361.52843  25493919.777    25493921.453    25493920.044  
 113494095.38248  88436973.09746  21597200.578    21597200.438    21597199.899  
 107362720.13249  83659269.63549  20430439.942    20430441.939    20430439.431  
 115776332.88448  90215326.25246  22031496.291    22031494.949    22031495.517  
 111513141.05648  86893359.25848  21220240.994    21220243.327    21220240.517  
 127265131.79746  99167632.00146  24217746.551    24217748.903    24217745.559  
 126600476.75747  98649702.92047  24091254.185    24091257.611    24091253.478  
 18 01 01 01 21 30.0000000  0  9G08G07G21G16G27G23G09G30G26          0.000000000
 111200395.45348  86649656.47348  21160725.945    21160728.518    21160725.049  
 115847972.16348  90271118.83647  22045125.036    22045124.695    22045124.684  
 134000524.79845 104416002.87843  25499451.331    25499450.926    25499449.881  
 113569694.26348  88495881.31446  21611586.858    21611586.204    21611586.082  
 107370640.49449  83665441.34949  20431947.013    20431949.046    20431946.541  
 115858108.92448  90279047.81246  22047058.192    22047056.020    22047057.389  
 111542739.38348  86916422.88148  21225873.328    21225875.632    21225872.947  
 127165521.57546  99090013.64546  24198791.843    24198792.944    24198791.483  
 126693310.37547  98722040.78347  24108919.005    24108923.078    24108918.059  
 18 01 01 01 22 00.0000000  0  9G08G07G21G16G27G23G09G30G26          0.000000000
 111131887.17248  86596273.41748  21147688.852    21147691.857    21147688.378  
 115767520.20048  90208428.99448  22029815.365    22029815.009    22029814.972  
 134030007.99946 104438976.80643  25505062.283    25505061.634    25505059.178  
 113645498.96148  88554949.91546  21626011.646    21626011.331    21626011.182  
 107379183.68549  83672098.38749  20433573.085    20433574.988    20433572.403  
 115940273.06848  90343071.78846  22062693.027    22062691.783    22062692.249  
 111572923.59348  86939943.03448  21231617.185    21231619.649    21231616.822  
 127065951.93946  99012426.91046  24179842.946    24179845.241    24179842.918  
 126786187.79647  98794412.78847  24126592.810    24126598.019    24126591.703  
 18 01 01 01 22 30.0000000  0  9G08G07G21G16G27G23G09G30G26          0.000000000
 111063857.43748  86543263.25048  21134743.037    21134746.228    21134742.626  
 115687258.99348  90145887.79547  22014542.292    22014541.817    22014541.921  
 134059917.14746 104462282.59643  25510752.211    25510752.407    25510752.112  
 113721507.89648  88614177.65346  21640476.181    21640475.545    21640475.256  
 107388348.93949  83679240.14849  20435317.235    20435319.070    20435316.575  
 116022822.58648  90407396.05346  22078401.955    22078400.143    22078401.236  
 111603692.45548  86963918.76248  21237472.443    21237474.508    21237471.811  
 126966424.34046  98934872.92846  24160903.912    24160905.497    24160903.539  
 126879108.20147  98866818.27446  24144275.674    24144278.231    24144275.151  
 18 01 01 01 23 00.0000000  0  9G08G07G21G16G27G23G09G30G26          0.000000000
 110996307.92448  86490627.28348  21121888.859    21121892.105    21121888.517  
 115607190.49748  90083496.76047  21999305.755    21999305.323    21999305.308  
 134090251.12446 104485919.44943  25516525.549    25516525.018    25516524.232  
 113797719.41348  88673563.25046  21654978.678    21654978.033    21654977.760  
 107398135.48949  83686866.03049  20437179.095    20437181.298    20437178.848  
 116105754.87748  90472018.58946  22094183.069    22094182.033    22094182.746  
 111635044.82348  86988349.17148  21243438.613    21243440.690    21243437.924  
 126866940.11847  98857352.75746  24141973.342    24141976.256    24141973.141  
 126972070.62547  98939256.49647  24161965.944    24161969.156    24161966.161  
 18 01 01 01 23 30.0000000  0  9G08G07G21G16G27G23G09G30G26          0.000000000
 110929240.26748  86438366.78448  21109126.301    21109129.526    21109125.886  
 115527316.82848  90021257.54548  21984106.193    21984106.132    21984105.727  
 134121009.98145 104509887.37043  25522378.826    25522377.871    25522377.774  
 113874131.89148  88733105.44446  21669519.039    21669518.886    21669518.484  
 107408542.43649  83694975.34749  20439159.852    20439161.647    20439159.129  
 116189067.40648  90536937.42146  22110037.767    22110035.555    22110037.127  
 111666979.41848  87013233.25848  21249515.247    21249517.634    21249515.045  
 126767500.77246  98779867.57047  24123049.978    24123052.939    24123049.943  
 127065074.12347  99011726.75747  24179664.661    24179666.953    24179663.285  
 18 01 01 01 24 00.0000000  0  9G08G07G21G16G27G23G09G30G26          0.000000000
 110862656.12248  86386483.05648  21096455.653    21096458.830    21096455.312  
 115447639.76748  89959171.53348  21968944.407    21968944.051    21968943.753  
 134152192.97646 104534185.76543  25528313.256    25528311.732    25528312.355  
 113950743.77748  88792803.01946  21684098.142    21684097.570    21684097.555  
 107419568.99249  83703567.47749  20441257.859    20441260.017    20441257.459  
 116272757.27648  90602150.27646  22125962.573    22125961.566    22125962.648  
 111699495.00948  87038570.06648  21255702.842    21255705.327    21255702.507  
 126668107.63946  98702418.41447  24104136.538    24104139.859    24104135.891  
 127158117.98147  99084228.40747  24197369.022    24197372.551    24197369.208  
 18 01 01 01 24 30.0000000  0  9G08G07G21G16G27G23G09G30G26          0.000000000
 110796557.38248  86334977.55848  21083877.456    21083880.503    21083877.290  
 115368160.91748  89897239.96448  21953819.592    21953819.403    21953819.515  
 134183799.16546 104558813.96443  25534326.949    25534326.754    25534326.110  
 114027553.46348  88852654.72046  21698714.558    21698713.810    21698713.599  
 107431214.28749  83712641.73149  20443473.954    20443476.021    20443473.450  
 116356821.74148  90667655.03546  22141960.651    22141958.404    22141959.869  
 111732590.39548  87064358.67148  21262001.050    21262002.977    21262000.467  
 126568762.21946  98625006.42847  24085231.965    24085234.015    24085231.579  
 127251201.17846  99156760.74447  24215082.317    24215085.142    24215081.103  
 18 01 01 01 25 00.0000000  0  9G08G07G21G16G27G23G09G30G26          0.000000000
 110730945.57848  86283851.49648  21071391.972    21071394.908    21071391.606  
 115288882.15348  89835464.31447  21938733.744    21938733.245    21938733.068  
 134215827.73346 104583771.29143  25540422.552    25540420.630    25540420.687  
 114104559.47448  88912659.40346  21713368.223    21713367.857    21713367.596  
 107443477.40949  83722197.41849  20445807.852    20445809.620    20445806.973  
 116441258.33348  90733449.74246  22158027.351    22158026.285    22158026.693  
 111766264.20248  87090597.99148  21268408.902    21268411.033    21268408.293  
 126469465.93447  98547632.72647  24066336.771    24066338.826    24066335.968  
 127344322.94247  99229323.15846  24232803.327    24232805.912    24232802.582  
 18 01 01 01 25 30.0000000  0  9G08G07G21G16G27G23G09G30G26          0.000000000
 110665822.74548  86233106.45248  21058999.537    21059002.615    21058999.126  
 115209805.52748  89773846.17547  21923685.649    21923685.413    21923685.236  
 134248277.71446 104609056.97043  25546597.228    25546597.792    25546595.557  
 114181759.99048  88972815.64646  21728058.762    21728058.446    21728058.027  
 107456357.41949  83732233.79649  20448258.387    20448260.492    20448258.011  
 116526063.98248  90799532.03146  22174165.336    22174164.142    22174165.101  
 111800515.16548  87117287.04048  21274926.354    21274928.764    21274926.099  
 126370220.29246  98470298.45746  24047449.652    24047452.712    24047448.618  
 127437482.34047  99301914.89846  24250530.519    24250533.973    24250530.509  
 18 01 01 01 26 00.0000000  0  9G08G07G21G16G27G23G09G30G26          0.000000000
 110601190.13048  86182743.39748  21046700.263    21046703.313    21046699.958  
 115130933.09048  89712387.15148  21908676.554    21908676.871    21908676.291  
 134281148.00745 104634670.17443  25552851.610    25552850.515    25552851.644  
 114259153.84148  89033122.54346  21742786.731    21742785.790    21742785.877  
 107469853.42849  83742750.16649  20450826.773    20450828.711    20450826.242  
 116611236.27848  90865900.01546  22190373.111    22190371.580    22190372.232  
 111835341.94048  87144424.77448  21281553.844    21281555.902    21281553.257  
 126271026.64347  98393004.74647  24028575.027    24028577.223    24028573.663  
 127530678.53947  99374535.30746  24268265.584    24268269.073    24268265.026  
 18 01 01 01 26 30.0000000  0  9G08G07G21G16G27G23G09G30G26          0.000000000
 110537049.44748  86132763.64448  21034495.235    21034497.823    21034494.396  
 115052266.43348  89651088.46947  21893706.599    21893707.054    21893706.503  
 134314438.22046 104660610.60143  25559186.735    25559186.553    25559186.175  
 114336739.34648  89093578.78246  21757550.364    21757550.110    21757549.756  
 107483964.40349  83753745.73649  20453512.238    20453513.888    20453511.406  
 116696772.49248  90932551.58546  22206650.560    22206648.765    22206649.561  
 111870743.14948  87172010.11548  21288290.463    21288292.868    21288290.073  
 126171886.56647  98315752.78146  24009708.134    24009710.860    24009707.604  
 127623910.71146  99447183.69847  24286006.937    24286011.046    24286006.144  
 18 01 01 01 27 00.0000000  0  9G08G07G21G16G27G23G09G30G26          0.000000000
 110473402.29448  86083168.48348  21022383.482    21022385.994    21022382.875  
 114973807.94648  89589951.99748  21878776.481    21878776.529    21878776.294  
 134348147.50946 104686877.54742  25565601.394    25565600.193    25565599.090  
 114414514.96048  89154183.15146  21772351.067    21772350.237    21772349.997  
 107498689.41249  83765219.77749  20456313.824    20456316.056    20456313.475  
 116782669.96648  90999484.65446  22222996.051    22222994.748    22222995.805  
 111906717.40048  87200041.98648  21295136.288    21295138.202    21295135.895  
 126072801.53047  98238543.64046  23990853.548    23990856.124    23990853.075  
 127717178.05047  99519859.46747  24303755.621    24303758.129    24303754.396  
 18 01 01 01 27 30.0000000  0  9G08G07G21G16G27G23G09G30G26          0.000000000
 110410250.42148  86033959.25148  21010365.619    21010368.732    21010365.324  
 114895559.26748  89528979.00848  21863886.392    21863886.414    21863886.148  
 134382275.31346 104713470.66343  25572096.504    25572095.069    25572095.030  
 114492478.85548  89214934.25246  21787187.234    21787185.977    21787186.233  
 107514027.41449  83777171.46449  20459232.660    20459234.899    20459232.250  
 116868925.47148  91066696.71046  22239410.008    22239408.788    22239409.449  
 111943263.31848  87228519.31348  21302090.643    21302092.763    21302090.157  
 125973772.92947  98161378.49446  23972009.664    23972011.327    23972009.149  
 127810479.58847  99592561.94247  24321510.635    24321513.192    24321509.673  
 18 01 01 01 28 00.0000000  0  9G08G07G21G16G27G23G09G30G26          0.000000000
 110347595.53048  85985137.26848  20998442.597    20998445.772    20998442.520  
 114817522.11748  89468170.85148  21849036.710    21849036.522    21849036.330  
 134416820.70046 104740389.08442  25578669.186    25578669.192    25578669.017  
 114570630.01848  89275831.25346  21802058.541    21802058.049    21802057.785  
 107529977.37449  83789600.00849  20462267.933    20462270.027    20462267.303  
 116955536.55848  91134185.83646  22255891.830    22255890.110    22255890.959  
 111980379.43348  87257440.94648  21309153.536    21309155.818    21309153.105  
 125874802.30947  98084258.53846  23953176.367    23953178.176    23953174.254  
 127903814.55947  99665290.46647  24339270.664    24339275.208    24339270.272  
 18 01 01 01 28 30.0000000  0  9G08G07G21G16G27G23G09G30G26          0.000000000
 110285439.17348  85936703.76648  20986614.863    20986618.130    20986614.365  
 114739698.38649  89407528.99848  21834227.146    21834227.259    21834226.874  
 134451781.82646 104767631.53742  25585322.309    25585322.277    25585321.228  
 114648966.91148  89336872.98846  21816965.501    21816964.781    21816964.993  
 107546538.22449  83802504.57249  20465419.411    20465421.425    20465418.680  
 117042500.46747  91201949.89146  22272440.016    22272438.786    22272439.530  
 112018064.33648  87286805.79048  21316324.742    21316327.100    21316324.342  
 125775891.20647  98007184.93546  23934353.594    23934355.028    23934352.889  
 127997182.13047  99738044.39147  24357037.930    24357041.396    24357037.034  
 18 01 01 01 29 00.0000000  0  9G08G07G21G16G27G23G09G30G26          0.000000000
 110223782.85048  85888659.89948  20974882.498    20974885.099    20974881.657  
 114662090.22549  89347055.12248  21819458.709    21819458.784    21819458.621  
 134487158.37146 104795197.63742  25592052.563    25592054.694    25592052.139  
 114727487.87248  89398058.15146  21831907.191    21831907.100    21831906.704  
 107563708.89049  83815884.31749  20468686.529    20468688.762    20468686.309  
 117129814.29048  91269986.61446  22289055.318    22289053.955    22289054.832  
 112056316.51548  87316612.67248  21323603.966    21323606.251    21323603.458  
 125677041.11447  97930158.90146  23915542.802    23915544.659    23915542.364  
 128090581.55647  99810823.11747  24374810.945    24374816.040    24374811.022  
 18 01 01 01 29 30.0000000  0  9G08G07G21G16G27G23G09G30G26          0.000000000
 110162628.08548  85841006.85748  20963244.830    20963247.577    20963244.166  
 114584699.62449  89286750.77348  21804731.936    21804731.719    21804731.608  
 134522949.75946 104823086.99643  25598865.610    25598865.371    25598863.863  
 114806191.28848  89459385.48046  21846884.381    21846884.004    21846883.671  
 107581488.26049  83829738.37049  20472069.925    20472072.030    20472069.656  
 117217474.99948  91338293.63946  22305736.812    22305735.732    22305736.343  
 112095134.50148  87346860.44048  21330990.701    21330993.214    21330990.384  
 125578253.48646  97853181.54147  23896743.704    23896746.992    23896742.933  
 128184011.97647  99883625.99247  24392590.685    24392594.458    24392589.188  
 18 01 01 01 30 00.0000000  0  9G08G07G21G16G27G23G09G30G26          0.000000000
 110101976.30648  85793745.74948  20951703.020    20951705.934    20951702.547  
 114507528.47049  89226617.41648  21790046.558    21790046.532    21790046.395  
 134559154.63246 104851298.55042  25605755.016    25605754.449    25605752.756  
 114885075.66748  89520853.83646  21861895.668    21861894.777    21861894.572  
 107599875.18949  83844065.85449  20475569.110    20475570.918    20475568.509  
 117305480.23448  91406869.11846  22322484.211    22322482.014    22322483.170  
 112134516.77348  87377547.91448  21338484.825    21338487.450    21338484.512  
 125479529.88646  97776254.07247  23877956.541    23877959.913    23877956.771  
 128277472.53747  99956452.37346  24410375.212    24410378.689    24410374.859  
 18 01 01 01 30 30.0000000  0  9G08G07G21G16G27G23G09G30G26          0.000000000
 110041829.27848  85746877.94848  20940257.256    20940260.293    20940256.963  
 114430578.55149  89166656.43848  21775403.620    21775403.491    21775403.284  
 134595772.39646 104879831.85342  25612722.825    25612721.641    25612721.876  
 114964139.67648  89582462.15146  21876940.657    21876940.569    21876940.028  
 107618868.58849  83858865.90849  20479183.081    20479185.252    20479182.788  
 117393827.20848  91475710.88346  22339295.487    22339294.020    22339295.377  
 112174461.77348  87408673.87148  21346086.276    21346088.594    21346085.615  
 125380871.85546  97699377.70347  23859183.847    23859186.201    23859183.032  
 128370962.44047 100029301.64146  24428166.303    24428169.428    24428165.791  
 18 01 01 01 31 00.0000000  0  9G08G07G21G16G27G23G09G30G26          0.000000000
 109982187.99048  85700404.23448  20928908.000    20928911.089    20928907.670  
 114353852.13749  89106869.61948  21760803.103    21760802.897    21760802.984  
 134632801.78745 104908685.85342  25619769.039    25619769.536    25619769.355  
 115043381.83148  89644209.27846  21892020.510    21892019.573    21892019.342  
 107638467.20649  83874137.55949  20482912.735    20482914.918    20482912.338  
 117482512.90048  91544816.57546  22356172.171    22356170.773    22356171.456  
 112214967.93448  87440237.10448  21353793.997    21353796.569    21353793.691  
 125282280.96346  97622553.65847  23840422.071    23840424.694    23840420.982  
 128464480.94147 100102173.18046  24445963.543    24445965.523    24445962.036  
 18 01 01 01 31 30.0000000  0  9G08G07G21G16G27G23G09G30G26          0.000000000
 109923054.17848  85654325.96948  20917655.084    20917658.166    20917654.751  
 114277350.91849  89047258.28248  21746245.299    21746245.332    21746244.935  
 134670241.79146 104937859.85942  25626894.109    25626893.893    25626894.532  
 115122800.38247  89706093.86246  21907133.177    21907132.232    21907132.258  
 107658669.89849  83889879.91949  20486757.297    20486759.356    20486756.675  
 117571534.56648  91614184.08546  22373112.530    22373110.904    22373111.441  
 112256033.68548  87472236.36848  21361608.753    21361611.290    21361608.425  
 125183758.72746  97545783.10347  23821673.856    23821677.181    23821673.517  
 128558027.21446 100175066.31546  24463762.732    24463766.836    24463762.422  
 18 01 01 01 32 00.0000000  0  9G08G07G21G16G27G23G09G30G26          0.000000000
 109864429.42848  85608644.36548  20906499.351    20906502.321    20906498.909  
 114201077.20849  88987824.21948  21731730.894    21731730.859    21731730.736  
 134708091.49446 104967353.10642  25634096.817    25634097.413    25634096.899  
 115202394.23348  89768115.04946  21922278.923    21922278.811    21922278.617  
 107679475.40749  83906092.00949  20490716.522    20490718.443    20490715.965  
 117660889.27747  91683811.10546  22390115.671    22390114.656    22390115.282  
 112297657.42248  87504670.43748  21369529.571    21369531.998    21369529.229  
 125085306.74846  97469067.27947  23802939.060    23802941.579    23802938.498  
 128651600.50646 100247980.55046  24481568.896    24481573.236    24481568.396  
 18 01 01 01 32 30.0000000  0  9G08G07G21G16G27G23G09G30G26          0.000000000
 109806315.24948  85563360.61648  20895440.562    20895443.536    20895440.221  
 114125032.46249  88928568.55848  21717260.189    21717260.013    21717259.740  
 134746350.37046 104997165.21942  25641377.817    25641376.212    25641375.858  
 115282162.06448  89830271.79446  21937458.273    21937458.355    21937457.830  
 107700882.50949  83922772.86949  20494789.666    20494792.051    20494789.433  
 117750574.12048  91753695.37346  22407182.272    22407181.100    22407181.691  
 112339837.51248  87537538.02048  21377556.199    21377558.817    21377555.725  
 124986926.51347  97392407.36347  23784219.721    23784220.551    23784217.585  
 128745199.99647 100320915.19746  24499381.075    24499384.783    24499380.702  
 18 01 01 01 33 00.0000000  0  9G08G07G21G16G27G23G09G30G26          0.000000000
 109748712.72448  85518475.55548  20884479.195    20884481.991    20884478.627  
 114049218.92948  88869493.07448  21702833.409    21702833.207    21702832.974  
 134785016.62246 105027294.79442  25648734.806    25648734.623    25648733.910  
 115362101.96148  89892562.62646  21952670.411    21952669.740    21952669.951  
 107722889.93649  83939921.51349  20498977.833    20498980.016    20498977.403  
 117840586.59848  91823834.95546  22424311.369    22424309.894    22424310.430  
 112382572.28148  87570837.83448  21385688.142    21385691.087    21385687.904  
 124888619.65246  97315804.62047  23765510.960    23765513.731    23765510.700  
 128838824.87547 100393869.61947  24517197.398    24517201.604    24517197.123  
 18 01 01 01 33 30.0000000  0  9G08G07G21G16G27G23G09G30G26          0.000000000
 109691623.64448  85473990.56848  20873615.399    20873618.180    20873614.818  
 113973638.79848  88810599.47048  21688450.795    21688450.850    21688450.481  
 134824089.25445 105057740.93942  25656168.689    25656169.051    25656168.358  
 115442212.08448  89954986.09046  21967914.489    21967914.601    21967914.208  
 107745496.41649  83957536.95349  20503279.693    20503281.820    20503279.181  
 117930923.57048  91894227.35946  22441502.004    22441500.489    22441501.472  
 112425860.09048  87604568.57548  21393925.644    21393928.560    21393925.405  
 124790387.70646  97239260.29346  23746817.989    23746819.941    23746817.953  
 128932474.47146 100466843.29547  24535018.471    24535022.769    24535019.005  
 18 01 01 01 34 00.0000000  0  9G08G07G21G16G27G23G09G30G26          0.000000000
 109635049.01749  85429906.45948  20862849.367    20862852.557    20862849.271  
 113898293.67249  88751888.98448  21674113.380    21674112.783    21674113.122  
 134863568.01446 105088503.51842  25663681.250    25663683.370    25663682.258  
 115522492.01548  90017541.87946  21983191.608    21983190.904    21983191.090  
 107768700.61949  83975618.14849  20507695.374    20507697.433    20507694.692  
 118021582.40548  91964870.57846  22458753.740    22458752.323    22458753.178  
 112469699.22248  87638728.91548  21402268.026    21402270.648    21402267.632  
 124692232.39247  97162775.58546  23728139.413    23728139.792    23728139.776  
 129026147.94646 100539835.53347  24552842.448    24552847.737    24552842.348  
 18 01 01 01 34 30.0000000  0  9G08G07G21G16G27G23G09G30G26          0.000000000
 109578990.64149  85386224.63948  20852181.814    20852184.868    20852181.548  
 113823185.74549  88693363.34348  21659820.751    21659820.484    21659820.384  
 134903451.68646 105119581.74041  25671271.523    25671269.890    25671272.364  
 115602939.69048  90080228.39046  21998500.473    21998499.807    21998499.638  
 107792501.23349  83994164.08849  20512224.413    20512226.503    20512223.878  
 118112560.02248  92035762.21446  22476065.985    22476065.105    22476065.323  
 112514087.97848  87673317.53748  21410714.855    21410717.495    21410714.582  
 124594155.14847  97086351.75846  23709476.219    23709478.723    23709475.060  
 129119844.56046 100612845.85946  24570673.511    24570677.653    24570673.497  
 18 01 01 01 35 00.0000000  0  9G08G07G21G16G27G23G09G30G26          0.000000000
 109523449.49149  85342945.85348  20841612.696    20841615.664    20841612.225  
 113748316.91648  88635024.00148  21645573.671    21645573.314    21645573.451  
 134943738.23146 105150973.85842  25678937.000    25678939.013    25678936.734  
 115683554.04648  90143044.77246  22013841.235    22013840.484    22013839.895  
 107816896.91249  84013173.71049  20516866.928    20516868.824    20516866.281  
 118203853.76948  92106900.18745  22493438.314    22493437.652    22493437.905  
 112559024.61248  87708333.08848  21419266.313    21419268.432    21419265.967  
 124496157.64047  97009990.04446  23690828.116    23690830.209    23690827.737  
 129213563.58746 100685873.64846  24588507.876    24588510.979    24588506.460  
 18 01 01 01 35 30.0000000  0  9G08G07G21G16G27G23G09G30G26          0.000000000
 109468427.19648  85300071.36248  20831142.131    20831145.264    20831141.886  
 113673689.64649  88576872.89048  21631372.534    21631372.238    21631372.228  
 134984427.79846 105182679.97642  25686681.808    25686684.297    25686680.614  
 115764333.43448  90205989.73846  22029212.606    22029211.975    22029211.878  
 107841886.26349  84032645.93149  20521622.309    20521624.018    20521621.708  
 118295460.57348  92178282.07246  22510870.754    22510870.186    22510870.131  
 112604507.35148  87743774.16648  21427921.650    21427923.783    21427921.005  
 124398241.51747  96933691.76647  23672195.446    23672197.799    23672194.550  
 129307304.20746 100758918.24747  24606347.208    24606350.560    24606345.792  
 18 01 01 01 36 00.0000000  0  9G08G07G21G16G27G23G09G30G26          0.000000000
 109413924.70349  85257601.90748  20820770.971    20820773.756    20820770.470  
 113599305.29249  88518911.06148  21617217.760    21617217.120    21617217.360  
 135025518.26146 105214698.42542  25694501.142    25694499.249    25694500.607  
 115845276.32748  90269062.11846  22044615.320    22044615.005    22044614.512  
 107867467.91249  84052579.68249  20526490.159    20526492.084    20526489.558  
 118387377.56948  92249905.68646  22528362.606    22528360.179    22528361.691  
 112650534.44048  87779639.41448  21436679.730    21436682.399    21436679.695  
 124300408.37047  96857458.16247  23653577.954    23653580.997    23653576.889  
 129401065.69747 100831979.10447  24624189.671    24624193.497    24624188.582  
 18 01 01 01 36 30.0000000  0  9G08G07G21G16G27G23G09G30G26          0.000000000
 109359943.51349  85215538.66548  20810498.193    20810501.723    20810498.071  
 113525165.82748  88461140.03848  21603109.245    21603108.976    21603109.067  
 135067008.67746 105247028.61442  25702396.439    25702396.229    25702395.059  
 115926381.71348  90332261.12246  22060049.036    22060048.640    22060048.489  
 107893640.43549  84072973.86249  20531470.560    20531472.591    20531470.043  
 118479601.84048  92321768.71846  22545912.055    22545910.755    22545911.678  
 112697104.06648  87815927.42848  21445541.747    21445544.458    21445541.566  
 124202659.83647  96781290.48747  23634976.880    23634980.571    23634977.073  
 129494847.36546 100905055.61346  24642034.100    24642038.787    24642033.401  
 18 01 01 01 37 00.0000000  0  9G08G07G21G16G27G23G09G30G26          0.000000000
 109306484.66049  85173882.44048  20800325.453    20800328.585    20800325.301  
 113451273.61549  88403561.67648  21589048.266    21589048.140    21589047.805  
 135108898.58445 105279670.05341  25710365.513    25710366.263    25710365.469  
 116007647.80248  90395585.34146  22075513.688    22075513.271    22075512.808  
 107920402.42049  84093827.35649  20536563.051    20536565.307    20536562.732  
 118572130.65448  92393869.05246  22563519.610    22563518.548    22563519.065  
 112744214.42548  87852636.78248  21454506.321    21454509.228    21454506.056  
 124104997.55647  96705190.04847  23616393.298    23616395.022    23616392.569  
 129588648.45346 100978147.30746  24659883.964    24659887.873    24659884.256  
 18 01 01 01 37 30.0000000  0  9G08G07G21G16G27G23G09G30G26          0.000000000
 109253549.59049  85132634.35548  20790252.124    20790255.415    20790251.943  
 113377630.99649  88346177.82148  21575034.507    21575034.458    21575034.208  
 135151186.07246 105312621.26742  25718416.471    25718416.288    25718414.228  
 116089073.43048  90459033.87746  22091008.499    22091008.198    22091007.886  
 107947752.38749  84115139.02149  20541767.901    20541769.870    20541767.375  
 118664960.96148  92466204.34545  22581184.713    22581183.424    22581184.023  
 112791863.67648  87889766.04348  21463574.028    21463576.376    21463573.822  
 124007423.13247  96629158.06047  23597825.105    23597828.406    23597823.666  
 129682468.27947 101051253.59946  24677738.746    24677740.361    24677737.803  
 18 01 01 01 38 00.0000000  0  9G08G07G21G16G27G23G09G30G26          0.000000000
 109201139.71249  85091795.50848  20780278.843    20780282.118    20780278.880  
 113304239.34448  88288989.53248  21561068.316    21561068.443    21561068.178  
 135193869.94446 105345881.40442  25726536.579    25726536.911    25726535.615  
 116170657.16548  90522605.61946  22106533.235    22106533.046    22106532.969  
 107975688.86849  84136907.71049  20547084.004    20547085.936    20547083.520  
 118758090.06548  92538772.44545  22598906.611    22598905.100    22598905.504  
 112840049.94648  87927313.77248  21472743.667    21472745.844    21472743.295  
 123909938.25147  96553195.85647  23579273.209    23579275.988    23579272.607  
 129776306.01447 101124373.93046  24695594.176    24695598.353    24695594.565  
 18 01 01 01 38 30.0000000  0  9G08G07G21G16G27G23G09G30G26          0.000000000
 109149255.86049  85051366.54948  20770405.780    20770408.853    20770405.644  
 113231100.86949  88231998.51448  21547150.629    21547150.667    21547150.180  
 135236950.19346 105379450.36943  25734736.213    25734735.862    25734735.234  
 116252397.51348  90586299.40046  22122087.904    22122087.534    22122087.529  
 108004210.39149  84159132.27849  20552511.349    20552513.421    20552511.002  
 118851514.99448  92611571.06545  22616685.112    22616682.756    22616683.916  
 112888771.37348  87965278.50048  21482014.727    21482017.343    21482014.619  
 123812544.61947  96477304.71647  23560740.597    23560743.908    23560740.031  
 129870160.99447 101197507.62746  24713453.924    24713458.505    24713454.373  
 18 01 01 01 39 00.0000000  0  9G08G07G21G16G27G23G09G30G26          0.000000000
 109097899.47449  85011348.61148  20760632.980    20760636.223    20760632.913  
 113158217.52349  88175206.29648  21533281.616    21533281.263    21533280.780  
 135280424.89846 105413326.69542  25743009.107    25743009.655    25743007.214  
 116334293.24348  90650114.24746  22137672.339    22137671.765    22137671.382  
 108033315.39749  84181811.50349  20558049.695    20558051.914    20558049.348  
 118945232.60548  92684597.74445  22634518.466    22634517.174    22634518.631  
 112938026.05248  88003658.75648  21491387.617    21491390.165    21491387.418  
 123715243.86047  96401485.98947  23542224.477    23542227.243    23542224.125  
 129964032.59646 101270654.27747  24731317.449    24731322.323    24731317.016  
 18 01 01 01 39 30.0000000  0  9G08G07G21G16G27G23G09G30G26          0.000000000
 109047071.83949  84971742.69448  20750960.718    20750963.878    20750960.505  
 113085591.71649  88118614.75948  21519461.156    21519460.895    21519460.832  
 135324292.81646 105447509.39542  25751353.975    25751355.681    25751354.687  
 116416342.72348  90714048.90146  22153286.249    22153285.647    22153285.115  
 108063002.40049  84204944.23849  20563699.465    20563701.010    20563698.555  
 119039240.16848  92757850.38645  22652407.392    22652406.363    22652406.838  
 112987812.05448  88042453.02448  21500861.928    21500864.277    21500861.354  
 123618037.64647  96325740.87747  23523726.915    23523730.123    23523726.936  
 130057920.04446 101343813.21546  24749183.869    24749187.297    24749184.091  
 18 01 01 01 40 00.0000000  0 10G08G11G07G21G16G27G23G09G30G26       0.000000000
 108996774.03649  84932549.65248  20741389.590    20741392.647    20741389.219  
 133305469.07646 103874385.54242  25367186.482    25367186.584    25367184.827  
 113013225.22149  88062225.28348  21505690.204    21505690.083    21505689.942  
 135368552.57946 105481997.45942  25759778.605    25759777.641    25759778.127  
 116498544.85448  90778102.50746  22168928.510    22168927.874    22168927.832  
 108093269.72349  84228529.16249  20569458.875    20569460.799    20569458.355  
 119133534.71948  92831326.61745  22670351.815    22670350.137    22670350.462  
 113038127.43148  88081659.79948  21510436.343    21510439.157    21510436.136  
 123520927.66747  96250070.77847  23505248.463    23505249.657    23505247.812  
 130151822.64846 101416983.97246  24767053.382    24767058.044    24767052.671  
 18 01 01 01 40 30.0000000  0 10G08G11G07G21G16G27G23G09G30G26       0.000000000
 108947007.02249  84893770.19848  20731919.161    20731922.068    20731918.842  
 133193018.57846 103786761.84842  25345787.372    25345788.012    25345787.687  
 112941119.96749  88006039.37248  21491969.146    21491968.953    21491968.761  
 135413202.90946 105516789.95342  25768275.291    25768274.936    25768275.220  
 116580898.35948  90842274.07246  22184599.858    22184599.094    22184599.069  
 108124115.98049  84252565.21049  20575328.431    20575330.668    20575328.143  
 119228113.12148  92905024.04945  22688349.085    22688347.242    22688348.249  
 113088970.25048  88121277.55948  21520111.773    21520114.542    21520111.448  
 123423915.61247  96174476.98147  23486786.973    23486789.404    23486786.382  
 130245739.65447 101490166.00446  24784925.403    24784928.097    24784925.022  
 18 01 01 01 41 00.0000000  0 10G08G11G07G21G16G27G23G09G30G26       0.000000000
 108897772.14449  84855405.39048  20722550.040    20722553.055    20722549.632  
 133080487.29046 103699075.19742  25324374.247    25324374.770    25324373.291  
 112869278.28249  87950058.84548  21478297.948    21478297.959    21478297.954  
 135458243.28545 105551886.33042  25776848.130    25776846.681    25776845.101  
 116663401.93548  90906562.57146  22200299.791    22200299.259    22200298.984  
 108155539.49249  84277051.06349  20581308.147    20581310.353    20581307.878  
 119322972.75748  92978940.61345  22706400.057    22706399.014    22706399.878  
 113140338.50248  88161304.74648  21529886.656    21529889.137    21529886.237  
 123327003.20047  96098960.81647  23468345.580    23468347.048    23468345.270  
 130339670.42547 101563358.79846  24802800.388    24802803.428    24802798.834  
 18 01 01 01 41 30.0000000  0  9G08G11G07G16G27G23G09G30G26          0.000000000
 108849070.38849  84817456.00348  20713282.481    20713285.388    20713282.091  
 132967877.20046 103611327.11442  25302944.915    25302946.390    25302943.019  
 112797701.97449  87894285.10648  21464677.571    21464677.473    21464677.358  
 116746053.59248  90970966.44746  22216027.905    22216027.212    22216027.291  
 108187538.65349  84301985.47449  20587397.598    20587399.775    20587397.117  
 119418110.70147  93053074.04945  22724504.308    22724503.717    22724503.906  
 113192230.35248  88201739.93448  21539761.672    21539763.736    21539761.187  
 123230192.10647  96023523.62947  23449922.429    23449924.818    23449922.412  
 130433614.34246 101636561.79146  24820676.048    24820680.590    24820676.343  
 18 01 01 01 42 00.0000000  0  9G08G11G07G16G27G23G09G30G26          0.000000000
 108800902.85149  84779922.88748  20704116.521    20704119.431    20704116.033  
 132855191.19446 103523519.85143  25281501.454    25281501.927    25281500.928  
 112726393.29549  87838719.91348  21451107.951    21451107.959    21451107.720  
 116828852.72648  91035485.24646  22231784.172    22231783.479    22231783.942  
 108220111.81749  84327367.16149  20593595.954    20593598.062    20593595.693  
 119513523.96248  93127422.02445  22742661.415    22742659.723    22742660.390  
 113244643.50648  88242581.34048  21549735.404    21549737.627    21549735.028  
 123133484.07147  95948166.73647  23431519.428    23431521.525    23431519.465  
 130527570.60146 101709774.42246  24838556.915    24838559.023    24838555.675  
 18 01 01 01 42 30.0000000  0  9G08G11G07G16G27G23G09G30G26          0.000000000
 108753270.39549  84742806.71348  20695052.299    20695055.029    20695051.997  
 132742431.30646 103435655.04643  25260043.960    25260043.910    25260042.653  
 112655354.58049  87783365.07448  21437589.825    21437589.514    21437589.365  
 116911797.86148  91100117.82746  22247567.957    22247568.046    22247567.258  
 108253257.31949  84353194.82349  20599903.379    20599905.459    20599902.946  
 119609209.47147  93201982.12245  22760869.854    22760867.896    22760869.320  
 113297576.08048  88283827.48148  21559808.109    21559810.181    21559807.565  
 123036880.82047  95872891.47247  23413136.068    23413138.884    23413135.675  
 130621538.64646 101782996.23146  24856436.685    24856440.445    24856437.439  
 18 01 01 01 43 00.0000000  0 10G08G11G07G21G16G27G23G09G30G26       0.000000000
 108706174.47949  84706108.60548  20686090.370    20686093.176    20686089.983  
 132629600.12346 103347734.66943  25238573.147    25238574.249    25238571.252  
 112584587.37549  87728221.80348  21424123.219    21424122.974    21424122.808  
 135642274.16445 105695274.85741  25811866.373    25811867.527    25811865.129  
 116994887.63647  91164863.09046  22263379.662    22263379.233    22263379.175  
 108286973.53349  84379467.20049  20606319.450    20606321.444    20606318.968  
 119705164.39847  93276752.17945  22779129.294    22779128.082    22779128.828  
 113351026.00948  88325476.76348  21569979.439    21569981.587    21569978.895  
 122940384.09347  95797699.20947  23394773.828    23394775.810    23394773.528  
 130715517.68246 101856226.59046  24874320.476    24874326.405    24874319.831  
 18 01 01 01 43 30.0000000  0  9G08G11G07G16G27G23G09G30G26          0.000000000
 108659615.35549  84669828.75448  20677230.101    20677233.275    20677229.945  
 132516700.23146 103259760.78943  25217087.044    25217088.833    25217086.783  
 112514093.85149  87673291.79248  21410708.705    21410708.625    21410708.500  
 117078120.72248  91229720.04946  22279218.477    22279217.518    22279217.522  
 108321258.73349  84406182.93948  20612843.646    20612845.773    20612843.132  
 119801385.61347  93351729.69745  22797439.792    22797438.210    22797439.142  
 113404991.18348  88367527.53448  21580248.382    21580250.911    21580248.163  
 122843995.64047  95722591.32547  23376431.473    23376434.066    23376431.005  
 130809507.17746 101929465.07446  24892206.813    24892211.660    24892206.857  
 18 01 01 01 44 00.0000000  0  9G08G11G07G16G27G23G09G30G26          0.000000000
 108613594.54749  84633968.37448  20668472.712    20668475.772    20668472.398  
 132403733.47746 103171734.80643  25195592.279    25195593.178    25195590.545  
 112443876.14249  87618576.69548  21397346.660    21397346.327    21397346.369  
 117161495.75247  91294687.58946  22295083.962    22295083.245    22295083.322  
 108356111.24049  84433340.73749  20619475.849    20619478.000    20619475.372  
 119897870.20347  93426912.47945  22815800.731    22815798.076    22815799.285  
 113459469.55548  88409978.19448  21590615.335    21590618.122    21590614.966  
 122747717.19947  95647569.17947  23358110.543    23358112.904    23358109.676  
 130903506.31046 102002711.10446  24910095.890    24910097.701    24910094.835  
 18 01 01 01 44 30.0000000  0  9G08G11G07G16G27G23G09G30G26          0.000000000
 108568113.39949  84598528.51948  20659818.152    20659821.118    20659817.690  
 132290702.63246 103083658.84143  25174082.688    25174083.722    25174081.664  
 112373936.03049  87564077.91148  21384037.377    21384037.259    21384037.092  
 117245011.30447  91359764.64946  22310976.219    22310976.070    22310975.340  
 108391529.31149  84460939.23049  20626215.652    20626217.746    20626215.192  
 119994615.29547  93502298.23745  22834209.402    22834208.655    22834208.603  
 113514459.02648  88452827.11248  21601079.190    21601082.160    21601079.164  
 122651550.51147  95572634.14047  23339810.560    23339813.649    23339810.326  
 130997514.57246 102075964.23346  24927983.175    24927986.976    24927982.507  
 18 01 01 01 45 00.0000000  0  9G08G11G07G16G27G23G09G30G26          0.000000000
 108523172.46149  84563509.58148  20651266.024    20651269.160    20651265.831  
 132177610.39346 102995535.07343  25152563.082    25152562.642    25152560.779  
 112304275.97249  87509797.34648  21370781.573    21370781.464    21370781.427  
 117328666.39247  91424950.42246  22326895.035    22326894.945    22326894.465  
 108427511.23649  84488977.09249  20633062.602    20633064.869    20633062.429  
 120091617.91347  93577884.65945  22852668.918    22852668.025    22852668.268  
 113569957.43448  88496072.61348  21611640.759    21611642.948    21611640.102  
 122555497.34147  95497787.50547  23321532.715    23321534.648    23321531.337  
 131091531.26546 102149223.90046  24945874.012    24945878.402    24945874.443  
 18 01 01 01 45 30.0000000  0  9G08G11G07G16G27G23G09G30G26          0.000000000
 108478772.54249  84528912.22948  20642817.265    20642820.017    20642816.636  
 132064459.02946 102907365.22143  25131029.693    25131030.221    25131029.666  
 112234898.01549  87455736.60148  21357579.705    21357579.359    21357579.245  
 117412459.68247  91490243.90146  22342840.148    22342840.202    22342839.791  
 108464055.20849  84517452.91949  20640016.980    20640018.904    20640016.335  
 120188875.19947  93653669.51745  22871176.699    22871174.587    22871175.683  
 113625962.65948  88539713.01948  21622297.978    21622300.613    21622297.503  
 122459559.47947  95423030.71347  23303276.374    23303278.632    23303275.846  
 131185555.73646 102222489.61746  24963766.148    24963769.914    24963765.646  
 18 01 01 01 46 00.0000000  0 10G08G11G07G16G28G27G23G09G30G26       0.000000000
 108434914.71849  84494737.29548  20634471.336    20634474.193    20634470.820  
 131951250.91146 102819151.11943  25109486.445    25109488.172    25109485.338  
 112165803.98649  87401897.10048  21344431.208    21344431.122    21344430.956  
 117496389.73447  91555643.91946  22358812.224    22358811.694    22358811.155  
 131655157.22245 102588419.98743  25053143.000    25053141.723    25053141.457  
 108501159.48149  84546365.34049  20647077.516    20647079.584    20647077.228  
 120286383.77247  93729650.20145  22889731.567    22889730.257    22889731.481  
 113682472.52248  88583746.65748  21633051.409    21633054.039    21633051.073  
 122363738.67547  95348365.17447  23285041.708    23285044.142    23285041.622  
 131279587.34046 102295760.94046  24981660.782    24981663.970    24981659.537  
 18 01 01 01 46 30.0000000  0 10G08G11G07G16G28G27G23G09G30G26       0.000000000
 108391599.84749  84460985.47848  20626228.412    20626231.586    20626228.291  
 131837988.36146 102730894.60143  25087934.244    25087935.333    25087934.025  
 112096996.21849  87348280.66048  21331337.794    21331337.450    21331337.192  
 117580455.19847  91621149.48446  22374809.480    22374808.884    22374808.363  
 131573242.34145 102524590.34242  25037554.753    25037554.784    25037552.817  
 108538822.26649  84575712.96549  20654244.515    20654246.751    20654244.172  
 120384141.14147  93805824.71845  22908334.247    22908332.964    22908333.923  
 113739484.84248  88628171.83048  21643900.723    21643902.987    21643900.254  
 122268036.74147  95273792.24947  23266830.836    23266832.453    23266829.523  
 131373625.43746 102369037.30446  24999555.835    24999558.797    24999555.267  
 18 01 01 01 47 00.0000000  0 10G08G11G07G16G28G27G23G09G30G26       0.000000000
 108348828.67049  84427657.32348  20618089.444    20618092.576    20618089.223  
 131724673.95746 102642597.69143  25066371.263    25066372.258    25066370.944  
 112028476.63749  87294888.78048  21318298.509    21318298.808    21318298.633  
 117664655.21347  91686759.87446  22390832.050    22390830.910    22390831.517  
 131491413.37745 102460827.26842  25021983.086    25021982.683    25021983.827  
 108577041.73049  84605494.36448  20661517.482    20661519.535    20661517.021  
 120482144.06047  93882190.61545  22926983.743    22926982.280    22926983.156  
 113796997.46948  88672986.84348  21654844.727    21654847.400    21654844.586  
 122172455.49347  95199313.34947  23248642.320    23248644.463    23248641.103  
 131467669.38147 102442318.25846  25017451.773    25017455.808    25017451.339  
 18 01 01 01 47 30.0000000  0 10G08G11G07G16G28G27G23G09G30G26       0.000000000
 108306602.27949  84394753.67649  20610054.103    20610057.144    20610053.807  
 131611310.49046 102554262.54243  25044798.055    25044799.367    25044797.372  
 111960247.51749  87241723.23848  21305315.210    21305315.128    21305314.770  
 117748988.34047  91752473.99746  22406880.008    22406879.576    22406879.187  
 131409672.32645 102397132.96742  25006427.646    25006429.038    25006426.744  
 108615816.07049  84635708.14049  20668895.788    20668898.028    20668895.463  
 120580389.62047  93958745.55145  22945678.912    22945677.931    22945678.616  
 113855008.13848  88718189.94048  21665884.196    21665886.558    21665883.553  
 122076996.70047  95124929.87847  23230476.989    23230479.560    23230476.398  
 131561718.55946 102515603.26846  25035347.679    25035351.578    25035347.474  
 18 01 01 01 48 00.0000000  0 10G08G11G07G16G28G27G23G09G30G26       0.000000000
 108264921.37449  84362275.02649  20602122.740    20602125.385    20602122.323  
 131497900.17546 102465890.90243  25023216.576    25023218.680    25023216.001  
 111892310.87949  87188785.59748  21292387.403    21292387.176    21292386.864  
 117833453.20147  91818290.76946  22422952.729    22422952.529    22422952.192  
 131328018.53845 102333506.74142  24990889.451    24990889.472    24990889.384  
 108655143.42449  84666352.83048  20676379.819    20676381.893    20676379.328  
 120678875.01347  94035487.38345  22964420.130    22964419.439    22964420.006  
 113913514.60648  88763779.37748  21677017.146    21677020.064    21677017.081  
 121981662.14847  95050643.21747  23212335.182    23212337.267    23212334.362  
 131655772.37647 102588891.86346  25053246.452    25053249.344    25053246.204  
 18 01 01 01 48 30.0000000  0 10G08G11G07G16G28G27G23G09G30G26       0.000000000
 108223786.82849  84330222.15048  20594295.032    20594297.731    20594294.621  
 131384445.66546 102377484.82443  25001627.963    25001627.203    25001625.997  
 111824668.67049  87136077.38448  21279515.146    21279515.145    21279515.061  
 117918048.75147  91884209.37346  22439050.949    22439050.805    22439050.865  
 131246452.48646 102269948.77042  24975367.591    24975368.868    24975366.720  
 108695021.93849  84697427.00049  20683968.399    20683970.481    20683968.085  
 120777596.88947  94112413.48245  22983206.606    22983205.788    22983205.942  
 113972514.67648  88809753.43048  21688245.010    21688247.344    21688244.414  
 121886453.63747  94976454.79647  23194217.509    23194219.519    23194216.532  
 131749830.20046 102662183.57446  25071144.781    25071147.841    25071144.292  
 18 01 01 01 49 00.0000000  0 10G08G11G07G16G28G27G23G09G30G26       0.000000000
 108183199.73948  84298595.91848  20586571.409    20586574.164    20586571.040  
 131270949.15146 102289046.01543  24980028.146    24980030.890    24980028.196  
 111757323.33348  87083600.50148  21266700.020    21266699.795    21266699.769  
 118002773.27547  91950228.47546  22455173.487    22455173.336    22455172.831  
 131164974.00646 102206459.10543  24959864.223    24959862.479    24959863.117  
 108735449.73549  84728929.17949  20691661.735    20691663.644    20691661.062  
 120876552.39447  94189521.64545  23002035.682    23002035.631    23002036.331  
 114032006.05248  88856110.32148  21699565.588    21699568.303    21699565.020  
 121791373.11647  94902366.08247  23176124.210    23176127.481    23176123.837  
 131843891.47046 102735477.98746  25089043.341    25089048.449    25089042.450  
 18 01 01 01 49 30.0000000  0 10G08G11G07G16G28G27G23G09G30G26       0.000000000
 108143160.50148  84267396.52748  20578952.142    20578955.001    20578951.858  
 131157413.43047 102200576.70143  24958423.652    24958425.218    24958423.448  
 111690276.37848  87031356.11048  21253941.359    21253941.188    21253941.173  
 118087626.21947  92016347.65346  22471320.514    22471319.616    22471319.793  
 131083583.79646 102143038.18843  24944376.583    24944374.993    24944373.885  
 108776424.89949  84760857.87748  20699459.306    20699460.913    20699458.501  
 120975738.65847  94266809.58245  23020911.848    23020910.499    23020911.139  
 114091986.44748  88902848.27348  21710979.757    21710982.236    21710979.222  
 121696422.30247  94828378.43147  23158055.687    23158058.365    23158055.158  
 131937955.52746 102808774.53646  25106943.659    25106947.054    25106944.090  
 18 01 01 01 50 00.0000000  0 10G08G11G07G16G28G27G23G09G30G26       0.000000000
 108103669.61049  84236624.38649  20571437.324    20571440.225    20571436.902  
 131043840.47347 102112078.29543  24936811.870    24936812.188    24936812.228  
 111623530.17948  86979346.08948  21241239.971    21241239.924    21241239.615  
 118172606.22847  92082565.82846  22487491.831    22487491.244    22487491.170  
 131002281.83046 102079686.02843  24928903.088    24928903.295    24928902.086  
 108817945.53449  84793211.61849  20707360.219    20707361.982    20707359.692  
 121075152.67547  94344275.02645  23039828.923    23039827.936    23039828.860  
 114152453.55048  88949965.47348  21722486.045    21722488.697    21722485.811  
 121601603.08447  94754493.32247  23140012.100    23140014.657    23140012.692  
 132032021.80346 102882072.87046  25124844.593    25124847.958    25124842.689  
 18 01 01 01 50 30.0000000  0 10G08G11G07G16G28G27G23G09G30G26       0.000000000
 108064728.31548  84206280.51749  20564026.933    20564029.916    20564026.652  
 130930233.29347 102023553.26643  24915194.465    24915194.195    24915192.129  
 111557087.30848  86927572.41848  21228596.153    21228596.311    21228595.947  
 118257711.74047  92148881.81346  22503686.596    22503685.963    22503686.010  
 130921068.49746 102016402.93843  24913449.592    24913450.172    24913448.754  
 108860009.74449  84825988.92448  20715364.480    20715366.558    20715364.054  
 121174791.32147  94421915.50045  23058790.405    23058788.979    23058789.717  
 114213405.10348  88997460.17048  21734084.723    21734087.651    21734084.141  
 121506917.29247  94680712.18547  23121993.963    23121996.461    23121992.572  
 132126089.59846 102955372.41946  25142745.081    25142748.481    25142745.558  
 18 01 01 01 51 00.0000000  0 10G08G11G07G16G28G27G23G09G30G26       0.000000000
 108026337.19148  84176365.39849  20556721.051    20556724.243    20556721.008  
 130816594.22647 101935003.41643  24893568.933    24893569.765    24893567.913  
 111490949.63348  86876036.56948  21216010.713    21216010.716    21216010.319  
 118342941.70347  92215294.77446  22519906.127    22519905.464    22519905.021  
 130839944.04946 101953189.11643  24898011.595    24898012.588    24898011.461  
 108902615.53549  84859188.24349  20723472.083    20723474.139    20723471.607  
 121274651.63347  94499728.66645  23077792.772    23077791.552    23077792.169  
 114274838.72548  89045330.50548  21745775.376    21745777.548    21745774.753  
 121412366.76747  94607036.45947  23104001.688    23104003.572    23104001.689  
 132220158.35046 103028672.68546  25160646.396    25160651.155    25160645.203  
 18 01 01 01 51 30.0000000  0 10G08G11G07G16G28G27G23G09G30G26       0.000000000
 107988496.72248  84146879.35449  20549520.933    20549523.238    20549520.251  
 130702925.78947 101846430.61743  24871937.960    24871938.024    24871937.234  
 111425118.84148  86824739.84448  21203483.610    21203483.573    21203483.215  
 118428295.13447  92281803.92246  22536147.835    22536147.581    22536147.028  
 130758908.95146 101890044.88343  24882591.409    24882591.353    24882590.067  
 108945760.99449  84892808.07848  20731682.528    20731684.579    20731681.969  
 121374730.78947  94577712.40645  23096837.094    23096836.880    23096837.032  
 114336752.06948  89093574.64748  21757557.284    21757559.178    21757556.793  
 121317953.37347  94533467.59047  23086035.144    23086038.059    23086034.676  
 132314227.64046 103101973.30646  25178545.774    25178551.535    25178544.506  
 18 01 01 01 52 00.0000000  0 10G08G11G07G16G28G27G23G09G30G26       0.000000000
 107951208.07248  84117823.27649  20542424.724    20542427.692    20542424.278  
 130589230.59146 101757836.99843  24850302.605    24850303.876    24850300.998  
 111359597.16848  86773683.98548  21191015.365    21191014.982    21191015.012  
 118513770.98947  92348408.47946  22552413.303    22552413.259    22552412.585  
 130677963.17046 101826970.28243  24867188.140    24867188.640    24867187.157  
 108989444.13849  84926846.89148  20739995.029    20739997.185    20739994.611  
 121475025.48647  94655864.08145  23115923.463    23115921.688    23115922.838  
 114399142.84448  89142190.82448  21769429.452    21769432.114    21769429.340  
 121223678.98747  94460007.05247  23068095.380    23068097.991    23068095.012  
 132408296.71346 103175273.75146  25196446.205    25196450.914    25196446.121  
 18 01 01 01 52 30.0000000  0 10G08G11G07G16G28G27G23G09G30G26       0.000000000
 107914471.32848  84089197.24249  20535434.038    20535436.914    20535433.489  
 130475511.00447 101669224.38043  24828661.630    24828663.584    24828661.823  
 111294386.87248  86722870.77248  21178606.198    21178605.993    21178605.990  
 118599367.70747  92415107.21046  22568702.066    22568701.383    22568701.184  
 130597106.81746 101763965.37443  24851800.941    24851801.233    24851800.737  
 109033662.96949  84961303.12048  20748409.716    20748411.753    20748409.269  
 121575532.82747  94734181.44845  23135049.392    23135048.565    23135048.150  
 114462008.55248  89191177.06148  21781392.340    21781395.290    21781391.956  
 121129545.49647  94386656.28447  23050182.881    23050184.671    23050182.079  
 132502365.07846 103248573.67346  25214348.717    25214351.435    25214347.564  
 18 01 01 01 53 00.0000000  0 10G08G11G07G16G28G27G23G09G30G26       0.000000000
 107878287.16148  84061001.78249  20528548.312    20528551.268    20528548.020  
 130361769.91147 101580594.97343  24807017.543    24807019.435    24807017.786  
 111229490.39448  86672302.09148  21166256.699    21166256.721    21166256.522  
 118685083.79847  92481898.98445  22585013.231    22585012.695    22585012.259  
 130516340.52446 101701030.63643  24836431.474    24836433.057    24836430.768  
 109078415.49749  84996175.22348  20756925.604    20756927.819    20756925.314  
 121676250.13447  94812662.43545  23154214.653    23154213.559    23154214.357  
 114525346.89348  89240531.58848  21793445.368    21793448.330    21793444.690  
 121035554.79547  94313416.77747  23032296.792    23032299.379    23032297.177  
 132596432.06146 103321872.53346  25232247.441    25232252.649    25232248.301  
 18 01 01 01 53 30.0000000  0 10G08G11G07G16G28G27G23G09G30G26       0.000000000
 107842656.70848  84033237.79049  20521768.122    20521771.018    20521767.778  
 130248009.50546 101491950.54943  24785370.083    24785371.119    24785369.654  
 111164909.29648  86621979.15848  21153967.296    21153967.189    21153967.034  
 118770918.60847  92548783.21446  22601347.134    22601346.347    22601346.221  
 130435664.42246 101638166.15443  24821079.333    24821079.768    24821079.002  
 109123699.68249  85031461.59648  20765542.918    20765545.100    20765542.578  
 121777174.21348  94891304.55445  23173420.691    23173419.275    23173419.666  
 114589155.40248  89290252.48148  21805587.444    21805590.199    21805587.583  
 120941708.75847  94240290.01647  23014438.873    23014441.272    23014437.961  
 132690497.16447 103395169.94446  25250149.803    25250152.454    25250148.220  
 18 01 01 01 54 00.0000000  0 10G08G11G07G16G28G27G23G09G30G26       0.000000000
 107807580.04548  84005905.35249  20515093.152    20515095.993    20515092.892  
 130134232.16946 101403292.92744  24763718.994    24763720.365    24763719.064  
 111100645.66948  86571903.60648  21141738.455    21141738.286    21141738.106  
 118856870.96747  92615759.09346  22617703.137    22617702.989    22617702.793  
 130355078.76146 101575372.20643  24805744.619    24805745.189    24805744.654  
 109169513.52649  85067160.69348  20774261.093    20774263.102    20774260.617  
 121878301.91347  94970105.32745  23192663.660    23192663.098    23192663.517  
 114653431.72248  89340337.89748  21817819.122    21817821.554    21817818.616  
 120848009.27347  94167277.44447  22996607.596    22996610.212    22996607.001  
 132784559.81946 103468465.48446  25268047.996    25268051.804    25268047.804  
 18 01 01 01 54 30.0000000  0 10G08G11G07G16G28G27G23G09G30G26       0.000000000
 107773057.82848  83979004.94249  20508524.276    20508526.626    20508523.409  
 130020440.88447 101314624.40143  24742066.313    24742066.736    24742065.021  
 111036701.75248  86522077.17548  21129570.506    21129570.209    21129570.107  
 118942939.48047  92682825.45845  22634081.984    22634080.780    22634081.189  
 130274583.52946 101512648.64943  24790427.158    24790427.873    24790427.418  
 109215854.99049  85103270.92748  20783079.396    20783081.582    20783079.178  
 121979630.24147  95049062.41845  23211945.404    23211945.417    23211945.550  
 114718173.34948  89390785.89748  21830139.640    21830141.654    21830138.907  
 120754458.24247  94094380.54647  22978805.746    22978808.236    22978805.573  
 132878619.43646 103541758.68746  25285946.923    25285950.884    25285946.144  
 18 01 01 01 55 00.0000000  0 10G08G11G07G16G28G27G23G09G30G26       0.000000000
 107739090.80148  83952537.13249  20502059.936    20502063.011    20502059.786  
 129906638.05147 101225946.86244  24720409.575    24720410.970    24720408.718  
 110973079.73048  86472501.58148  21117463.743    21117463.333    21117463.275  
 119029123.30747  92749981.69745  22650481.692    22650480.674    22650480.298  
 130194179.21146 101449995.98143  24775126.768    24775127.893    24775125.628  
 109262721.98049  85139790.66148  20791998.339    20792000.106    20791997.686  
 122081156.34447  95128173.62545  23231265.907    23231265.712    23231265.148  
 114783377.84948  89441594.57048  21842546.681    21842549.437    21842546.671  
 120661057.59947  94021600.84647  22961033.092    22961034.684    22961032.075  
 132972675.55246 103615049.09746  25303845.623    25303849.241    25303845.627  
 18 01 01 01 55 30.0000000  0 10G08G11G07G16G28G27G23G09G30G26       0.000000000
 107705679.30648  83926502.20649  20495701.963    20495705.033    20495701.728  
 129792826.34247 101137262.47444  24698752.156    24698752.925    24698750.761  
 110909781.91748  86423178.60748  21105418.371    21105418.098    21105417.980  
 119115420.78947  92817226.46245  22666903.490    22666902.987    22666902.487  
 130113865.94146 101387414.26443  24759844.245    24759843.809    24759843.504  
 109310112.43949  85176718.29148  20801016.432    20801018.320    20801015.869  
 122182876.96647  95207436.43245  23250622.228    23250621.873    23250621.730  
 114849042.78348  89492762.03048  21855042.732    21855045.065    21855042.351  
 120567809.23747  93948939.75947  22943287.998    22943290.175    22943287.390  
 133066727.51646 103688336.24345  25321742.682    25321747.073    25321742.854  
 18 01 01 01 56 00.0000000  0 10G08G11G07G16G28G27G23G09G30G26       0.000000000
 107672824.00048  83900900.67549  20489450.157    20489452.743    20489449.703  
 129679008.11346 101048572.98444  24677092.327    24677093.770    24677091.282  
 110846810.17848  86374109.72548  21093435.222    21093434.943    21093434.930  
 119201831.11047  92884559.17845  22683346.924    22683346.954    22683346.089  
 130033643.98646 101324903.64043  24744577.922    24744578.005    24744577.979  
 109358024.27749  85214052.19448  20810133.621    20810135.596    20810133.256  
 122284789.22447  95286848.51345  23270015.381    23270014.710    23270014.968  
 114915165.63448  89544286.30548  21867625.712    21867628.338    21867625.115  
 120474715.03147  93876398.84247  22925572.452    22925574.773    22925571.205  
 133160774.79646 103761619.72646  25339638.373    25339645.573    25339638.670  
 18 01 01 01 56 30.0000000  0 10G08G11G07G16G28G27G23G09G30G26       0.000000000
 107640525.11848  83875732.72449  20483303.767    20483306.596    20483303.334  
 129565186.09546 100959880.53144  24655432.862    24655434.880    24655432.624  
 110784166.74048  86325296.65848  21081514.569    21081514.418    21081514.175  
 119288353.41547  92951979.13545  22699811.342    22699811.184    22699810.449  
 129953513.62846 101262464.43143  24729329.285    24729330.007    24729328.489  
 109406455.39949  85251790.72448  20819349.839    20819351.570    20819349.258  
 122386890.10748  95366407.61645  23289445.462    23289445.075    23289444.645  
 114981743.92348  89596165.46148  21880294.950    21880297.860    21880294.653  
 120381777.03047  93803979.62147  22907886.881    22907889.796    22907886.141  
 133254816.86246 103834899.10946  25357534.563    25357539.107    25357535.389  
 18 01 01 01 57 00.0000000  0 10G08G11G07G16G28G27G23G09G30G26       0.000000000
 107608783.33048  83850998.85749  20477263.650    20477266.231    20477263.019  
 129451362.82647 100871187.16044  24633773.662    24633773.253    24633772.999  
 110721853.51048  86276740.89948  21069656.654    21069656.700    21069656.457  
 119374986.49047  93019485.42345  22716297.284    22716297.239    22716296.451  
 129873475.17246 101200096.83843  24714099.858    24714099.908    24714098.302  
 109455403.69649  85289932.26348  20828664.067    20828666.165    20828663.769  
 122489176.57947  95446111.32645  23308909.756    23308908.220    23308909.231  
 115048775.11748  89648397.53348  21893050.874    21893053.182    21893050.618  
 120288997.10047  93731683.57647  22890231.306    22890234.610    22890230.863  
 133348853.10346 103908174.01046  25375429.415    25375434.337    25375429.806  
 18 01 01 01 57 30.0000000  0  9G08G11G07G16G28G27G23G09G30          0.000000000
 107577599.23248  83826699.57849  20471329.162    20471332.043    20471328.960  
 129337540.95247 100782494.75544  24612113.677    24612114.323    24612112.486  
 110659872.81048  86228444.25148  21057862.276    21057861.873    21057861.802  
 119461728.79247  93087076.82445  22732803.170    22732802.922    22732802.561  
 129793528.59346 101137800.83643  24698886.650    24698885.597    24698884.946  
 109504867.05349  85328475.13748  20838077.112    20838078.935    20838076.424  
 122591645.82347  95525957.45845  23328408.733    23328408.658    23328408.199  
 115116256.73448  89700980.59448  21905891.935    21905894.181    21905891.595  
 120196377.19347  93659512.22347  22872606.562    22872608.695    22872606.072  
 18 01 01 01 58 00.0000000  0  9G08G11G07G16G28G27G23G09G30          0.000000000
 107546972.88248  83802834.89249  20465501.485    20465504.160    20465500.789  
 129223723.13547 100693805.59244  24590455.267    24590455.300    24590454.234  
 110598226.56348  86180408.20748  21046131.207    21046131.166    21046130.899  
 119548579.36147  93154752.57245  22749331.100    22749330.536    22749330.360  
 129713674.23446 101075576.69643  24683690.070    24683689.706    24683689.017  
 109554843.30749  85367417.67048  20847587.087    20847588.962    20847586.480  
 122694294.77247  95605943.59045  23347942.224    23347941.324    23347941.093  
 115184186.20148  89753912.62548  21918818.377    21918821.347    21918817.994  
 120103919.29447  93587467.11747  22855012.694    22855014.850    22855011.972  
 18 01 01 01 58 30.0000000  0  9G08G11G07G16G28G27G23G09G30          0.000000000
 107516904.55848  83779405.02949  20459778.961    20459782.298    20459778.887  
 129109911.93747 100605121.54744  24568797.035    24568798.202    24568797.337  
 110536917.32948  86132634.78048  21034464.244    21034464.193    21034464.062  
 119635537.35647  93222512.04845  22765878.610    22765877.973    22765877.839  
 129633912.35946 101013424.59543  24668511.657    24668511.683    24668511.247  
 109605330.30649  85406758.18148  20857194.134    20857196.379    20857193.968  
 122797120.22647  95686067.28944  23367509.314    23367508.152    23367509.107  
 115252560.99048  89807191.63748  21931829.906    21931832.440    21931829.147  
 120011625.36947  93515549.76747  22837449.475    22837451.590    22837449.009  
 18 01 01 01 59 00.0000000  0  9G08G11G07G16G28G27G23G09G30          0.000000000
 107487394.98248  83756410.55349  20454164.156    20454166.873    20454163.522  
 128996109.80047 100516444.56644  24547141.091    24547142.899    24547140.733  
 110475946.64148  86085125.14948  21022862.045    21022861.976    21022861.917  
 119722601.57147  93290354.28045  22782446.586    22782445.913    22782444.956  
 129554243.25846 100951344.81343  24653351.714    24653351.195    24653350.436  
 109656325.90349  85446495.01748  20866898.461    20866900.504    20866897.870  
 122900119.34147  95766326.27745  23387109.521    23387108.073    23387108.865  
 115321378.52648  89860815.67148  21944925.316    21944927.696    21944925.102  
 119919497.32447  93443761.67847  22819917.226    22819920.578    22819917.132  
 18 01 01 01 59 30.0000000  0  9G08G11G07G16G28G27G23G09G30          0.000000000
 107458444.45648  83733851.70449  20448654.645    20448657.754    20448654.513  
 128882319.54947 100427776.88944  24525487.427    24525489.428    24525487.797  
 110415316.93148  86037881.22448  21011324.576    21011324.573    21011324.433  
 119809771.03647  93358278.53445  22799034.118    22799033.762    22799033.453  
 129474666.95046 100889337.30443  24638208.370    24638208.549    24638206.323  
 109707827.92049  85486626.46048  20876698.948    20876701.041    20876698.563  
 123003289.11647  95846718.26845  23406742.731    23406740.992    23406741.745  
 115390636.22648  89914782.69348  21958104.711    21958107.139    21958104.283  
 119827537.17847  93372104.42247  22802418.987    22802421.464    22802418.304  
 18 01 01 02 00 00.0000000  0  9G08G11G07G16G28G27G23G09G30          0.000000000
 107430053.44048  83711728.85749  20443252.298    20443255.059    20443251.881  
 128768543.61747 100339120.39944  24503836.450    24503838.308    24503837.311  
 110355030.38448  85990904.68748  20999852.558    20999852.352    20999852.116  
 119897043.91047  93426283.36345  22815640.947    22815640.587    22815640.410  
 129395184.02846 100827402.57043  24623083.525    24623083.706    24623082.213  
 109759834.15449  85527150.79848  20886595.509    20886597.424    20886594.896  
 123106626.44747  95927240.83045  23426405.973    23426405.419    23426405.823  
 115460331.51848  89969090.67948  21971367.596    21971369.939    21971367.085  
 119735746.87647  93300579.52247  22784951.915    22784953.614    22784951.263  
 18 01 01 02 00 30.0000000  0  9G08G11G07G16G28G27G23G09G30          0.000000000
 107402222.09648  83690042.10249  20437955.932    20437958.794    20437955.857  
 128654784.72247 100250477.12644  24482188.292    24482190.214    24482187.896  
 110295088.89849  85944197.04048  20988446.117    20988446.025    20988445.815  
 119984420.01447  93494368.63045  22832268.760    22832268.509    22832267.287  
 129315794.26846 100765540.45343  24607975.369    24607975.806    24607975.788  
 109812342.41249  85568066.32548  20896587.470    20896589.447    20896587.099  
 123210128.49747  96007891.73045  23446102.770    23446102.015    23446101.549  
 115530461.76748  90023737.60648  21984712.811    21984715.334    21984712.399  
 119644128.40847  93229188.47747  22767517.126    22767519.363    22767516.483  
 18 01 01 02 01 00.0000000  0  9G08G11G07G16G28G27G23G09G30          0.000000000
 107374950.61148  83668791.59849  20432766.824    20432769.294    20432766.102  
 128541045.70547 100161849.38144  24460546.386    24460546.600    24460545.176  
 110235494.76849  85897760.05248  20977105.666    20977105.590    20977105.338  
 120071898.17447  93562533.40945  22848915.461    22848915.293    22848914.017  
 129236497.88146 100703751.05543  24592885.941    24592885.114    24592886.009  
 109865350.51049  85609371.33448  20906674.670    20906676.399    20906674.248  
 123313792.11747  96088668.55345  23465828.544    23465828.525    23465828.464  
 115601024.37648  90078721.44148  21998140.289    21998143.035    21998139.854  
 119552683.84447  93157932.95847  22750116.246    22750118.036    22750115.270  
 18 01 01 02 01 30.0000000  0  9G08G11G07G16G28G27G23G09G30          0.000000000
 107348239.34448  83647977.63349  20427683.243    20427686.350    20427683.009  
 128427328.68847 100073238.70644  24438905.909    24438906.135    24438904.506  
 110176250.03448  85851595.33148  20965831.780    20965831.502    20965831.383  
 120159477.19447  93630776.79845  22865581.247    22865580.257    22865580.508  
 129157295.34646 100642034.78643  24577814.705    24577814.532    24577813.451  
 109918856.20449  85651064.08148  20916856.682    20916858.266    20916855.829  
 123417614.09547  96169568.74445  23485585.918    23485585.298    23485585.725  
 115672016.75548  90134040.14148  22011649.814    22011652.273    22011649.277  
 119461415.10247  93086814.45947  22732748.138    22732750.675    22732747.322  
 18 01 01 02 02 00.0000000  0  9G08G11G07G16G28G27G23G09G30          0.000000000
 107322088.50949  83627600.35849  20422707.204    20422709.938    20422706.821  
 128313636.81547  99984647.69044  24417270.884    24417270.843    24417270.348  
 110117356.87449  85805704.56048  20954624.542    20954624.580    20954624.336  
 120247155.92847  93699097.87545  22882265.792    22882264.896    22882265.039  
 129078186.84246 100580391.79143  24562761.173    24562759.414    24562759.709  
 109972857.25849  85693142.82448  20927132.534    20927134.415    20927131.952  
 123521591.85747  96250590.33944  23505371.695    23505370.742    23505371.821  
 115743436.19848  90189691.63048  22025240.102    22025243.142    22025240.083  
 119370324.23547  93015834.58947  22715414.310    22715417.218    22715413.436  
 18 01 01 02 02 30.0000000  0  9G08G11G07G16G28G27G23G09G30          0.000000000
 107296498.59649  83607660.16449  20417837.535    20417840.473    20417837.246  
 128199972.68247  99896078.20644  24395642.034    24395641.960    24395641.050  
 110058817.23649  85760089.25548  20943484.828    20943484.998    20943484.508  
 120334933.02847  93767495.60745  22898969.384    22898968.735    22898968.540  
 128999172.31746 100518822.08043  24547725.062    24547724.219    24547723.448  
 110027351.43149  85735605.81648  20937502.515    20937504.355    20937501.695  
 123625722.19547  96331730.82145  23525187.911    23525187.278    23525187.670  
 115815280.08348  90245673.84448  22038911.669    22038914.628    22038911.464  
 119279413.20647  92944994.81147  22698114.059    22698116.845    22698113.991  
 18 01 01 02 03 00.0000000  0  9G08G11G07G16G28G27G23G09G30          0.000000000
 107271469.59549  83588157.04949  20413074.807    20413077.499    20413074.274  
 128086338.76547  99807532.35844  24374018.343    24374017.804    24374016.668  
 110000633.26149  85714751.09148  20932412.951    20932412.686    20932412.580  
 120422808.20447  93835969.77845  22915691.311    22915690.154    22915690.597  
 128920252.17346 100457325.86043  24532705.278    24532706.447    24532704.727  
 110082336.46349  85778451.29448  20947965.380    20947967.575    20947965.158  
 123730002.04547  96412987.82844  23545031.135    23545030.091    23545030.018  
 115887545.73048  90301984.71048  22052663.433    22052666.578    22052662.902  
 119188684.06047  92874296.77247  22680848.721    22680851.402    22680848.216  
 18 01 01 02 03 30.0000000  0  9G08G11G07G16G28G27G23G09G30          0.000000000
 107247001.54749  83569091.05349  20408418.464    20408421.353    20408418.179  
 127972737.61146  99719011.99244  24352400.841    24352400.141    24352399.344  
 109942807.24649  85669691.86348  20921409.025    20921408.990    20921408.863  
 120510779.95347  93904519.17645  22932431.692    22932431.029    22932430.694  
 128841426.48346 100395903.25943  24517705.576    24517706.034    24517706.413  
 110137810.07849  85821677.49248  20958521.588    20958523.805    20958521.408  
 123834428.47447  96494359.02245  23564902.988    23564902.146    23564901.880  
 115960230.47148  90358622.14148  22066495.295    22066497.917    22066495.010  
 119098138.87047  92803742.08347  22663619.063    22663620.682    22663617.818  
 18 01 01 02 04 00.0000000  0  9G08G11G07G16G28G27G23G09G30          0.000000000
 107223094.85949  83550462.46249  20403869.441    20403872.188    20403868.923  
 127859171.86646  99630519.21744  24330789.317    24330790.419    24330788.481  
 109885341.07649  85624913.02748  20910473.665    20910473.533    20910473.251  
 120598847.25947  93973143.04445  22949190.156    22949189.909    22949189.444  
 128762695.63646 100334554.55943  24502723.753    24502723.121    24502723.522  
 110193770.01949  85865282.64048  20969170.661    20969172.633    20969170.218  
 123938998.49747  96575842.12144  23584801.682    23584800.815    23584801.793  
 116033331.63648  90415584.07548  22080406.013    22080408.688    22080405.459  
 119007779.63847  92733332.28947  22646424.337    22646426.547    22646423.414  
 18 01 01 02 04 30.0000000  0  9G08G11G07G16G28G27G23G09G30          0.000000000
 107199749.78549  83532271.49849  20399427.123    20399429.672    20399426.493  
 127745644.49746  99542056.37944  24309185.930    24309186.663    24309183.810  
 109828237.21349  85580416.51248  20899607.247    20899607.135    20899607.052  
 120687009.26147  94041840.68745  22965967.039    22965966.838    22965966.249  
 128684059.56146 100273279.72343  24487761.556    24487759.829    24487760.142  
 110250213.88249  85909264.87048  20979911.645    20979913.635    20979911.069  
 124043709.05447  96657434.71945  23604728.008    23604726.470    23604727.677  
 116106846.50248  90472868.36448  22094395.185    22094397.716    22094395.032  
 118917608.35647  92663068.95447  22629265.049    22629267.350    22629264.225  
 18 01 01 02 05 00.0000000  0  9G08G11G07G16G28G27G23G09G30          0.000000000
 107176965.92249  83514517.84749  20395091.213    20395094.038    20395090.797  
 127632158.02846  99453625.40844  24287589.498    24287590.208    24287588.800  
 109771497.40749  85536203.67248  20888809.894    20888809.687    20888809.663  
 120775264.99447  94110611.37545  22982761.666    22982761.036    22982761.275  
 128605518.70346 100212079.07843  24472814.541    24472814.741    24472813.698  
 110307139.60449  85953622.57348  20990744.251    20990746.273    20990743.759  
 124148557.08347  96739134.41744  23624680.134    23624678.471    23624679.256  
 116180772.38048  90530472.91148  22108463.008    22108465.902    22108462.450  
 118827627.09447  92592953.70647  22612141.714    22612144.804    22612141.269  
 18 01 01 02 05 30.0000000  0  9G08G11G07G16G28G27G23G09G30          0.000000000
 107154743.50549  83497201.69649  20390862.748    20390865.279    20390862.170  
 127518715.10446  99365228.34644  24266002.042    24266003.774    24266002.386  
 109715124.02549  85492276.37048  20878082.370    20878082.192    20878082.162  
 120863612.51447  94179453.59445  22999573.673    22999573.463    22999572.598  
 128527073.36146 100150952.86244  24457887.145    24457887.950    24457886.186  
 110364544.75149  85998353.85348  21001667.831    21001670.075    21001667.553  
 124253539.78247  96820939.10744  23644656.791    23644656.779    23644656.179  
 116255106.51148  90588395.56948  22122608.166    22122611.088    22122607.896  
 118737837.92247  92522988.11047  22595055.832    22595058.211    22595055.332  
 18 01 01 02 06 00.0000000  0  9G08G11G07G16G28G27G23G09G30          0.000000000
 107133083.21349  83480323.55149  20386740.456    20386743.543    20386740.260  
 127405318.49746  99276867.39744  24244424.348    24244424.009    24244423.247  
 109659118.81549  85448635.94548  20867425.088    20867424.766    20867424.671  
 120952052.03947  94248367.48245  23016403.221    23016403.034    23016402.198  
 128448723.40646 100089900.99143  24442977.775    24442976.681    24442975.564  
 110422426.98549  86043456.89648  21012682.441    21012684.736    21012682.053  
 124358653.97647  96902846.23544  23664660.447    23664658.293    23664660.431  
 116329846.19548  90646634.25948  22136830.540    22136833.532    22136830.581  
 118648242.89047  92453173.82447  22578006.525    22578008.801    22578005.765  
 18 01 01 02 06 30.0000000  0  9G08G11G07G16G28G27G23G09G30          0.000000000
 107111984.48349  83463882.98849  20382725.816    20382728.538    20382725.176  
 127291970.78846  99188544.52944  24222854.231    24222856.083    24222853.513  
 109603484.01349  85405284.14848  20856838.221    20856837.804    20856837.743  
 121040582.29947  94317352.09045  23033249.623    23033248.979    23033249.305  
 128370469.04746 100028923.60943  24428085.828    24428085.188    24428085.906  
 110480784.01949  86088929.91048  21023787.520    21023789.759    21023787.189  
 124463896.80647  96984853.57944  23684686.537    23684686.676    23684686.285  
 116404988.69348  90705186.82748  22151130.346    22151132.682    22151129.592  
 118558844.00047  92383512.34747  22560994.293    22560996.753    22560993.338  
 18 01 01 02 07 00.0000000  0  9G08G11G07G16G28G27G23G09G30          0.000000000
 107091447.49649  83447880.15649  20378817.766    20378820.391    20378817.366  
 127178674.81147  99100261.99644  24201294.892    24201295.551    24201294.564  
 109548221.70449  85362222.60948  20846321.959    20846321.813    20846321.498  
 121129202.09747  94386406.46445  23050113.838    23050113.420    23050113.193  
 128292310.51146  99968020.85043  24413213.862    24413212.280    24413211.653  
 110539613.53049  86134771.08648  21034982.504    21034984.470    21034982.072  
 124569265.33747  97066958.88344  23704738.276    23704736.700    23704737.202  
 116480531.23948  90764051.11248  22165504.806    22165508.079    22165504.949  
 118469643.38647  92314005.35447  22544020.565    22544022.246    22544019.263  
 18 01 01 02 07 30.0000000  0  9G08G11G07G16G28G27G23G09G30          0.000000000
 107071472.41149  83432315.14149  20375016.480    20375019.323    20375016.239  
 127065433.31947  99012021.93244  24179745.646    24179746.140    24179744.669  
 109493333.93849  85319452.92148  20835877.137    20835876.876    20835876.965  
 121217910.82547  94455530.13745  23066994.414    23066993.702    23066993.513  
 128214248.22846  99907193.13943  24398358.572    24398358.286    24398357.472  
 110598913.12749  86180978.56248  21046266.754    21046268.914    21046266.417  
 124674756.26347  97149159.57044  23724813.004    23724811.541    23724811.700  
 116556471.07948  90823224.98948  22179956.163    22179958.760    22179955.245  
 118380643.13147  92244654.51647  22527083.696    22527086.079    22527083.264  
 18 01 01 02 08 00.0000000  0  9G08G11G07G16G28G27G23G09G30          0.000000000
 107052059.14149  83417187.91649  20371322.435    20371325.169    20371321.892  
 126952248.70946  98923826.18044  24158207.803    24158207.439    24158205.540  
 109438823.07649  85276976.91948  20825503.997    20825504.072    20825503.874  
 121306707.11847  94524722.03645  23083891.787    23083891.472    23083890.908  
 128136282.05246  99846440.29143  24383521.956    24383521.210    24383521.494  
 110658680.46649  86227550.51248  21057640.379    21057642.247    21057639.605  
 124780367.05647  97231453.63944  23744909.612    23744908.803    23744909.160  
 116632805.42948  90882706.25548  22194481.668    22194484.876    22194481.478  
 118291845.28847  92175461.37847  22510186.172    22510188.662    22510185.525  
 18 01 01 02 08 30.0000000  0  9G08G11G07G16G28G27G23G09G30          0.000000000
 107033207.55549  83402498.38249  20367735.044    20367737.694    20367734.663  
 126839123.80647  98835676.88944  24136680.424    24136680.834    24136679.955  
 109384690.80549  85234795.93448  20815202.825    20815202.985    20815202.624  
 121395589.77147  94593981.25645  23100805.579    23100805.047    23100804.370  
 128058412.32246  99785762.60743  24368704.103    24368704.151    24368701.998  
 110718913.23049  86274485.13248  21069102.215    21069104.040    21069101.713  
 124886094.36147  97313838.50144  23765029.746    23765027.388    23765029.552  
 116709531.49648  90942492.77348  22209082.420    22209085.289    22209081.861  
 118203251.88347  92106427.54247  22493327.371    22493330.196    22493326.588  
 18 01 01 02 09 00.0000000  0  9G08G11G07G16G28G27G23G09G30          0.000000000
 107014917.90349  83388246.70249  20364254.407    20364257.341    20364254.231  
 126726061.02047  98747576.04944  24115165.120    24115164.986    24115164.602  
 109330939.45649  85192911.76548  20804974.526    20804974.351    20804974.334  
 121484558.24747  94663307.31645  23117735.940    23117736.092    23117735.011  
 127980639.23746  99725160.21242  24353903.340    24353902.673    24353904.238  
 110779609.01749  86321780.54748  21080652.108    21080654.105    21080651.670  
 124991935.24747  97396311.86944  23785169.281    23785168.319    23785169.684  
 116786646.51648  91002582.37248  22223757.503    22223759.823    22223756.643  
 118114865.13247  92037554.75947  22476507.882    22476510.405    22476507.491  
 18 01 01 02 09 30.0000000  0  9G08G11G07G16G28G27G23G09G30          0.000000000
 106997189.77049  83374432.57249  20360881.164    20360883.789    20360880.621  
 126613063.64646  98659526.16444  24093661.621    24093662.589    24093660.967  
 109277571.46149  85151326.31048  20794818.883    20794818.800    20794818.685  
 121573611.77447  94732699.64545  23134681.799    23134681.735    23134681.356  
 127902962.74146  99664633.09243  24339122.829    24339122.071    24339122.307  
 110840765.44748  86369434.91048  21092289.800    21092291.816    21092289.396  
 125097886.64247  97478871.32844  23805331.789    23805330.941    23805330.710  
 116864147.64948  91062972.83248  22238504.949    22238508.141    22238504.659  
 118026687.03047  91968844.52447  22459728.486    22459730.145    22459727.476  
 18 01 01 02 10 00.0000000  0  9G08G11G07G16G28G27G23G09G30          0.000000000
 106980023.35849  83361056.15249  20357614.350    20357617.145    20357614.033  
 126500134.25947  98571529.25944  24072173.322    24072173.542    24072172.235  
 109224588.71949  85110041.05948  20784736.641    20784736.515    20784736.301  
 121662749.02047  94802157.23345  23151644.384    23151643.154    23151644.098  
 127825383.06246  99604181.38642  24324359.619    24324360.116    24324358.809  
 110902380.12049  86417446.34148  21104014.636    21104016.685    21104014.275  
 125203945.94147  97561514.89144  23825514.050    23825513.648    23825513.585  
 116942032.11148  91123661.99348  22253326.298    22253329.268    22253325.140  
 117938719.81847  91900298.66547  22442988.467    22442990.436    22442988.061  
 18 01 01 02 10 30.0000000  0  9G08G11G07G16G28G27G23G09G30          0.000000000
 106963418.68049  83348117.45249  20354454.367    20354457.327    20354454.161  
 126387275.60646  98483587.50544  24050696.637    24050696.769    24050695.886  
 109171992.87649  85069057.28348  20774728.008    20774728.008    20774727.702  
 121751968.42847  94871678.84945  23168622.621    23168621.997    23168621.782  
 127747900.53146  99543805.41342  24309614.400    24309615.593    24309614.826  
 110964450.68849  86465813.02348  21115826.244    21115828.339    21115825.812  
 125310109.84747  97644239.92144  23845716.031    23845714.907    23845715.911  
 117020297.06448  91184647.64348  22268219.318    22268222.248    22268218.845  
 117850965.41347  91831918.60347  22426289.058    22426291.829    22426288.743  
 18 01 01 02 11 00.0000000  0  9G08G11G07G16G28G27G23G09G30          0.000000000
 106947375.39049  83335616.19149  20351401.611    20351404.356    20351401.248  
 126274490.19246  98395702.80144  24029233.175    24029234.567    24029232.322  
 109119786.19249  85028376.74648  20764793.608    20764793.303    20764793.165  
 121841270.05647  94941264.49945  23185616.052    23185615.938    23185615.213  
 127670515.32646  99483505.25343  24294889.405    24294889.543    24294887.481  
 111026974.73049  86514533.05648  21127724.414    21127726.369    21127723.765  
 125416375.51047  97727044.34544  23865937.907    23865936.935    23865936.879  
 117098939.69048  91245927.57847  22283184.661    22283187.445    22283184.179  
 117763426.01047  91763706.10147  22409631.529    22409633.935    22409630.678  
 18 01 01 02 11 30.0000000  0  9G08G11G07G16G28G27G23G09G30          0.000000000
 106931893.10349  83323552.08349  20348455.498    20348458.147    20348455.039  
 126161780.86547  98307877.36944  24007786.126    24007786.609    24007785.618  
 109067970.77049  84988001.09348  20754933.288    20754932.980    20754932.938  
 121930652.91547  95010913.45445  23202625.359    23202624.769    23202623.628  
 127593227.31846  99423280.83343  24280181.736    24280180.947    24280180.501  
 111089949.83549  86563604.56348  21139708.179    21139710.021    21139707.477  
 125522739.86447  97809925.55944  23886178.899    23886177.695    23886178.173  
 117177957.13548  91307499.57748  22298220.695    22298224.127    22298220.712  
 117676103.69647  91695662.71647  22393014.909    22393017.097    22393014.086  
 18 01 01 02 12 00.0000000  0  9G08G11G07G16G28G27G23G09G30          0.000000000
 106916971.77749  83311925.09549  20345615.856    20345618.651    20345615.601  
 126049150.25847  98220113.30144  23986352.942    23986353.463    23986351.782  
 109016548.71849  84947931.96148  20745147.767    20745147.765    20745147.776  
 122020115.90647  95080624.87045  23219648.788    23219648.435    23219648.154  
 127516037.06746  99363132.60943  24265492.509    24265493.010    24265492.469  
 111153373.57948  86613025.66348  21151777.014    21151779.218    21151776.644  
 125629199.90847  97892881.41544  23906436.541    23906436.162    23906436.517  
 117257346.51748  91369361.39648  22313328.025    22313331.787    22313328.061  
 117589000.66147  91627790.21247  22376439.296    22376441.811    22376438.808  
 18 01 01 02 12 30.0000000  0  9G08G11G07G16G28G27G23G09G30          0.000000000
 106902611.47749  83300735.24649  20342883.047    20342886.012    20342882.957  
 125936601.22247  98132412.77744  23964935.787    23964936.027    23964934.526  
 108965522.14149  84908170.99848  20735437.918    20735437.669    20735437.575  
 122109657.84147  95150397.78045  23236687.301    23236688.211    23236686.718  
 127438944.52547  99303060.48844  24250823.026    24250822.706    24250822.293  
 111217243.50849  86662794.43448  21163931.522    21163933.281    21163930.756  
 125735753.25947  97975909.96344  23926713.138    23926712.629    23926713.427  
 117337105.05148  91431510.86348  22328506.104    22328509.137    22328505.488  
 117502118.96147  91560090.17447  22359906.575    22359908.482    22359905.858  
 18 01 01 02 13 00.0000000  0  9G08G11G07G16G28G27G23G09G30          0.000000000
 106888811.71349  83289982.18249  20340257.294    20340260.037    20340256.875  
 125824136.57347  98044778.01744  23943534.232    23943534.640    23943534.044  
 108914892.91949  84868719.66148  20725803.538    20725803.368    20725803.238  
 122199278.21147  95220231.81045  23253742.377    23253741.964    23253741.212  
 127361949.95647  99243064.75844  24236170.947    24236172.041    24236170.558  
 111281557.25548  86712909.03348  21176169.711    21176171.771    21176169.207  
 125842396.36447  98059008.42044  23947007.301    23947007.043    23947006.137  
 117417229.83548  91493945.72647  22343753.296    22343755.776    22343753.108  
 117415460.85147  91492564.37047  22343415.517    22343418.617    22343415.503  
 18 01 01 02 13 30.0000000  0  9G08G11G07G16G28G27G23G09G30          0.000000000
 106875572.31649  83279665.78449  20337738.068    20337740.652    20337737.459  
 125711758.91747  97957211.05144  23922149.290    23922150.670    23922148.740  
 108864663.45449  84829579.81548  20716245.260    20716245.050    20716244.935  
 122288975.83847  95290126.08145  23270811.333    23270810.985    23270810.801  
 127285053.32146  99183145.29444  24221538.206    24221537.647    24221537.743  
 111346312.34849  86763367.54548  21188492.026    21188494.307    21188491.612  
 125949126.06546  98142174.38044  23967316.760    23967316.964    23967317.088  
 117497717.99448  91556663.74047  22359069.492    22359072.267    22359069.944  
 117329028.37347  91425214.40847  22326967.873    22326970.304    22326967.716  
 18 01 01 02 14 00.0000000  0  9G08G11G07G16G28G27G23G09G30          0.000000000
 106862893.02249  83269785.81049  20335324.940    20335327.857    20335324.676  
 125599470.84047  97869713.84944  23900781.065    23900782.798    23900780.964  
 108814835.45749  84790752.80048  20706762.863    20706762.942    20706762.833  
 122378749.38147  95360079.44145  23287895.058    23287894.238    23287893.710  
 127208254.95946  99123302.44644  24206923.927    24206924.207    24206922.199  
 111411506.35549  86814168.06748  21200898.433    21200900.080    21200897.753  
 126055939.84146  98225405.81444  23987642.944    23987642.988    23987643.104  
 117578566.64848  91619662.65447  22374455.083    22374457.285    22374454.556  
 117242823.69847  91358041.96547  22310563.823    22310566.682    22310563.239  
 18 01 01 02 14 30.0000000  0  9G08G11G07G16G28G27G23G09G30          0.000000000
 106850773.70349  83260342.18649  20333018.849    20333021.778    20333018.407  
 125487275.46347  97782288.93244  23879431.007    23879432.770    23879430.660  
 108765411.06049  84752240.28248  20697358.092    20697357.835    20697357.790  
 122468599.07347  95430092.15945  23304992.711    23304992.210    23304991.321  
 127131555.15846  99063536.40844  24192328.264    24192328.286    24192328.211  
 111477136.83249  86865308.70048  21213387.373    21213389.227    21213386.804  
 126162834.63447  98308700.36544  24007984.260    24007984.235    24007984.449  
 117659772.90748  91682940.22447  22389908.057    22389910.636    22389907.218  
 117156848.91047  91291048.60347  22294203.553    22294206.025    22294202.977  
 18 01 01 02 15 00.0000000  0  9G08G11G07G16G28G27G23G09G30          0.000000000
 106839214.00249  83251334.62249  20330819.202    20330821.877    20330818.703  
 125375175.45047  97694938.28044  23858099.781    23858101.014    23858099.179  
 108716392.28949  84714043.82548  20688030.048    20688029.808    20688029.934  
 122558523.44347  95500163.10645  23322104.281    23322104.049    23322103.712  
 127054953.95346  99003847.17944  24177752.130    24177751.853    24177750.714  
 111543201.30748  86916787.51248  21225958.908    21225960.815    21225958.545  
 126269807.52347  98392055.84144  24028340.885    24028340.256    24028341.136  
 117741333.86248  91746494.19148  22405428.033    22405431.148    22405427.945  
 117071106.20848  91224236.09447  22277888.092    22277889.718    22277886.804  
 18 01 01 02 15 30.0000000  0  9G08G11G07G16G28G27G23G09G30          0.000000000
 106828213.67849  83242762.94249  20328725.863    20328728.537    20328725.461  
 125263173.49547  97607664.06845  23836786.820    23836787.711    23836785.454  
 108667781.28249  84676165.12348  20678779.729    20678779.652    20678779.342  
 122648521.77147  95570291.63145  23339230.915    23339230.387    23339229.740  
 126978451.38846  98944234.81744  24163194.211    24163193.334    24163193.609  
 111609697.33348  86968602.58948  21238612.877    21238614.742    21238612.354  
 126376855.48347  98475469.78344  24048712.187    24048711.845    24048711.890  
 117823246.61147  91810322.26748  22421015.682    22421018.749    22421015.409  
 116985597.75747  91157606.12947  22261615.065    22261617.829    22261614.854  
 18 01 01 02 16 00.0000000  0  9G08G11G07G16G28G27G23G09G30          0.000000000
 106817772.13349  83234626.67949  20326738.838    20326741.602    20326738.388  
 125151272.45447  97520468.45544  23815491.686    23815493.334    23815491.640  
 108619580.19049  84638605.82848  20669607.312    20669607.309    20669606.975  
 122738592.60447  95640476.65945  23356371.567    23356369.989    23356370.529  
 126902047.55246  98884699.38144  24148654.247    24148654.741    24148653.937  
 111676622.44148  87020752.02148  21251348.211    21251350.338    21251347.615  
 126483975.52647  98558939.88244  24069096.410    24069094.942    24069095.213  
 117905508.26047  91874422.20848  22436669.311    22436672.725    22436669.019  
 116900325.70248  91091160.36447  22245388.653    22245391.253    22245388.098  
 18 01 01 02 16 30.0000000  0  9G08G11G07G16G28G27G23G09G30          0.000000000
 106807889.05249  83226925.57649  20324858.208    20324860.953    20324857.736  
 125039475.19547  97433353.74544  23794217.945    23794217.726    23794218.399  
 108571790.66549  84601367.24848  20660513.465    20660513.332    20660513.024  
 122828735.77047  95710718.07845  23373525.073    23373524.602    23373523.604  
 126825742.72246  98825241.08243  24134134.554    24134133.771    24134132.689  
 111743974.15148  87073233.86948  21264164.541    21264166.842    21264164.182  
 126591164.61347  98642463.80844  24089493.673    24089492.424    24089493.347  
 117988115.87747  91938791.75447  22452388.948    22452392.511    22452388.421  
 116815292.26748  91024900.54748  22229207.884    22229210.305    22229206.943  
 18 01 01 02 17 00.0000000  0  9G08G11G07G16G28G27G23G09G30          0.000000000
 106798564.19149  83219659.45049  20323083.747    20323086.500    20323083.252  
 124927784.24847  97346321.85245  23772964.027    23772965.003    23772963.714  
 108524415.15049  84564451.26448  20651498.132    20651497.903    20651497.774  
 122918950.09847  95781014.92245  23390691.411    23390691.327    23390690.390  
 126749536.91746  98765859.99444  24119632.860    24119632.490    24119631.351  
 111811749.97848  87126046.20048  21277062.052    21277064.120    21277061.547  
 126698420.34846  98726039.66044  24109903.348    24109903.130    24109902.146  
 118071066.54247  92003428.60247  22468174.672    22468177.366    22468173.810  
 116730499.54547  90958828.29147  22213072.070    22213074.861    22213071.315  
 18 01 01 02 17 30.0000000  0  9G08G11G07G16G28G27G23G09G30          0.000000000
 106789797.42449  83212828.19649  20321415.507    20321418.290    20321415.137  
 124816202.43647  97259375.03045  23751731.437    23751730.951    23751730.713  
 108477455.05949  84527858.97948  20642561.882    20642561.635    20642561.578  
 123009234.36447  95851366.27645  23407871.763    23407871.698    23407870.746  
 126673430.72246  98706556.48944  24105150.884    24105150.423    24105148.741  
 111879947.46348  87179187.09048  21290039.736    21290041.568    21290039.110  
 126805739.52047  98809664.90944  24130325.821    24130325.065    24130325.142  
 118154357.31047  92068330.46747  22484024.449    22484027.310    22484024.238  
 116645949.79148  90892945.37748  22196983.005    22196985.406    22196982.249  
 18 01 01 02 18 00.0000000  0  9G08G11G07G16G28G27G23G09G30          0.000000000
 106781588.08149  83206431.30449  20319853.383    20319856.020    20319852.978  
 124704732.55247  97172515.39845  23730519.459    23730519.998    23730518.396  
 108430912.64749  84491592.16048  20633705.139    20633704.876    20633704.768  
 123099588.10147  95921771.75245  23425065.507    23425066.367    23425065.129  
 126597423.81746  98647330.35944  24090686.095    24090686.417    24090686.091  
 111948564.09548  87232654.59448  21303096.941    21303098.894    21303096.431  
 126913119.32747  98893337.49144  24150760.687    24150759.243    24150758.907  
 118237985.22047  92133495.04147  22499938.411    22499941.311    22499937.548  
 116561645.10948  90827253.42448  22180940.122    22180942.773    22180939.795  
 18 01 01 02 18 30.0000000  0  9G08G11G07G16G28G27G23G09G30          0.000000000
 106773935.52149  83200468.27849  20318397.084    20318399.777    20318396.634  
 124593377.46047  97085745.24845  23709328.175    23709328.757    23709327.666  
 108384790.19249  84455652.58248  20624928.182    20624928.072    20624927.956  
 123190010.69047  95992230.88945  23442273.262    23442272.638    23442272.290  
 126521516.36846  98588181.73644  24076242.583    24076241.436    24076241.718  
 112017597.38348  87286446.76648  21316233.606    21316235.580    21316233.042  
 127020556.56347  98977054.76044  24171204.532    24171204.723    24171203.307  
 118321947.36247  92198920.05447  22515915.816    22515918.891    22515915.016  
 116477587.71848  90761754.16148  22164944.318    22164946.923    22164943.750  
 18 01 01 02 19 00.0000000  0  9G08G11G07G16G28G27G23G09G30          0.000000000
 106766839.50949  83194938.92349  20317046.678    20317049.565    20317046.338  
 124482140.05447  96999066.79845  23688160.503    23688160.677    23688160.165  
 108339089.52849  84420041.66048  20616231.773    20616231.631    20616231.399  
 123280501.02447  96062742.77945  23459492.240    23459492.505    23459491.495  
 126445709.06346  98529111.14944  24061815.499    24061816.314    24061815.302  
 112087044.85348  87340561.67748  21329449.107    21329450.859    21329448.390  
 127128048.17647  99060814.40744  24191658.625    24191658.197    24191659.349  
 118406240.76947  92264603.21247  22531955.973    22531958.931    22531955.851  
 116393779.79648  90696449.28548  22148996.456    22148999.086    22148995.584  
 18 01 01 02 19 30.0000000  0  9G08G11G07G16G28G27G23G09G30          0.000000000
 106760299.59949  83189842.88849  20315802.130    20315804.963    20315801.881  
 124371022.91847  96912482.04845  23667015.261    23667016.300    23667014.332  
 108293812.83449  84384761.12148  20607616.004    20607615.693    20607615.653  
 123371058.27347  96133306.83144  23476724.807    23476723.964    23476724.450  
 126370001.42346  98470118.20143  24047408.345    24047409.671    24047408.092  
 112156903.99449  87394997.36748  21342742.862    21342744.802    21342742.252  
 127235591.41546  99144614.24244  24212123.943    24212124.402    24212122.807  
 118490862.45947  92330542.17047  22548058.913    22548062.320    22548059.061  
 116310223.53448  90631340.50748  22133096.085    22133098.572    22133095.559  
 18 01 01 02 20 00.0000000  0  9G08G11G07G16G28G27G23G09G30          0.000000000
 106754315.11349  83185179.64649  20314663.342    20314666.233    20314663.098  
 124260028.91447  96825993.24845  23645893.717    23645894.888    23645892.986  
 108248961.78149  84349812.25248  20599080.894    20599080.825    20599080.630  
 123461681.49947  96203922.32345  23493969.399    23493969.986    23493968.518  
 126294393.86746  98411203.24243  24033021.070    24033021.394    24033021.297  
 112227172.26248  87449751.85848  21356114.243    21356116.340    21356113.855  
 127343183.63247  99228452.32244  24232599.069    24232597.694    24232597.868  
 118575809.47247  92396734.62047  22564224.356    22564227.199    22564223.523  
 116226921.12848  90566429.54748  22117243.973    22117246.430    22117243.707  
 18 01 01 02 20 30.0000000  0  9G08G11G07G16G28G27G23G09G30          0.000000000
 106748885.83549  83180949.04349  20313630.138    20313633.005    20313629.784  
 124149160.71447  96739602.48045  23624796.795    23624797.646    23624795.311  
 108204538.61149  84315196.80448  20590627.392    20590627.385    20590627.070  
 123552370.42247  96274588.95745  23511228.082    23511227.547    23511226.874  
 126218886.49146  98352366.35043  24018652.618    24018652.506    24018652.000  
 112297847.19749  87504823.23648  21369563.527    21369565.304    21369563.001  
 127450821.75747  99312326.13744  24253081.895    24253081.042    24253081.025  
 118661078.82747  92463178.23147  22580450.214    22580453.499    22580449.634  
 116143874.77048  90501718.09548  22101441.117    22101443.429    22101440.370  
 18 01 01 02 21 00.0000000  0  9G08G11G07G16G28G27G23G09G30          0.000000000
 106744011.00349  83177150.47649  20312702.819    20312705.318    20312702.234  
 124038421.34347  96653312.10445  23603723.928    23603723.994    23603722.866  
 108160545.06649  84280916.11748  20582255.905    20582255.757    20582255.630  
 123643123.70347  96345305.75645  23528497.419    23528497.831    23528495.938  
 126143479.16146  98293607.40843  24004304.426    24004303.627    24004303.507  
 112368926.26448  87560209.52048  21383089.326    21383091.124    21383088.666  
 127558502.84546  99396233.43244  24273571.378    24273571.991    24273571.549  
 118746667.58847  92529870.73547  22596736.953    22596740.231    22596736.825  
 116061086.67948  90437207.89248  22085686.914    22085689.436    22085686.559  
 18 01 01 02 21 30.0000000  0  9G08G11G07G16G28G27G23G09G30          0.000000000
 106739690.36249  83173783.74949  20311880.550    20311883.121    20311880.005  
 123927813.45347  96567124.18445  23582675.518    23582676.251    23582674.943  
 108116983.29449  84246971.88148  20573966.267    20573966.205    20573966.005  
 123733940.86447  96416072.34445  23545779.184    23545779.342    23545778.084  
 126068172.50446  98234926.91644  23989973.686    23989972.560    23989972.402  
 112440406.94648  87615908.74548  21396691.160    21396693.645    21396690.832  
 127666223.92446  99480171.89444  24294070.776    24294069.691    24294069.913  
 118832572.76847  92596809.81447  22613083.616    22613087.340    22613084.049  
 115978559.05248  90372900.64048  22069982.563    22069985.065    22069981.883  
 18 01 01 02 22 00.0000000  0  9G08G11G07G16G28G27G23G09G30          0.000000000
 106735922.90949  83170848.07349  20311163.589    20311166.292    20311163.072  
 123817339.74547  96481040.80545  23561652.272    23561654.066    23561652.600  
 108073854.85149  84213365.30248  20565759.262    20565758.956    20565758.883  
 123824820.24547  96486887.41344  23563072.569    23563071.932    23563072.544  
 125992966.64146  98176324.94444  23975661.741    23975661.165    23975661.635  
 112512286.73448  87671918.96448  21410369.582    21410371.833    21410369.240  
 127773982.11346  99564139.27744  24314576.867    24314576.340    24314576.005  
 118918791.33247  92663993.08947  22629491.447    22629494.673    22629491.293  
 115896294.12848  90308798.10748  22054327.952    22054330.413    22054327.594  
 18 01 01 02 22 30.0000000  0  9G08G11G07G16G28G27G23G09G30          0.000000000
 106732708.20749  83168343.10349  20310551.825    20310554.618    20310551.398  
 123707003.39347  96395064.44945  23540655.947    23540657.045    23540655.910  
 108031162.30649  84180098.38548  20557635.315    20557635.029    20557634.955  
 123915762.19347  96557751.22944  23580379.460    23580378.686    23580377.898  
 125917861.60546  98117801.55644  23961369.018    23961369.712    23961368.526  
 112584563.10248  87728238.22548  21424123.917    21424125.714    21424123.005  
 127881774.63546  99648133.42644  24335089.266    24335088.311    24335088.502  
 119005320.29047  92731418.22847  22645957.405    22645960.597    22645956.901  
 115814294.07848  90244901.95848  22038723.772    22038726.291    22038723.666  
 18 01 01 02 23 00.0000000  0  9G08G11G07G16G28G27G23G09G30          0.000000000
 106730045.76649  83166268.47649  20310045.018    20310047.878    20310044.673  
 123596807.02247  96309197.15545  23519686.792    23519687.793    23519686.897  
 107988907.61949  84147172.65348  20549594.265    20549594.284    20549594.118  
 124006765.31447  96628662.72644  23597696.426    23597695.852    23597695.548  
 125842857.30946  98059356.68144  23947097.104    23947096.255    23947096.185  
 112657233.51148  87784864.51248  21437952.121    21437954.480    21437951.779  
 127989598.77946  99732152.15844  24355607.428    24355606.666    24355605.666  
 119092156.68347  92799082.90347  22662481.989    22662484.842    22662481.429  
 115732561.13248  90181213.94448  22023170.758    22023173.035    22023170.193  
 18 01 01 02 23 30.0000000  0  9G08G11G07G16G28G27G23G09G30          0.000000000
 106727934.59549  83164623.40249  20309643.125    20309646.120    20309642.942  
 123486753.48547  96223441.19145  23498745.271    23498745.182    23498744.517  
 107947092.11249  84114589.13348  20541637.202    20541637.004    20541636.863  
 124097828.50047  96699621.02044  23615025.159    23615025.196    23615023.781  
 125767953.83946  98000990.38144  23932843.705    23932842.825    23932843.430  
 112730295.41648  87841795.86348  21451855.493    21451857.605    21451854.896  
 128097451.29446  99816193.07744  24376130.231    24376129.939    24376130.543  
 119179297.46847  92866984.78647  22679063.640    22679067.368    22679063.724  
 115651097.56048  90117735.84548  22007668.929    22007671.013    22007668.080  
 18 01 01 02 24 00.0000000  0  9G08G11G07G16G28G27G23G09G30          0.000000000
 106726374.52349  83163407.77249  20309346.460    20309349.210    20309345.998  
 123376845.55147  96137798.69945  23477830.299    23477830.725    23477829.042  
 107905718.12049  84082349.65948  20533764.240    20533763.887    20533763.771  
 124188951.78647  96770626.13844  23632365.485    23632365.161    23632364.847  
 125693151.60346  97942702.94144  23918609.007    23918608.788    23918608.354  
 112803746.28148  87899030.30648  21465832.563    21465834.671    21465832.094  
 128205329.55546  99900254.02444  24396659.778    24396659.542    24396659.659  
 119266739.64847  92935121.53047  22695704.251    22695706.971    22695703.638  
 115569905.51748  90054469.32248  21992218.277    21992220.473    21992217.623  
 18 01 01 02 24 30.0000000  0  9G08G11G07G16G28G27G23G09G30          0.000000000
 106725364.84049  83162621.00749  20309154.163    20309157.182    20309154.008  
 123267085.89747  96052271.73245  23456943.712    23456943.997    23456942.420  
 107864787.35849  84050455.55548  20525975.139    20525974.923    20525974.728  
 124280134.16846  96841677.31644  23649715.833    23649716.259    23649715.708  
 125618450.61846  97884494.40644  23904393.524    23904394.113    23904392.608  
 112877583.62048  87956565.89148  21479883.544    21479885.405    21479882.920  
 128313230.77346  99984332.85744  24417191.810    24417192.506    24417191.337  
 119354480.18047  93003490.74347  22712400.426    22712403.117    22712399.482  
 115488987.20748  89991416.08748  21976820.019    21976822.394    21976819.289  
 18 01 01 02 25 00.0000000  0  9G08G11G07G16G28G27G23G09G30          0.000000000
 106724904.53649  83162262.31849  20309066.625    20309069.518    20309066.304  
 123157477.70447  95966862.78845  23436085.251    23436085.456    23436084.360  
 107824301.62149  84018908.22648  20518271.032    20518270.632    20518270.601  
 124371374.54147  96912773.65944  23667079.222    23667078.093    23667078.450  
 125543850.93046  97826364.81443  23890197.929    23890197.097    23890197.609  
 112951804.82948  88014400.60448  21494006.952    21494009.421    21494006.823  
 128421151.84546 100068427.13144  24437729.367    24437728.635    24437728.854  
 119442516.13247  93072090.15747  22729152.577    22729155.985    22729152.124  
 115408344.96148  89928577.97048  21961474.571    21961477.083    21961473.649  
 18 01 01 02 25 30.0000000  0  9G08G11G07G16G28G27G23G09G30          0.000000000
 106724992.97649  83162331.23149  20309083.623    20309086.400    20309083.183  
 123048023.57147  95881573.88745  23415256.073    23415258.367    23415256.443  
 107784263.30049  83987709.53748  20510652.015    20510651.650    20510651.661  
 124462672.40747  96983914.82245  23684452.621    23684453.393    23684452.313  
 125469352.94346  97768314.46744  23876021.209    23876020.902    23876020.314  
 113026407.40348  88072532.47248  21508203.697    21508205.849    21508203.296  
 128529089.96346 100152534.70444  24458268.700    24458269.237    24458268.433  
 119530844.38447  93140917.33347  22745961.340    22745964.479    22745961.339  
 115327980.95448  89865956.67548  21946181.608    21946184.027    21946181.003  
 18 01 01 02 26 00.0000000  0  9G08G11G07G16G28G27G23G09G30          0.000000000
 106725629.43549  83162827.17949  20309204.791    20309207.446    20309204.306  
 122938726.23247  95796407.16745  23394457.644    23394458.744    23394457.835  
 107744673.98149  83956860.71448  20503118.323    20503117.984    20503118.110  
 124554026.72447  97055099.97844  23701836.755    23701837.100    23701835.699  
 125394956.62946  97710343.34944  23861864.251    23861863.994    23861863.853  
 113101388.78948  88130959.52548  21522472.234    21522474.155    21522471.618  
 128637042.30546 100236653.37943  24478811.898    24478810.564    24478811.204  
 119619461.92947  93209969.92747  22762824.723    22762828.388    22762824.408  
 115247897.42348  89803553.91248  21930942.518    21930944.868    21930941.510  
 18 01 01 02 26 30.0000000  0  9G08G11G07G16G28G27G23G09G30          0.000000000
 106726813.34749  83163749.70949  20309429.826    20309432.681    20309429.455  
 122829588.58447  95711364.85845  23373690.003    23373690.216    23373689.557  
 107705535.70349  83926363.35248  20495670.608    20495670.206    20495670.403  
 124645437.18746  97126328.85744  23719231.809    23719231.921    23719230.962  
 125320662.19346  97652451.61244  23847726.173    23847725.722    23847725.221  
 113176746.44949  88189679.77548  21536812.279    21536814.445    21536811.684  
 128745005.95446 100320780.86844  24499356.698    24499356.726    24499356.027  
 119708365.76747  93279245.61747  22779742.935    22779746.046    22779742.565  
 115168096.64148  89741371.50248  21915756.619    21915758.738    21915755.886  
 18 01 01 02 27 00.0000000  0  9G08G11G07G16G28G27G23G09G30          0.000000000
 106728543.98649  83165098.26149  20309759.367    20309762.076    20309758.805  
 122720613.79247  95626449.44645  23352952.160    23352952.572    23352952.183  
 107666850.63049  83896219.13348  20488308.962    20488308.772    20488308.782  
 124736902.64447  97197600.62344  23736637.858    23736637.229    23736636.741  
 125246469.82747  97594639.38344  23833608.376    23833607.152    23833607.122  
 113252477.82648  88248691.23948  21551223.280    21551225.398    21551222.712  
 128852978.39646 100404915.16343  24519902.371    24519902.976    24519900.789  
 119797552.85547  93348742.01747  22796714.145    22796716.895    22796713.822  
 115088580.83648  89679411.15348  21900625.290    21900627.577    21900624.601  
 18 01 01 02 27 30.0000000  0  9G08G11G07G16G28G27G23G09G30          0.000000000
 106730820.58549  83166872.24249  20310192.477    20310195.390    20310191.977  
 122611804.40747  95541662.94845  23332247.321    23332247.659    23332245.651  
 107628619.73449  83866428.81848  20481034.020    20481033.716    20481033.667  
 124828422.15946  97268914.47344  23754052.403    23754051.832    23754051.516  
 125172379.45947  97536906.65044  23819508.801    23819508.452    23819508.410  
 113328580.39048  88307991.93748  21565705.368    21565707.409    21565704.864  
 128960956.54146 100489053.96043  24540452.280    24540450.983    24540450.931  
 119887020.12047  93418456.75347  22813739.271    22813742.769    22813738.844  
 115009352.22548  89617674.59548  21885548.358    21885550.862    21885547.972  
 18 01 01 02 28 00.0000000  0  9G08G11G07G16G28G27G23G09G30          0.000000000
 106733642.07949  83169070.80849  20310729.546    20310732.154    20310728.969  
 122503163.16447  95457007.45445  23311573.661    23311574.496    23311572.858  
 107590845.43749  83836994.30448  20473845.639    20473845.416    20473845.454  
 124919994.94847  97340269.84244  23771477.970    23771477.340    23771477.553  
 125098391.33047  97479253.59044  23805430.680    23805429.648    23805429.319  
 113405051.56948  88367579.87348  21580257.196    21580259.390    21580257.084  
 129068937.40546 100573194.89443  24560996.922    24560999.673    24560997.667  
 119976764.53447  93488387.42847  22830817.628    22830820.265    22830816.913  
 114930413.04148  89556163.54748  21870526.938    21870529.377    21870526.294  
 18 01 01 02 28 30.0000000  0  9G08G11G07G16G28G27G23G09G30          0.000000000
 106737007.78649  83171693.44049  20311369.947    20311372.616    20311369.531  
 122394692.53448  95372484.92445  23290932.284    23290933.364    23290931.760  
 107553529.44349  83807916.91248  20466744.563    20466744.474    20466744.251  
 125011621.39847  97411667.03744  23788914.564    23788915.085    23788913.631  
 125024505.44846  97421680.18444  23791369.776    23791368.711    23791368.575  
 113481888.82548  88427453.05748  21594879.033    21594881.081    21594878.495  
 129176918.26347 100657335.78543  24581547.122    24581546.919    24581546.277  
 120066783.04747  93558531.70547  22847946.904    22847949.824    22847946.887  
 114851765.52648  89494879.77348  21855560.652    21855563.260    21855560.056  
 18 01 01 02 29 00.0000000  0  9G08G11G07G16G28G27G23G09G30          0.000000000
 106740916.99349  83174739.57049  20312113.934    20312116.591    20312113.425  
 122286396.12347  95288098.13745  23270323.951    23270324.338    23270323.203  
 107516673.80549  83779198.23148  20459731.200    20459731.122    20459730.885  
 125103300.46947  97483105.22144  23806360.461    23806360.696    23806359.827  
 124950722.36247  97364186.89644  23777329.491    23777329.311    23777327.966  
 113559089.59948  88487609.50348  21609569.772    21609572.216    21609568.954  
 129284896.49446 100741474.66943  24602092.357    24602093.605    24602092.971  
 120157072.61747  93628887.19347  22865128.467    22865131.538    22865127.871  
 114773411.98148  89433825.08548  21840650.953    21840652.891    21840650.187  
 18 01 01 02 29 30.0000000  0  9G08G11G07G16G28G27G23G09G30          0.000000000
 106745368.50849  83178208.27949  20312960.902    20312963.630    20312960.480  
 122178276.65747  95203849.24045  23249749.276    23249750.186    23249748.814  
 107480280.23249  83750839.61048  20452805.894    20452805.597    20452805.560  
 125195030.76247  97554583.30844  23823816.016    23823814.681    23823815.291  
 124877041.82447  97306773.50344  23763308.653    23763308.002    23763306.873  
 113636651.34348  88548047.22748  21624329.423    21624331.391    21624328.638  
 129392869.05147 100825609.18143  24622640.992    24622640.279    24622641.026  
 120247630.21847  93699451.51547  22882361.078    22882363.964    22882360.520  
 114695354.63548  89373001.18448  21825796.803    21825799.141    21825796.270  
 18 01 01 02 30 00.0000000  0  9G08G11G07G16G28G27G23G09G30          0.000000000
 106750361.76149  83182099.12749  20313911.328    20313913.811    20313910.701  
 122070336.76647  95119740.24845  23229208.708    23229209.264    23229208.301  
 107444350.76349  83722842.62248  20445968.804    20445968.440    20445968.461  
 125286811.70947  97626100.89444  23841281.102    23841281.279    23841280.812  
 124803463.96147  97249440.13444  23749306.924    23749306.665    23749305.607  
 113714571.47648  88608764.21748  21639156.859    21639159.187    21639156.267  
 129500833.43847 100909737.18343  24643185.874    24643186.045    24643185.273  
 120338452.75847  93770222.31247  22899644.461    22899647.711    22899644.002  
 114617595.69748  89312409.81148  21810999.866    21811002.108    21810999.121  
 18 01 01 02 30 30.0000000  0  9G08G11G07G16G28G27G23G09G30          0.000000000
 106755895.75449  83186411.31849  20314964.211    20314966.875    20314963.708  
 121962579.24947  95035773.41145  23208704.167    23208704.314    23208703.041  
 107408886.96449  83695208.49148  20439220.061    20439219.908    20439219.862  
 125378642.12947  97697657.02744  23858755.776    23858756.490    23858754.886  
 124729988.94447  97192186.92544  23735325.251    23735324.135    23735323.809  
 113792847.48648  88669758.50748  21654052.479    21654054.824    21654051.728  
 129608786.57046 100993856.49243  24663728.240    24663728.839    24663728.460  
 120429537.14347  93841197.13347  22916977.442    22916980.381    22916977.084  
 114540137.50548  89252052.78648  21796259.979    21796262.384    21796259.475  
 18 01 01 02 31 00.0000000  0  9G08G11G07G16G28G27G23G09G30          0.000000000
 106761969.71449  83191144.28349  20316119.986    20316122.743    20316119.459  
 121855006.87048  94951950.79345  23188233.607    23188233.386    23188232.639  
 107373890.84549  83667938.78548  20432560.602    20432560.445    20432560.235  
 125470522.18546  97769251.82344  23876239.925    23876239.601    23876240.398  
 124656617.08046  97135014.07444  23721362.917    23721362.406    23721361.498  
 113871476.76648  88731028.07348  21669014.814    21669017.168    21669014.463  
 129716725.83846 101077964.95143  24684268.185    24684268.823    24684265.476  
 120520880.38247  93912373.64747  22934359.139    22934362.172    22934358.375  
 114462982.25148  89191931.81348  21781578.060    21781580.141    21781577.448  
 18 01 01 02 31 30.0000000  0  9G08G11G07G16G28G27G23G09G30          0.000000000
 106768582.66049  83196297.23249  20317378.444    20317381.231    20317377.883  
 121747622.80148  94868274.94645  23167799.225    23167798.814    23167797.952  
 107339364.01949  83641034.75548  20425990.585    20425990.262    20425989.998  
 125562451.10346  97840884.70944  23893733.966    23893733.339    23893733.370  
 124583348.36346  97077921.57744  23707419.431    23707419.918    23707419.045  
 113950456.79248  88792570.94748  21684044.693    21684046.726    21684043.770  
 129824648.27346 101162060.41743  24704807.750    24704804.453    24704805.898  
 120612479.36447  93983749.44347  22951790.059    22951792.733    22951789.405  
 114386132.18348  89132048.63748  21766953.644    21766956.217    21766953.023  
 18 01 01 02 32 00.0000000  0  9G08G11G07G16G28G27G23G09G30          0.000000000
 106775733.54549  83201869.35649  20318739.145    20318741.918    20318738.748  
 121640429.77848  94784747.94745  23147400.295    23147400.690    23147399.012  
 107305308.14949  83614497.70848  20419509.644    20419509.623    20419509.360  
 125654428.03647  97912555.02744  23911237.590    23911235.730    23911235.893  
 124510183.09747  97020909.70344  23693496.838    23693496.906    23693496.113  
 114029784.97549  88854385.10148  21699140.350    21699142.501    21699139.461  
 129932551.02146 101246140.48243  24725341.929    24725340.824    24725338.246  
 120704331.03147  94055322.13547  22969268.851    22969272.357    22969268.605  
 114309589.60148  89072405.06148  21752388.059    21752390.714    21752387.512  
 18 01 01 02 32 30.0000000  0  9G08G11G07G16G28G27G23G09G30          0.000000000
 106783421.55149  83207860.00849  20320202.048    20320204.895    20320201.765  
 121533430.70648  94701372.07945  23127039.542    23127040.219    23127038.754  
 107271725.13349  83588329.11048  20413118.943    20413118.924    20413118.736  
 125746452.24646  97984262.16644  23928748.710    23928747.984    23928747.392  
 124437121.08446  96963978.27144  23679593.065    23679593.274    23679593.411  
 114109458.78148  88916468.57548  21714301.442    21714303.906    21714300.825  
 130040431.64146 101330203.28342  24745867.496    24745868.224    24745866.199  
 120796432.29947  94127089.35347  22986795.322    22986798.236    22986794.609  
 114233356.78648  89013002.87048  21737881.818    21737884.035    21737880.870  
 18 01 01 02 33 00.0000000  0  9G08G11G07G16G28G27G23G09G30          0.000000000
 106791645.85549  83214268.55249  20321767.019    20321769.978    20321766.733  
 121426628.17148  94618149.35245  23106715.282    23106715.717    23106714.575  
 107238616.94549  83562530.52948  20406818.856    20406818.618    20406818.515  
 125838522.74846  98056005.34144  23946269.210    23946268.861    23946267.469  
 124364162.52346  96907127.49944  23665709.684    23665710.742    23665708.773  
 114189475.66748  88978819.39248  21729528.282    21729530.511    21729527.459  
 130148287.29046 101414246.60042  24766391.097    24766392.692    24766391.686  
 120888780.12447  94199048.66547  23004368.626    23004370.537    23004367.988  
 114157436.01748  88953843.83148  21723434.348    21723436.469    21723433.507  
 18 01 01 02 33 30.0000000  0 10G08G11G07G16G01G28G27G23G09G30       0.000000000
 106800404.90749  83221093.77949  20323433.809    20323436.711    20323433.569  
 121320025.20048  94535082.13545  23086430.443    23086429.623    23086428.882  
 107205985.45849  83537103.39448  20400609.236    20400609.097    20400608.934  
 125930639.12947  98127784.28144  23963797.842    23963798.032    23963796.725  
 130632543.90245 101791587.68246  24858544.217    24858552.833    24858545.807  
 124291307.85947  96850357.65144  23651846.190    23651846.528    23651845.226  
 114269833.06348  89041435.54848  21744819.583    21744821.624    21744818.999  
 130256115.04946 101498268.17542  24786911.504    24786910.947    24786911.140  
 120981371.43847  94271197.71647  23021988.115    23021991.076    23021988.124  
 114081829.43248  88894929.60448  21709046.498    21709049.176    21709046.254  
 18 01 01 02 34 00.0000000  0 10G08G11G07G16G01G28G27G23G09G30       0.000000000
 106809698.08949  83228335.21649  20325202.414    20325205.025    20325202.078  
 121213624.73748  94452172.71445  23066182.969    23066182.287    23066181.797  
 107173831.73449  83512048.55448  20394490.490    20394490.557    20394490.280  
 126022800.73747  98199598.43744  23981335.451    23981335.810    23981334.942  
 130519676.15945 101703638.86846  24837066.579    24837073.168    24837066.753  
 124218557.00347  96793668.70644  23638001.771    23638001.968    23638001.123  
 114350528.41348  89104315.02948  21760175.662    21760177.715    21760175.072  
 130363911.81246 101582265.67342  24807425.733    24807423.557    24807423.306  
 121074203.14047  94343534.06447  23039652.887    23039656.760    23039652.697  
 114006539.42748  88836262.07348  21694719.274    21694722.296    21694718.843  
 18 01 01 02 34 30.0000000  0 10G08G11G07G16G01G28G27G23G09G30       0.000000000
 106819524.54649  83235992.20349  20327072.149    20327074.986    20327071.851  
 121107429.44047  94369423.19245  23045973.867    23045974.615    23045972.396  
 107142157.90849  83487367.64948  20388463.319    20388463.123    20388462.803  
 126115006.90747  98271447.36244  23998881.760    23998882.372    23998881.038  
 130406765.88945 101615656.84346  24815580.804    24815588.723    24815582.582  
 124145910.07147  96737060.73044  23624178.099    23624178.406    23624177.529  
 114431559.17548  89167455.88648  21775595.150    21775597.222    21775594.791  
 130471675.79046 101666237.54942  24827930.603    24827931.223    24827929.963  
 121167272.11847  94416055.31547  23057362.623    23057367.039    23057362.633  
 113931568.18648  88777842.92348  21680453.016    21680455.768    21680452.595  
 18 01 01 02 35 00.0000000  0 10G08G11G07G16G01G28G27G23G09G30       0.000000000
 106829882.88549  83244063.63149  20329043.262    20329046.124    20329043.001  
 121001442.16747  94286835.73545  23025805.530    23025805.364    23025804.042  
 107110966.03249  83463062.28148  20382527.717    20382527.424    20382527.405  
 126207256.78047  98343330.32344  24016435.799    24016436.851    24016435.454  
 130293815.84746 101527643.85846  24794089.311    24794094.239    24794089.106  
 124073367.17947  96680533.83244  23610373.775    23610373.947    23610372.695  
 114512922.74148  89230856.07648  21791078.347    21791080.332    21791077.611  
 130579403.43446 101750181.14642  24848430.810    24848428.839    24848430.056  
 121260575.36047  94488759.10247  23075118.215    23075121.670    23075118.617  
 113856918.03848  88719673.98048  21666247.442    21666250.268    21666247.241  
 18 01 01 02 35 30.0000000  0  9G08G11G07G16G01G28G27G09G30          0.000000000
 106840771.96749  83252548.62949  20331115.610    20331118.373    20331115.104  
 120895665.95047  94204412.74145  23005676.852    23005677.092    23005675.475  
 107080257.48849  83439133.53948  20376683.827    20376683.839    20376683.743  
 126299549.81447  98415246.89444  24033998.879    24034000.224    24033998.964  
 130180829.06046 101439602.22146  24772589.400    24772592.674    24772588.007  
 124000928.51447  96624088.13044  23596588.791    23596589.439    23596588.939  
 114594616.61748  89294513.62848  21806623.683    21806626.212    21806623.370  
 121354109.75347  94561643.02347  23092917.393    23092920.587    23092917.103  
 113782591.20748  88661756.97548  21652103.645    21652106.243    21652103.247  
 18 01 01 02 36 00.0000000  0  9G08G11G07G16G01G28G27G09G30          0.000000000
 106852191.00649  83261446.58449  20333288.698    20333291.303    20333288.053  
 120790103.57847  94122156.39145  22985588.574    22985588.710    22985587.245  
 107050033.82149  83415582.62848  20370932.587    20370932.399    20370932.247  
 126391885.31846  98487196.58044  24051570.293    24051570.116    24051568.856  
 130067808.25246 101351534.07645  24751080.642    24751084.208    24751080.137  
 123928594.24247  96567723.80344  23582824.289    23582824.050    23582823.967  
 114676638.20848  89358426.55548  21822232.609    21822234.349    21822231.674  
 121447872.20647  94634704.66347  23110759.740    23110763.225    23110759.987  
 113708589.97248  88604093.67148  21638021.765    21638024.309    21638020.964  
 18 01 01 02 36 30.0000000  0  9G08G11G07G16G01G28G27G09G30          0.000000000
 106864138.75649  83270756.51149  20335562.226    20335564.827    20335561.912  
 120684757.84347  94040068.83545  22965541.798    22965542.593    22965541.546  
 107020296.94849  83392411.04448  20365273.977    20365273.747    20365273.687  
 126484262.94346  98559179.06644  24069148.991    24069149.076    24069147.989  
 129954756.43246 101263441.72046  24729566.689    24729572.893    24729565.972  
 123856364.33147  96511440.77944  23569079.143    23569079.742    23569078.373  
 114758984.98848  89422592.87748  21837902.219    21837904.198    21837901.621  
 121541859.63947  94707941.61947  23128645.191    23128648.478    23128645.068  
 113634916.57748  88546685.82048  21624001.959    21624004.373    21624001.652  
 18 01 01 02 37 00.0000000  0  9G08G11G07G16G01G28G27G09G30          0.000000000
 106876614.34649  83280477.75649  20337936.381    20337938.884    20337935.834  
 120579631.62447  93958152.34145  22945537.692    22945537.769    22945536.846  
 106991048.30849  83369619.88948  20359708.094    20359707.935    20359707.887  
 126576681.76946  98631193.68444  24086735.406    24086735.489    24086734.234  
 129841676.50746 101175327.53846  24708048.468    24708053.365    24708049.644  
 123784239.10247  96455239.32644  23555353.951    23555354.408    23555353.016  
 114841654.40348  89487010.60248  21853633.999    21853635.820    21853633.403  
 121636068.99047  94781351.46847  23146573.249    23146575.393    23146572.018  
 113561573.34048  88489535.24348  21610045.490    21610047.906    21610044.733  
 18 01 01 02 37 30.0000000  0  9G08G11G07G16G01G28G27G09G30          0.000000000
 106889616.30649  83290609.15549  20340410.587    20340413.086    20340410.009  
 120474727.50147  93876408.88945  22925574.643    22925574.450    22925574.027  
 106962290.01149  83347210.82748  20354235.572    20354235.563    20354235.198  
 126669140.94846  98703239.70544  24104330.749    24104330.371    24104329.781  
 129728571.35946 101087193.69446  24686527.036    24686530.568    24686526.320  
 123712218.81347  96399119.63544  23541649.189    23541649.352    23541648.222  
 114924643.88648  89551677.72848  21869426.216    21869428.267    21869425.593  
 121730497.15447  94854931.83947  23164542.154    23164545.181    23164541.744  
 113488562.48948  88432643.66848  21596151.835    21596154.144    21596151.252  
 18 01 01 02 38 00.0000000  0  9G08G11G07G16G01G28G27G09G30          0.000000000
 106903143.77049  83301150.04249  20342984.487    20342987.149    20342984.228  
 120370048.68347  93794841.02945  22905655.338    22905655.146    22905654.296  
 106934023.45149  83325184.93948  20348856.599    20348856.599    20348856.341  
 126761640.40546  98775317.17844  24121933.482    24121932.699    24121932.027  
 129615443.91346 100999042.48446  24664998.210    24665003.362    24664998.077  
 123640303.37147  96343081.64744  23527964.581    23527963.455    23527963.398  
 115007950.88448  89616592.26548  21885278.820    21885281.287    21885278.110  
 121825141.00047  94928680.23447  23182551.801    23182555.013    23182551.471  
 113415886.31348  88376012.88048  21582321.946    21582324.359    21582321.312  
 18 01 01 02 38 30.0000000  0  9G08G11G07G16G01G28G27G09G30          0.000000000
 106917195.49349  83312099.43249  20345658.320    20345661.111    20345658.209  
 120265598.18847  93713451.07145  22885778.345    22885778.389    22885778.068  
 106906250.15849  83303543.41848  20343571.383    20343571.558    20343571.352  
 126854179.01446  98847425.11744  24139542.605    24139542.326    24139542.065  
 129502297.15247 100910876.18646  24643467.918    24643472.012    24643467.635  
 123568492.74347  96287125.32544  23514299.243    23514299.282    23514298.657  
 115091572.87148  89681752.25648  21901191.527    21901193.909    21901191.029  
 121919997.52647  95002594.37147  23200602.924    23200605.610    23200602.216  
 113343547.05948  88319644.61548  21568556.213    21568558.981    21568555.674  
 18 01 01 02 39 00.0000000  0  9G08G11G07G16G01G28G27G09G30          0.000000000
 106931770.41749  83323456.52449  20348431.967    20348434.643    20348431.647  
 120161378.56347  93632241.01145  22865946.370    22865946.088    22865945.332  
 106878971.94449  83282287.65048  20338380.775    20338380.530    20338380.325  
 126946756.53246  98919563.38944  24157159.472    24157159.816    24157157.954  
 129389133.93446 100822697.10346  24621933.126    24621939.167    24621932.696  
 123496787.31246  96231250.96844  23500654.326    23500653.658    23500653.413  
 115175507.26248  89747155.68348  21917163.938    21917166.065    21917163.611  
 122015063.58047  95076671.80847  23218692.921    23218696.064    23218692.346  
 113271547.00848  88263540.67348  21554855.618    21554857.814    21554854.807  
 18 01 01 02 39 30.0000000  0  9G08G11G07G16G01G28G27G09G30          0.000000000
 106946866.98849  83335220.08649  20351304.828    20351307.623    20351304.408  
 120057392.77347  93551213.14345  22846158.173    22846158.677    22846156.838  
 106852190.32849  83261418.86048  20333284.273    20333284.204    20333283.944  
 127039371.52946  98991730.85444  24174781.689    24174782.315    24174783.202  
 129275957.18546 100734507.45746  24600396.243    24600401.114    24600396.218  
 123425187.16146  96175458.67945  23487028.658    23487028.983    23487027.926  
 115259751.55648  89812800.58748  21933194.851    21933197.428    21933194.236  
 122110336.08047  95150910.08747  23236821.724    23236825.791    23236822.235  
 113199888.46648  88207702.84448  21541219.035    21541221.528    21541218.521  
 18 01 01 02 40 00.0000000  0  9G08G11G07G16G01G28G27G09G30          0.000000000
 106962484.43049  83347389.51949  20354276.738    20354279.371    20354276.390  
 119953643.72647  93470369.75646  22826415.255    22826415.706    22826414.681  
 106825906.74249  83240938.14648  20328282.414    20328282.589    20328282.184  
 127132024.30646  99063927.74444  24192413.962    24192414.790    24192413.083  
 129162769.88846 100646309.59246  24578856.764    24578862.366    24578857.714  
 123353692.58346  96119748.67844  23473424.428    23473424.068    23473422.813  
 115344303.22348  89878684.99248  21949284.922    21949287.080    21949283.919  
 122205811.95747  95225306.84647  23254991.721    23254995.056    23254991.437  
 113128573.70848  88152132.93848  21527648.265    21527650.818    21527647.470  
 18 01 01 02 40 30.0000000  0  9G08G11G07G16G01G28G27G09G30          0.000000000
 106978621.21649  83359963.63449  20357347.341    20357350.131    20357346.818  
 119850134.06547  93389712.94046  22806717.758    22806718.745    22806717.670  
 106800123.03249  83220846.95548  20323376.140    20323376.157    20323375.939  
 127224713.88346  99136153.30044  24210053.158    24210053.274    24210052.401  
 129049575.01146 100558105.82846  24557317.575    24557322.879    24557316.852  
 123282303.45446  96064120.79944  23459839.571    23459838.578    23459839.351  
 115429159.68048  89944806.90048  21965432.142    21965434.373    21965431.647  
 122301488.08647  95299859.63447  23273197.724    23273200.927    23273196.944  
 113057604.86848  88096832.53648  21514143.314    21514145.823    21514142.956  
 18 01 01 02 41 00.0000000  0  9G08G11G07G16G01G28G27G09G30          0.000000000
 106995276.21749  83372941.56149  20360516.539    20360519.458    20360516.218  
 119746866.70647  93309244.88446  22787066.664    22787067.212    22787066.470  
 106774840.76249  83201146.47048  20318565.180    20318565.065    20318564.787  
 127317439.71046  99208407.13144  24227696.645    24227698.361    24227697.441  
 128936375.40246 100469898.38046  24535776.299    24535779.614    24535775.878  
 123211019.93347  96008575.22244  23446274.741    23446274.619    23446274.628  
 115514318.38348  90011164.33648  21981637.620    21981639.412    21981636.763  
 122397361.45646  95374566.11847  23291441.704    23291445.796    23291441.773  
 112986984.33948  88041803.56348  21500704.731    21500707.228    21500704.116  
 18 01 01 02 41 30.0000000  0  9G08G11G07G16G01G28G27G09G30          0.000000000
 107012448.31049  83386322.40249  20363784.514    20363787.193    20363783.923  
 119643844.61147  93228967.96146  22767461.890    22767463.661    22767461.751  
 106750061.51449  83181837.95448  20313849.886    20313849.713    20313849.557  
 127410201.11546  99280688.66344  24245349.735    24245349.928    24245349.893  
 128823174.26246 100381689.71446  24514233.746    24514239.905    24514233.928  
 123139842.41047  95953112.23044  23432729.635    23432729.618    23432729.431  
 115599776.83748  90077755.33448  21997899.361    21997901.512    21997898.886  
 122493428.87447  95449423.78647  23309722.963    23309726.095    23309722.811  
 112916714.29048  87987047.66448  21487332.747    21487335.041    21487332.098  
 18 01 01 02 42 00.0000000  0  9G08G11G07G16G01G28G27G09G30          0.000000000
 107030135.99149  83400105.00849  20367150.120    20367153.142    20367149.781  
 119541070.34147  93148884.18946  22747905.335    22747905.663    22747904.343  
 106725786.63049  83162922.45448  20309230.481    20309230.502    20309230.230  
 127502997.84246  99352997.72244  24263009.723    24263008.774    24263007.506  
 128709974.41946 100293482.12246  24492693.217    24492698.865    24492692.445  
 123068770.70847  95897731.73444  23419205.537    23419204.707    23419204.634  
 115685532.49348  90144577.89548  22014218.208    22014220.497    22014218.120  
 122589687.32147  95524430.32647  23328040.495    23328043.773    23328040.431  
 112846797.05048  87932566.69348  21474027.891    21474030.478    21474027.343  
 18 01 01 02 42 30.0000000  0  9G08G11G07G16G01G28G27G09G30          0.000000000
 107048337.84149  83414288.26649  20370614.014    20370616.753    20370613.470  
 119438547.04047  93068995.95046  22728395.947    22728395.875    22728394.665  
 106702017.80549  83144401.28448  20304707.396    20304707.424    20304707.184  
 127595828.47946  99425333.23944  24280672.991    24280673.685    24280673.187  
 128596778.87246 100205277.84646  24471153.129    24471158.164    24471152.514  
 122997805.11646  95842433.88744  23405700.779    23405700.573    23405700.016  
 115771582.80848  90211630.09148  22030592.741    22030595.380    22030592.463  
 122686133.74447  95599583.36647  23346394.098    23346396.704    23346393.669  
 112777234.87548  87878362.40648  21460791.176    21460793.410    21460790.286  
 18 01 01 02 43 00.0000000  0  9G08G11G07G16G01G28G27G09G30          0.000000000
 107067053.00549  83428871.51049  20374175.324    20374178.199    20374174.826  
 119336277.80947  92989305.65046  22708934.504    22708934.969    22708933.959  
 106678756.67249  83126275.72048  20300280.976    20300280.873    20300280.679  
 127688692.89647  99497695.05944  24298346.064    24298344.872    24298345.075  
 128483590.65846 100117079.26746  24449612.978    24449618.747    24449612.208  
 122926945.96946  95787218.96944  23392216.265    23392215.680    23392215.778  
 115857925.25348  90278909.91348  22047023.388    22047025.790    22047023.236  
 122782764.92847  95674880.37947  23364782.276    23364784.772    23364781.493  
 112708030.04148  87824436.57148  21447621.523    21447623.857    21447620.851  
 18 01 01 02 43 30.0000000  0  9G08G11G07G16G01G28G27G09G30          0.000000000
 107086279.96449  83443853.56149  20377834.058    20377836.962    20377833.485  
 119234265.07847  92909815.23246  22689521.384    22689522.094    22689520.907  
 106656004.58149  83108546.82648  20295951.554    20295951.303    20295951.175  
 127781590.57447  99570082.80544  24316023.044    24316023.989    24316021.657  
 128370412.65746 100028888.67946  24428076.934    24428080.647    24428076.021  
 122856193.11246  95732086.88444  23378753.006    23378751.804    23378752.203  
 115944557.35348  90346415.43948  22063509.754    22063511.624    22063508.886  
 122879577.86847  95750319.00447  23383205.370    23383208.290    23383204.856  
 112639184.77948  87770790.92748  21434520.192    21434523.102    21434519.929  
 18 01 01 02 44 00.0000000  0  9G08G11G07G16G01G28G27G09G30          0.000000000
 107106017.40149  83459233.38549  20381589.984    20381592.720    20381589.424  
 119132511.67947  92830526.91546  22670158.769    22670159.100    22670158.856  
 106633763.02949  83091215.74348  20291719.033    20291718.926    20291718.905  
 127874520.87047  99642495.97643  24333707.107    24333708.222    24333707.010  
 128257247.96346  99940708.41246  24406541.911    24406547.335    24406542.079  
 122785546.99546  95677037.98944  23365309.332    23365308.942    23365308.444  
 116031476.54748  90414144.67648  22080049.439    22080051.788    22080049.112  
 122976569.42947  95825896.81047  23401661.940    23401665.568    23401662.052  
 112570701.36148  87717427.24048  21421488.435    21421491.118    21421487.872  
 18 01 01 02 44 30.0000000  0  9G08G11G07G16G01G28G27G09G30          0.000000000
 107126263.97149  83475009.93249  20385442.896    20385445.493    20385442.158  
 119031020.64047  92751443.00446  22650845.671    22650846.165    22650845.179  
 106612033.34649  83074283.50448  20287584.156    20287583.742    20287583.795  
 127967483.58147  99714934.37743  24351398.219    24351397.395    24351397.286  
 128144099.65046  99852540.91346  24385010.381    24385015.622    24385009.988  
 122715007.48246  95622072.16144  23351885.389    23351885.600    23351885.691  
 116118680.31948  90482095.66548  22096643.678    22096645.791    22096643.215  
 123073736.54247  95901611.41147  23420152.151    23420154.830    23420151.586  
 112502582.00948  87664347.22648  21408525.794    21408528.438    21408525.466  
 18 01 01 02 45 00.0000000  0  9G08G11G07G16G01G28G27G09G30          0.000000000
 107147018.41549  83491182.21349  20389392.110    20389394.982    20389391.549  
 118929794.87947  92672565.83346  22631582.916    22631583.500    22631583.152  
 106590817.27049  83057751.49948  20283546.653    20283546.561    20283546.531  
 128060477.53347  99787397.14644  24369093.950    24369094.682    24369093.239  
 128030970.61446  99764388.46146  24363483.038    24363488.411    24363482.744  
 122644574.82347  95567189.58344  23338482.816    23338482.252    23338482.213  
 116206166.15348  90550266.44548  22113291.638    22113293.827    22113291.268  
 123171076.15946  95977460.41247  23438674.994    23438679.357    23438674.848  
 112434828.98648  87611552.65848  21395633.230    21395635.518    21395632.413  
 18 01 01 02 45 30.0000000  0  9G08G11G07G16G01G28G27G09G30          0.000000000
 107168279.40549  83507749.21449  20393438.123    20393440.848    20393437.508  
 118828837.00647  92593897.39046  22612371.590    22612371.590    22612370.903  
 106570116.18549  83041620.78148  20279607.533    20279607.358    20279607.196  
 128153502.19447  99859883.85644  24386795.966    24386796.102    24386795.805  
 127917863.90946  99676253.42046  24341958.629    24341963.204    24341959.401  
 122574249.22147  95512390.44544  23325100.582    23325100.921    23325100.486  
 116293931.54848  90618655.06148  22129992.789    22129994.948    22129992.331  
 123268585.16246  96053441.40847  23457230.245    23457234.586    23457230.216  
 112367444.56648  87559045.32048  21382810.043    21382812.544    21382809.570  
 18 01 01 02 46 00.0000000  0  9G08G11G07G16G01G28G27G09G30          0.000000000
 107190045.63449  83524709.91749  20397580.044    20397582.869    20397579.506  
 118728149.71547  92515439.77946  22593211.430    22593211.059    22593210.459  
 106549931.54849  83025892.49048  20275766.312    20275766.233    20275766.240  
 128246557.30647  99932394.27944  24404504.039    24404504.469    24404503.381  
 127804782.61346  99588138.16946  24320439.602    24320445.931    24320439.983  
 122504030.62047  95457674.67544  23311739.192    23311738.991    23311737.263  
 116381973.98348  90687259.55048  22146746.284    22146749.135    22146746.193  
 123366260.46847  96129551.98247  23475817.436    23475820.870    23475817.026  
 112300430.98448  87506826.95148  21370057.724    21370060.641    21370057.162  
 18 01 01 02 46 30.0000000  0  9G08G11G07G16G01G28G27G09G30          0.000000000
 107212315.57949  83542063.12249  20401817.948    20401820.605    20401817.337  
 118627736.26947  92437195.56846  22574103.369    22574103.118    22574102.311  
 106530264.58249  83010567.57948  20272024.002    20272023.656    20272023.605  
 128339642.29346 100004927.92443  24422216.294    24422218.268    24422215.846  
 127691729.74846  99500045.05946  24298926.753    24298932.582    24298926.716  
 122433919.25647  95403042.48245  23298396.555    23298396.851    23298396.315  
 116470290.96048  90756077.96548  22163553.300    22163555.514    22163552.736  
 123464099.00747  96205789.77147  23494436.353    23494438.988    23494435.618  
 112233790.47248  87454899.28448  21357376.770    21357378.933    21357376.273  
 18 01 01 02 47 00.0000000  0  9G08G11G07G16G01G28G27G09G30          0.000000000
 107235087.45849  83559807.44349  20406151.515    20406154.071    20406150.692  
 118527599.20448  92359166.71646  22555047.761    22555048.160    22555047.034  
 106511116.94749  82995647.34448  20268380.113    20268380.072    20268379.892  
 128432756.16347 100077484.09244  24439936.056    24439937.220    24439935.782  
 127578708.31546  99411976.44846  24277420.012    24277424.626    24277419.116  
 122363915.54147  95348494.13644  23285075.297    23285074.863    23285074.908  
 116558879.97748  90825108.36648  22180410.702    22180413.140    22180410.234  
 123562097.69147  96282152.34547  23513083.908    23513088.047    23513083.241  
 112167525.28648  87403264.06548  21344766.899    21344769.240    21344766.202  
 18 01 01 02 47 30.0000000  0  9G08G11G07G16G01G28G27G09G30          0.000000000
 107258360.40849  83577942.21349  20410580.157    20410582.710    20410579.478  
 118427741.46548  92281355.52646  22536045.190    22536045.523    22536044.986  
 106492489.90149  82981132.75748  20264835.495    20264835.397    20264835.283  
 128525898.76847 100150062.66344  24457660.749    24457660.757    24457661.056  
 127465721.44947  99323934.76246  24255919.516    24255925.332    24255920.284  
 122294019.41247  95294029.66745  23271774.633    23271773.965    23271774.048  
 116647738.53748  90894348.79548  22197320.197    22197322.227    22197319.465  
 123660253.42747  96358637.29447  23531762.223    23531766.420    23531762.238  
 112101637.67348  87351923.06748  21332229.008    21332231.307    21332228.380  
 18 01 01 02 48 00.0000000  0  9G08G11G07G16G01G28G27G09G30          0.000000000
 107282132.51149  83596465.93549  20415103.683    20415106.393    20415102.988  
 118328165.99748  92203764.28346  22517096.549    22517097.449    22517096.113  
 106474384.83849  82967024.91448  20261390.393    20261390.158    20261390.041  
 128619069.56847 100222663.25244  24475390.677    24475390.685    24475389.094  
 127352772.09446  99235922.30046  24234426.340    24234430.304    24234426.290  
 122224230.94147  95239649.03244  23258494.467    23258494.040    23258493.482  
 116736864.14448  90963797.31348  22214280.138    22214282.505    22214279.285  
 123758563.14447  96435242.23547  23550470.537    23550474.483    23550469.843  
 112036129.89048  87300878.04448  21319763.388    21319765.570    21319762.399  
 18 01 01 02 48 30.0000000  0  9G08G11G07G16G01G28G27G09G30          0.000000000
 107306402.55549  83615377.64649  20419722.027    20419724.819    20419721.379  
 118228875.40148  92126395.00546  22498202.349    22498202.164    22498201.709  
 106456803.12449  82953324.86848  20258044.696    20258044.651    20258044.391  
 128712267.87046 100295285.31343  24493126.206    24493126.496    24493125.381  
 127239863.39346  99147941.52246  24212939.286    24212944.999    24212938.946  
 122154550.26147  95185352.43245  23245234.723    23245234.120    23245233.259  
 116826254.33948  91033452.00548  22231290.422    22231292.659    22231290.289  
 123857023.77447  96511964.73547  23569207.046    23569210.875    23569206.418  
 111971004.15748  87250130.71648  21307370.085    21307372.342    21307369.747  
 18 01 01 02 49 00.0000000  0  9G08G11G07G16G01G28G27G09G30          0.000000000
 107331168.94849  83634676.13449  20424434.993    20424437.762    20424434.370  
 118129872.62748  92049249.99946  22479363.016    22479362.722    22479362.236  
 106439746.17049  82940033.73448  20254798.867    20254798.710    20254798.459  
 128805493.18346 100367928.34743  24510866.416    24510867.491    24510865.105  
 127126998.33847  99059994.80547  24191463.221    24191467.408    24191462.544  
 122084977.63547  95131140.00644  23231995.094    23231994.290    23231994.818  
 116915906.59048  91103310.91448  22248350.926    22248353.176    22248350.469  
 123955632.21347  96588802.44147  23587971.581    23587974.554    23587970.407  
 111906262.71048  87199682.83748  21295050.227    21295052.469    21295049.553  
 18 01 01 02 49 30.0000000  0  9G08G11G07G16G01G28G27G09G30          0.000000000
 107356430.33449  83654360.33149  20429241.985    20429244.721    20429241.419  
 118031160.47248  91972331.44246  22460578.565    22460578.683    22460577.957  
 106423215.26449  82927152.50848  20251652.981    20251653.041    20251652.773  
 128898744.84647 100440591.96344  24528611.488    24528612.204    24528609.915  
 127014180.11647  98972084.52847  24169993.942    24169997.750    24169993.419  
 122015513.13847  95077011.82145  23218776.858    23218776.764    23218775.755  
 117005818.43548  91173372.06948  22265460.234    22265462.789    22265460.176  
 124054385.42147  96665752.97047  23606763.691    23606766.933    23606763.279  
 111841907.78548  87149536.15648  21282803.846    21282806.258    21282803.159  
 18 01 01 02 50 00.0000000  0  9G08G11G07G16G01G28G27G09G30          0.000000000
 107382185.63549  83674429.40049  20434143.015    20434145.970    20434142.640  
 117932741.75448  91895641.54846  22441849.572    22441850.430    22441849.262  
 106407211.92549  82914682.36948  20248607.706    20248607.699    20248607.456  
 128992022.42547 100513275.75244  24546361.735    24546361.978    24546360.259  
 126901411.74747  98884213.12346  24148535.262    24148540.237    24148535.303  
 121946157.22347  95022968.25745  23205579.008    23205578.019    23205577.862  
 117095987.40048  91243633.59848  22282619.010    22282621.021    22282618.785  
 124153280.31947  96742813.87147  23625581.883    23625586.028    23625582.808  
 111777941.55248  87099692.33848  21270631.627    21270633.884    21270630.949  
 18 01 01 02 50 30.0000000  0  9G08G11G07G16G01G28G27G09G30          0.000000000
 107408433.04449  83694881.92349  20439137.946    20439140.575    20439137.367  
 117834619.29148  91819182.53346  22423178.045    22423178.020    22423177.498  
 106391736.97749  82902623.94749  20245663.042    20245662.873    20245662.708  
 129085325.52447 100585979.47544  24564116.708    24564116.962    24564116.029  
 126788696.22746  98796382.86746  24127083.906    24127090.257    24127083.836  
 121876909.74147  94969009.20545  23192401.267    23192400.680    23192400.139  
 117186410.99648  91314093.53548  22299825.930    22299828.196    22299825.100  
 124252313.80647  96819982.80646  23644428.025    23644430.561    23644427.993  
 111714366.26548  87050153.15448  21258533.854    21258535.773    21258532.956  
 18 01 01 02 51 00.0000000  0  9G08G11G07G16G01G28G27G09G30          0.000000000
 107435170.86149  83715716.58749  20444225.659    20444228.716    20444225.372  
 117736795.89948  91742956.53546  22404563.574    22404562.815    22404561.951  
 106376791.94849  82890978.46149  20242819.066    20242819.057    20242818.785  
 129178653.10746 100658702.20443  24581875.996    24581875.716    24581874.627  
 126676036.75546  98708596.31247  24105647.407    24105652.105    24105647.073  
 121807770.74347  94915134.66645  23179245.124    23179243.482    23179243.544  
 117277086.79348  91384749.99648  22317081.137    22317082.972    22317080.952  
 124351482.81047  96897257.35746  23663299.715    23663302.591    23663299.648  
 111651184.16548  87000920.34748  21246510.284    21246512.580    21246509.868  
 18 01 01 02 51 30.0000000  0  9G08G11G07G16G01G28G27G09G30          0.000000000
 107462397.72249  83736932.31749  20449406.971    20449409.851    20449406.445  
 117639274.47448  91666965.85046  22386004.917    22386004.942    22386004.181  
 106362378.08849  82879746.88548  20240076.220    20240076.189    20240075.972  
 129272004.55746 100731443.49643  24599638.850    24599640.842    24599639.661  
 126563436.37147  98620855.82747  24084220.671    24084225.743    24084220.083  
 121738740.67147  94861344.99945  23166108.196    23166108.711    23166107.947  
 117368012.32248  91455601.04448  22334383.187    22334386.088    22334382.992  
 124450784.32947  96974635.12747  23682195.035    23682199.551    23682194.853  
 111588397.45948  86951995.64348  21234562.407    21234564.887    21234561.685  
 18 01 01 02 52 00.0000000  0  9G08G11G07G16G01G28G27G09G30          0.000000000
 107490112.07549  83758527.91049  20454680.734    20454683.631    20454680.302  
 117542057.69348  91591212.53846  22367504.956    22367505.501    22367504.919  
 106348496.60949  82868930.15649  20237434.788    20237434.435    20237434.487  
 129365380.53747 100804203.97143  24617409.078    24617409.777    24617407.607  
 126450898.24547  98533163.79247  24062804.851    24062809.151    24062804.163  
 121669819.69447  94807640.37545  23152993.136    23152993.120    23152992.323  
 117459185.10348  91526644.77648  22351733.998    22351735.656    22351733.457  
 124550215.23547  97052113.70847  23701117.467    23701120.289    23701116.663  
 111526008.34648  86903380.73748  21222690.145    21222692.687    21222689.410  
 18 01 01 02 52 30.0000000  0  9G08G11G07G16G01G28G27G09G30          0.000000000
 107518312.41549  83780502.20449  20460047.228    20460049.997    20460046.567  
 117445148.38148  91515698.80646  22349064.310    22349063.946    22349063.656  
 106335148.85749  82858529.30848  20234894.791    20234894.572    20234894.374  
 129458779.90247 100876982.65143  24635182.839    24635181.877    24635182.659  
 126338425.43946  98445522.69946  24041400.363    24041406.391    24041401.457  
 121601007.86347  94754020.78845  23139898.291    23139898.549    23139897.783  
 117550602.68047  91597879.23248  22369129.535    22369131.586    22369128.793  
 124649772.50047  97129690.76746  23720061.654    23720064.575    23720061.525  
 111464019.03648  86855077.38348  21210894.448    21210896.379    21210893.513  
 18 01 01 02 53 00.0000000  0  9G08G11G07G16G01G28G27G09G30          0.000000000
 107546996.90649  83802853.75349  20465505.592    20465508.536    20465505.171  
 117348549.15348  91440426.70146  22330682.047    22330682.068    22330681.164  
 106322335.75449  82848545.05149  20232456.456    20232456.215    20232456.204  
 129552201.71946 100949778.84343  24652960.442    24652960.535    24652959.663  
 126226021.04047  98357934.86046  24020012.424    24020016.611    24020012.118  
 121532305.15947  94700486.23145  23126824.978    23126824.578    23126824.061  
 117642262.64547  91669302.58448  22386572.124    22386573.489    22386571.666  
 124749453.02447  97207363.89447  23739030.630    23739033.750    23739030.126  
 111402431.74548  86807087.28248  21199174.435    21199176.838    21199173.764  
 18 01 01 02 53 30.0000000  0  9G08G11G07G16G01G28G27G09G30          0.000000000
 107576164.17349  83825581.49449  20471056.089    20471058.715    20471055.488  
 117252263.05648  91365398.60446  22312359.151    22312358.796    22312358.541  
 106310059.00149  82838978.74548  20230120.300    20230120.066    20230119.979  
 129645645.72146 101022592.30543  24670741.657    24670742.182    24670741.105  
 126113688.14847  98270402.79046  23998635.452    23998639.951    23998635.081  
 121463711.99447  94647037.00945  23113771.913    23113771.700    23113771.396  
 117734162.51047  91740912.87548  22404060.040    22404062.332    22404059.239  
 124849253.85547  97285130.72047  23758021.823    23758026.004    23758022.667  
 111341248.59848  86759412.08448  21187531.592    21187533.930    21187531.064  
 18 01 01 02 54 00.0000000  0 10G08G11G07G16G01G28G27G09G30G13       0.000000000
 107605812.79949  83848684.31549  20476698.115    20476700.656    20476697.295  
 117156293.03248  91290616.78446  22294096.231    22294096.814    22294095.965  
 106298319.51249  82829831.09949  20227886.320    20227886.223    20227886.170  
 129739111.00846 101095422.29643  24688527.463    24688528.288    24688527.129  
 126001429.94046  98182928.87246  23977273.063    23977277.743    23977272.934  
 121395228.70947  94593673.41245  23100740.314    23100739.701    23100740.013  
 117826299.87447  91812708.20848  22421592.503    22421595.036    22421592.068  
 124949171.82547  97362988.81847  23777036.404    23777038.956    23777035.741  
 111280471.92448  86712053.63748  21175966.108    21175968.712    21175965.553  
 131295673.84246 102308304.68543  24984733.806    24984735.800    24984733.210  
 18 01 01 02 54 30.0000000  0 10G08G11G07G16G01G28G27G09G30G13       0.000000000
 107635940.85749  83872160.71349  20482431.134    20482433.834    20482430.560  
 117060641.84048  91216083.42846  22275895.417    22275894.864    22275894.227  
 106287118.33949  82821102.90949  20225754.922    20225754.588    20225754.503  
 129832597.69546 101168268.96043  24706318.385    24706317.545    24706316.265  
 125889249.55647  98095515.62747  23955926.790    23955931.016    23955926.556  
 121326855.25747  94540395.40845  23087729.176    23087728.929    23087729.255  
 117918672.22247  91884686.66647  22439170.554    22439173.021    22439170.406  
 125049203.91847  97440935.87847  23796071.013    23796075.461    23796071.507  
 111220103.79448  86665013.52448  21164478.533    21164480.926    21164477.805  
 131217119.98146 102247093.84542  24969785.443    24969786.145    24969786.228  
 18 01 01 02 55 00.0000000  0 10G08G11G07G16G01G28G27G09G30G13       0.000000000
 107666547.04649  83896009.69949  20488255.493    20488258.098    20488254.739  
 116965312.02448  91141800.47646  22257753.976    22257754.478    22257753.123  
 106276456.96249  82812795.34649  20223726.024    20223725.944    20223725.618  
 129926105.46046 101241132.11343  24724111.792    24724112.112    24724110.360  
 125777150.06047  98008165.45747  23934594.648    23934599.726    23934594.090  
 121258591.82147  94487203.14445  23074739.554    23074738.156    23074738.627  
 118011277.24247  91956846.39948  22456792.580    22456795.193    22456792.281  
 125149347.12047  97518969.47447  23815128.370    23815131.953    23815127.964  
 111160146.43448  86618293.49948  21153069.389    21153071.276    21153068.394  
 131138968.72846 102186196.87442  24954915.922    24954914.807    24954913.748  
 18 01 01 02 55 30.0000000  0 10G08G11G07G16G01G28G27G09G30G13       0.000000000
 107697629.65649  83920229.92949  20494170.173    20494172.850    20494169.534  
 116870306.67548  91067770.38646  22239674.863    22239675.342    22239674.300  
 106266336.44749  82804909.22549  20221800.008    20221800.004    20221799.863  
 130019633.39646 101314010.99043  24741910.326    24741910.347    24741909.254  
 125665134.67947  97920880.76847  23913278.246    23913283.717    23913277.840  
 121190438.66047  94434096.78745  23061770.167    23061769.313    23061768.863  
 118104112.43847  92029185.50347  22474459.125    22474461.006    22474458.351  
 125249598.33847  97597087.23547  23834205.548    23834209.304    23834204.047  
 111100602.04148  86571895.27248  21141738.122    21141740.578    21141737.460  
 131061222.95946 102125615.74942  24940120.051    24940119.375    24940118.989  
 18 01 01 02 56 00.0000000  0 10G08G11G07G16G01G28G27G09G30G13       0.000000000
 107729186.91549  83944820.01149  20500175.251    20500178.089    20500174.591  
 116775628.46548  90993995.21246  22221658.776    22221658.480    22221657.907  
 106256757.63949  82797445.21649  20219977.346    20219977.185    20219977.000  
 130113180.81646 101386904.98143  24759710.379    24759711.693    24759709.462  
 125553206.46447  97833664.02246  23891979.110    23891983.251    23891978.996  
 121122396.32047  94381076.80545  23048822.221    23048821.827    23048821.618  
 118197175.42147  92101702.12648  22492168.115    22492170.710    22492167.616  
 125349954.56947  97675286.86047  23853302.941    23853305.958    23853302.834  
 111041472.78248  86525820.54148  21130486.104    21130488.616    21130485.545  
 130983885.10246 102065352.53242  24925401.358    24925403.047    24925403.157  
 18 01 01 02 56 30.0000000  0  9G08G11G07G16G01G28G27G09G30          0.000000000
 107761217.52349  83969778.92849  20506270.316    20506273.284    20506269.968  
 116681279.88048  90920476.85646  22203704.556    22203704.405    22203703.517  
 106247721.87749  82790404.35749  20218258.025    20218257.741    20218257.603  
 130206746.76945 101459813.43343  24777515.874    24777517.225    24777514.692  
 125441368.60647  97746517.66747  23870697.300    23870702.192    23870697.628  
 121054464.29347  94328142.77945  23035895.183    23035894.351    23035894.275  
 118290463.78447  92174394.35148  22509920.661    22509922.980    22509920.178  
 125450412.74247  97753565.90247  23872419.656    23872422.943    23872419.005  
 110982760.80648  86480070.95948  21119313.247    21119315.994    21119312.930  
 18 01 01 02 57 00.0000000  0  9G08G11G07G16G01G28G27G09G30          0.000000000
 107793719.47449  83995105.12849  20512455.255    20512458.152    20512454.812  
 116587263.60348  90847217.46046  22185813.392    22185813.346    22185812.995  
 106239229.98049  82783787.29149  20216641.985    20216641.864    20216641.635  
 130300332.29646 101532737.19643  24795325.095    24795324.687    24795323.700  
 125329624.25947  97659444.15247  23849433.485    23849437.240    23849432.255  
 120986642.77947  94275294.85145  23022989.262    23022988.638    23022988.558  
 118383975.10047  92247260.29248  22527715.039    22527717.817    22527714.716  
 125550969.85047  97831922.06046  23891554.715    23891557.964    23891553.931  
 110924468.26948  86434648.21448  21108221.206    21108223.237    21108220.284  
 18 01 01 02 57 30.0000000  0  9G08G11G07G16G01G28G27G09G30          0.000000000
 107826691.37749  84020797.51649  20518729.642    20518732.332    20518729.079  
 116493582.69848  90774219.39446  22167986.635    22167986.820    22167985.973  
 106231283.03749  82777594.86249  20215129.624    20215129.534    20215129.492  
 130393936.11346 101605675.18243  24813137.112    24813138.397    24813136.186  
 125217976.53547  97572445.97646  23828187.757    23828191.647    23828186.606  
 120918932.26447  94222533.41445  23010104.090    23010103.287    23010103.262  
 118477706.97747  92320298.13147  22545551.152    22545553.374    22545550.947  
 125651622.83247  97910352.93246  23910708.606    23910711.917    23910708.220  
 110866597.29848  86389553.93848  21097208.645    21097210.821    21097208.043  
 18 01 01 02 58 00.0000000  0  9G08G11G07G16G01G28G27G09G30          0.000000000
 107860131.27649  84046854.55449  20525093.084    20525095.986    20525092.569  
 116400239.85648  90701484.74446  22150224.217    22150224.346    22150223.701  
 106223882.36549  82771828.09149  20213721.543    20213721.245    20213721.100  
 130487557.24346 101678626.65043  24830953.462    24830954.039    24830952.202  
 125106428.61447  97485525.55847  23806960.247    23806965.066    23806958.816  
 120851332.71647  94169858.45745  22997240.360    22997239.767    22997239.846  
 118571657.08447  92393505.98547  22563430.070    22563432.018    22563429.602  
 125752368.67747  97988856.19246  23929878.968    23929883.450    23929879.881  
 110809150.07348  86344789.85948  21086276.338    21086279.165    21086276.208  
 18 01 01 02 58 30.0000000  0  9G08G11G07G16G01G28G27G09G30          0.000000000
 107894037.62049  84073275.07149  20531545.318    20531548.151    20531544.824  
 116307237.74848  90629015.61246  22132526.450    22132526.309    22132525.822  
 106217028.73349  82766487.60049  20212417.328    20212416.972    20212416.983  
 130581195.44146 101751591.49143  24848771.853    24848771.693    24848770.358  
 124994983.62946  97398685.37747  23785751.882    23785758.234    23785752.158  
 120783844.34047  94117270.12245  22984397.493    22984397.452    22984397.213  
 118665822.95147  92466881.97848  22581348.558    22581351.518    22581348.163  
 125853204.39247  98067429.43946  23949067.990    23949071.507    23949067.612  
 110752128.77748  86300357.68648  21075425.783    21075428.264    21075425.381  
 18 01 01 02 59 00.0000000  0  9G08G11G07G16G01G28G27G09G30          0.000000000
 107928408.70849  84100057.72949  20538085.978    20538088.777    20538085.410  
 116214579.44148  90556814.37246  22114894.443    22114894.103    22114893.275  
 106210723.35249  82761574.31349  20211217.265    20211217.182    20211217.099  
 130674850.44846 101824569.41943  24866594.805    24866593.781    24866593.109  
 124883644.83647  97311927.87647  23764565.125    23764570.384    23764565.619  
 120716467.68147  94064768.84545  22971575.963    22971575.404    22971575.402  
 118760202.23947  92540424.27447  22599309.255    22599310.415    22599308.512  
 125954126.91447  98146070.32846  23968273.310    23968277.306    23968272.675  
 110695535.48448  86256259.00948  21064656.707    21064658.980    21064655.862  
 18 01 01 02 59 30.0000000  0  9G08G11G07G16G01G28G27G09G30          0.000000000
 107963243.17449  84127201.47549  20544714.760    20544717.483    20544714.141  
 116122267.50448  90484883.02546  22097327.527    22097327.713    22097327.110  
 106204967.11749  82757088.92749  20210121.965    20210121.869    20210121.717  
 130768522.17946 101897560.32743  24884420.308    24884419.749    24884419.247  
 124772415.32746  97225255.60147  23743398.724    23743404.112    23743399.262  
 120649202.59047  94012354.51145  22958776.148    22958775.680    22958775.057  
 118854792.49047  92614130.97148  22617308.138    22617311.013    22617307.874  
 126055133.26946  98224776.52346  23987492.993    23987497.873    23987492.962  
 110639372.38248  86212495.55748  21053969.091    21053971.411    21053968.465  
 18 01 01 03 00 00.0000000  0  9G08G11G07G16G01G28G27G09G30          0.000000000
 107998539.11849  84154704.82649  20551431.254    20551434.065    20551430.733  
 116030304.25348  90413223.39046  22079827.499    22079827.682    22079827.180  
 106199760.92749  82753032.14649  20209131.157    20209131.089    20209130.919  
 130862209.65445 101970563.49643  24902246.365    24902247.735    24902247.962  
 124661298.30746  97138670.95747  23722253.360    23722259.349    23722253.914  
 120582049.45947  93960027.41445  22945997.322    22945997.297    22945996.719  
 118949591.48947  92688000.29548  22635348.093    22635350.552    22635347.308  
 126156220.41047  98303545.68346  24006730.929    24006734.357    24006729.907  
 110583641.53748  86169068.92148  21043363.634    21043366.239    21043363.374  
 18 01 01 03 00 30.0000000  0  9G08G11G07G16G01G28G27G09G30          0.000000000
 108034294.77649  84182566.37549  20558235.285    20558238.075    20558234.735  
 115938692.80548  90341837.86246  22062394.762    22062394.425    22062393.983  
 106195105.72149  82749404.70348  20208245.420    20208245.312    20208245.204  
 130955912.52146 102043578.65743  24920079.208    24920077.766    24920077.498  
 124550297.01947  97052176.46747  23701131.242    23701136.514    23701131.639  
 120515008.39247  93907787.62145  22933240.045    22933239.715    22933239.251  
 119044596.75647  92762030.36847  22653426.652    22653429.243    22653426.393  
 126257385.32447  98382375.42847  24025981.030    24025984.328    24025980.620  
 110528345.12048  86125980.80248  21032841.256    21032843.667    21032840.683  
 18 01 01 03 01 00.0000000  0  9G08G11G07G16G01G28G27G09G30          0.000000000
 108070508.25549  84210784.65549  20565126.513    20565129.408    20565125.914  
 115847435.93548  90270728.63646  22045028.820    22045029.235    22045028.036  
 106191002.42249  82746207.32549  20207464.604    20207464.414    20207464.240  
 131049629.64146 102116604.86843  24937912.072    24937912.053    24937911.110  
 124439414.54246  96965774.56947  23680031.499    23680035.713    23680031.271  
 120448079.51947  93855635.27445  22920503.278    22920503.160    22920503.265  
 119139805.92347  92836219.32847  22671545.151    22671546.718    22671544.334  
 126358625.04547  98461263.47047  24045245.810    24045249.667    24045246.189  
 110473485.17148  86083232.78448  21022401.748    21022404.211    21022401.003  
 18 01 01 03 01 30.0000000  0 10G08G11G07G16G01G28G27G09G30G13       0.000000000
 108107178.07649  84239358.54049  20572104.656    20572107.362    20572104.022  
 115756536.28048  90199897.74646  22027731.731    22027731.416    22027730.926  
 106187452.05649  82743440.79448  20206788.776    20206788.809    20206788.637  
 131143361.60846 102189642.73044  24955748.524    24955750.012    24955746.825  
 124328654.09746  96879467.75946  23658955.660    23658958.617    23658954.612  
 120381263.16047  93803570.58645  22907789.105    22907788.995    22907788.403  
 119235216.71447  92910565.38447  22689701.564    22689703.781    22689700.857  
 126459936.53247  98540207.43747  24064524.922    24064529.606    24064525.419  
 110419063.86248  86040826.56048  21012045.610    21012047.984    21012045.181  
 130160786.97446 101423981.42843  24768773.837    24768772.911    24768773.314  
 18 01 01 03 02 00.0000000  0 10G08G11G07G16G01G28G27G09G30G13       0.000000000
 108144302.43849  84268286.61749  20579169.267    20579171.977    20579168.499  
 115665996.50548  90129347.30146  22010501.766    22010501.825    22010501.376  
 106184455.62949  82741105.91349  20206218.886    20206218.667    20206218.416  
 131237107.63446 102262691.52943  24973586.695    24973588.028    24973585.733  
 124218018.88146  96793258.51147  23637902.455    23637906.427    23637901.255  
 120314559.54547  93751593.75345  22895095.509    22895095.188    22895094.581  
 119330826.75547  92985066.68547  22707895.406    22707896.874    22707894.493  
 126561316.79947  98619205.01547  24083818.086    24083821.118    24083817.442  
 110365083.27848  85998763.76048  21001773.449    21001775.913    21001773.083  
 130088533.54946 101367680.00743  24755022.565    24755023.293    24755022.196  
 18 01 01 03 02 30.0000000  0 10G08G11G07G16G01G28G27G09G30G13       0.000000000
 108181879.53249  84297567.45749  20586319.668    20586322.621    20586319.169  
 115575819.17748  90059079.28846  21993341.953    21993341.820    21993341.333  
 106182013.86649  82739203.25149  20205754.049    20205754.093    20205753.861  
 131330867.04546 102335750.72843  24991428.430    24991429.879    24991429.486  
 124107512.06346  96707149.31446  23616872.976    23616876.536    23616871.751  
 120247968.86747  93699704.91945  22882423.895    22882423.229    22882423.484  
 119426633.75247  93059721.48447  22726126.573    22726128.509    22726126.301  
 126662762.86046  98698253.84847  24103122.229    24103126.086    24103122.414  
 110311545.49548  85957046.00848  20991585.407    20991588.122    20991585.066  
 130016719.65047 101311721.10943  24741356.563    24741356.600    24741357.247  
