     2.01           OBSERVATION DATA    G                   RINEX VERSION / TYPE
Gnsser              GeoSolution         20180624 181340 UTC PGM / RUN BY / DATE
Built by Gnsser. www.gnsser.com, gnsser@163.com             COMMENT
Gnsser, a GNSS data processing software, created in China   COMMENT
CONCATENATED OBSERVATION FILES                              COMMENT
GRX1200 V7,80       NERC                2018 01 0  00:5     COMMENT
BIT 2 OF LLI FLAGS DATA COLLECTED UNDER A/S CONDITION       COMMENT
SNR is mapped to RINEX snr flag value [2-9]                 COMMENT
LX:     = 25dBHz -> 1; 26-27dBHz -> 2; 28-31dBHz -> 3       COMMENT
32-35dBHz -> 4; 36-38dBHz -> 5; 39-41dBHz -> 6              COMMENT
42-44dBHz -> 7; 45-48dBHz -> 8; >= 49dBHz -> 9              COMMENT
HERT                                                        MARKER NAME
13212M010                                                   MARKER NUMBER
NERC                                                        OBSERVER / AGENCY
355316              LEICA GRX1200GGPRO  7.80/3.055          REC # / TYPE / VERS
200429              LEIAT504GG      NONE                    ANT # / TYPE
Built by Gnsser. www.gnsser.com, gnsser@163.com             COMMENT
Gnsser, a GNSS data processing software, created in China   COMMENT
Approx XYZ updated with igs18P19821_all_CoordOnly.snx 2018-0COMMENT
Built by Gnsser. www.gnsser.com, gnsser@163.com             COMMENT
Gnsser, a GNSS data processing software, created in China   COMMENT
Approx XYZ updated with igs18P19821_all_CoordOnly.snx 2018-0COMMENT
  4033460.7531    23538.0162  4924318.3881                  APPROX POSITION XYZ
        0.0000        0.0000        0.0000                  ANTENNA: DELTA H/E/N
     4    C1    L1    P2    L2                              # / TYPES OF OBSERV
    30.000                                                  INTERVAL
  2018     1     1     0     0    0.0000000                 TIME OF FIRST OBS
  2018     1     1    23    59   30.0000000                 TIME OF LAST OBS
     0                                                      LEAP SECONDS
                                                            END OF HEADER
 18 01 01 00 00 00.0000000  0  9G05G16G20G21G25G26G27G29G31          0.000000000
  24135649.033   126833709.926 7  24135646.709    98831451.95844
  22247574.777   116911801.114 8  22247572.250    91100085.79646
  23518057.099   123588229.069 7  23518055.579    96302507.00044
  21443038.127   112683931.180 9  21443035.378    87805655.85249
  24164513.599   126985384.646 7  24164514.857    98949660.75045
  20716374.992   108865293.603 9  20716376.018    84830108.50949
  24296493.908   127678937.341 6  24296495.154    99490085.76344
  21772002.320   114412661.547 9  21772000.234    89152719.93147
  22094859.497   116109259.222 9  22094857.147    90474734.96648
 18 01 01 00 00 30.0000000  0  9G05G16G20G21G25G26G27G29G31          0.000000000
  24137452.011   126843184.975 7  24137449.894    98838835.10745
  22231335.835   116826465.298 8  22231333.309    91033590.34546
  23505239.999   123520874.325 7  23505238.358    96250022.80545
  21436274.620   112648388.810 9  21436271.902    87777960.50748
  24184277.420   127089244.033 8  24184278.702    99030590.12945
  20708794.949   108825460.337 9  20708795.995    84799069.59749
  24277192.542   127577507.324 6  24277193.395    99411049.44245
  21786909.987   114491001.427 9  21786907.883    89213763.99147
  22110171.021   116189721.722 9  22110168.605    90537433.00548
 18 01 01 00 01 00.0000000  0  9G05G16G20G21G25G26G27G29G31          0.000000000
  24139365.894   126853243.264 7  24139363.958    98846672.76644
  22215141.054   116741361.089 8  22215138.478    90967275.38346
  23492494.572   123453896.372 7  23492492.864    96197832.19844
  21429600.323   112613315.269 9  21429597.629    87750630.48548
  24204067.085   127193238.692 8  24204068.110    99111624.94145
  20701293.455   108786039.740 9  20701294.510    84768352.24349
  24257912.403   127476189.605 6  24257913.254    99332100.59645
  21801860.339   114569565.867 9  21801858.178    89274983.01747
  22125554.743   116270563.815 9  22125552.319    90600426.83347
 18 01 01 00 01 30.0000000  0  9G05G16G20G21G25G26G27G29G31          0.000000000
  24141390.681   126863883.503 7  24141388.785    98854963.86844
  22198990.299   116656488.590 8  22198987.754    90901140.96746
  23479821.183   123387296.768 7  23479819.314    96145936.39144
  21423014.969   112578709.146 9  21423012.315    87723664.68348
  24223882.022   127297366.083 8  24223882.861    99192763.14145
  20693870.512   108747031.949 9  20693871.555    84737956.56349
  24238653.486   127374983.888 6  24238654.513    99253239.09245
  21816852.803   114648352.026 9  21816850.678    89336374.81947
  22141009.967   116351781.499 9  22141007.575    90663713.33048
 18 01 01 00 02 00.0000000  0  9G05G16G20G21G25G26G27G29G31          0.000000000
  24143527.313   126875111.944 7  24143525.303    98863713.28244
  22182885.288   116571856.287 8  22182882.797    90835193.71946
  23467221.423   123321084.272 7  23467219.245    96094342.26844
  21416519.847   112544577.325 9  21416517.265    87697068.46948
  24243723.058   127401631.262 7  24243723.766    99274008.71245
  20686527.640   108708444.700 9  20686528.622    84707888.57149
  24219417.437   127273897.447 6  24219418.565    99174470.49545
  21831888.310   114727364.421 9  21831886.235    89397942.90447
  22156537.519   116433378.899 9  22156535.097    90727295.70247
 18 01 01 00 02 30.0000000  0  9G05G16G20G21G25G26G27G29G31          0.000000000
  24145774.104   126886919.450 7  24145772.105    98872913.94144
  22166824.492   116487456.551 8  22166822.071    90769427.69246
  23454694.053   123255252.871 7  23454691.907    96043045.06645
  21410113.461   112510911.691 9  21410110.921    87670835.51448
  24263588.292   127506024.061 7  24263589.003    99355353.74345
  20679263.364   108670270.528 9  20679264.315    84678142.46049
  24200202.546   127172922.372 6  24200203.562    99095788.67245
  21846964.959   114806592.560 9  21846962.688    89459679.11147
  22172135.161   116515344.734 9  22172132.685    90791165.16447
 18 01 01 00 03 00.0000000  0  9G05G16G20G21G25G26G27G29G31          0.000000000
  24148132.358   126899311.646 7  24148130.164    98882570.20944
  22150809.385   116403296.773 8  22150806.948    90703848.65646
  23442240.753   123189810.775 7  23442238.763    95992051.25745
  21403796.942   112477718.110 9  21403794.399    87644970.38748
  24283478.627   127610548.716 7  24283479.498    99436801.47344
  20672078.979   108632516.331 9  20672079.929    84648723.60549
  24181010.024   127072064.930 7  24181010.998    99017198.51545
  21862083.489   114886040.544 9  21862081.077    89521586.62047
  22187803.463   116597682.048 9  22187800.898    90855324.10047
 18 01 01 00 03 30.0000000  0  9G05G16G20G21G25G26G27G29G31          0.000000000
  24150601.449   126912287.033 7  24150599.195    98892680.94845
  22134840.116   116319377.596 8  22134837.569    90638457.09446
  23429861.975   123124759.515 7  23429859.923    95941361.95245
  21397570.169   112444996.158 9  21397567.639    87619472.76849
  24303393.661   127715202.794 8  24303394.487    99518350.10544
  20664974.547   108595182.356 9  20664975.534    84619632.19049
  24161839.818   126971325.053 6  24161840.744    98938699.99844
  21877243.327   114965705.740 9  21877240.843    89583663.39647
  22203541.707   116680387.044 9  22203539.107    90919769.54347
 18 01 01 00 04 00.0000000  0  9G05G16G20G21G25G26G27G29G31          0.000000000
  24153181.465   126925844.505 7  24153179.199    98903245.22644
  22118916.890   116235700.053 8  22118914.262    90573253.79847
  23417557.938   123060100.754 7  23417555.818    95890978.50045
  21391432.966   112412744.966 9  21391430.449    87594341.98249
  24323332.895   127819984.221 7  24323333.691    99599997.95145
  20657950.178   108558269.205 9  20657951.208    84590868.69749
  24142692.009   126870702.804 6  24142692.789    98860293.07045
  21892443.995   115045585.678 9  21892441.543    89645907.49347
  22219349.353   116763456.550 9  22219346.711    90984499.01648
 18 01 01 00 04 30.0000000  0  9G05G16G20G21G25G26G27G29G31          0.000000000
  24155872.361   126939985.242 7  24155870.046    98914263.97045
  22103040.153   116152267.289 8  22103037.545    90508241.27246
  23405329.283   122995838.577 7  23405327.117    95840904.09845
  21385385.831   112380966.927 9  21385383.262    87569579.87449
  24343296.463   127924893.127 7  24343297.156    99681745.14844
  20651006.418   108521779.672 9  20651007.480    84562435.29449
  24123567.032   126770200.517 6  24123567.675    98781979.64345
  21907685.340   115125679.491 9  21907682.945    89708318.24447
  22235226.151   116846889.489 9  22235223.486    91049511.68447
 18 01 01 00 05 00.0000000  0 10G05G16G18G20G21G25G26G27G29G31       0.000000000
  24158674.686   126954711.281 7  24158672.358    98925738.81745
  22087210.842   116069083.475 8  22087208.235    90443422.72346
  25309500.575   133002324.961 5  25309500.746   103638173.88454
  23393177.070   122931978.526 7  23393174.971    95791143.01144
  21379429.286   112349664.836 9  21379426.633    87545188.64249
  24363284.415   128029930.656 7  24363285.102    99763592.53344
  20644144.033   108485717.512 9  20644145.098    84534334.91349
  24104465.529   126669821.561 7  24104466.173    98703762.35944
  21922967.870   115205989.577 9  21922965.536    89770897.52847
  22251172.147   116930686.024 9  22251169.473    91114807.67447
 18 01 01 00 05 30.0000000  0 10G05G16G18G20G21G25G26G27G29G31       0.000000000
  24161585.330   126970006.600 8  24161583.088    98937657.27644
  22071426.306   115986134.616 8  22071423.526    90378787.24146
  25292845.129   132914802.350 5  25292844.051   103569974.56442
  23381098.684   122868506.810 7  23381096.740    95741684.54144
  21373560.409   112318823.607 9  21373557.681    87521156.52149
  24383293.603   128135079.595 7  24383294.242    99845526.77044
  20637360.233   108450068.263 9  20637361.279    84506556.27149
  24085384.736   126569551.047 7  24085385.264    98625629.53145
  21938288.058   115286497.814 9  21938285.772    89833631.19847
  22267183.757   117014827.549 9  22267181.086    91180372.48847
 18 01 01 00 06 00.0000000  0 10G05G16G18G20G21G25G26G27G29G31       0.000000000
  24164609.938   126985900.636 7  24164607.639    98950042.24844
  22055692.390   115903451.937 8  22055689.457    90314359.18946
  25276181.348   132827234.430 5  25276179.523   103501739.84042
  23369100.354   122805456.148 7  23369098.461    95692554.16945
  21367784.807   112288472.766 9  21367782.079    87497506.52149
  24403329.390   128240368.323 7  24403330.015    99927569.92545
  20630660.931   108414862.984 9  20630661.914    84479123.57949
  24066330.268   126469419.415 7  24066331.008    98547604.92544
  21953651.316   115367232.336 9  21953648.986    89896541.21647
  22283266.229   117099341.290 9  22283263.527    91246227.34547
 18 01 01 00 06 30.0000000  0 10G05G16G18G20G21G25G26G27G29G31       0.000000000
  24167744.106   127002371.524 7  24167741.771    98962876.73044
  22040005.420   115821016.188 8  22040002.437    90250123.53947
  25259505.434   132739602.614 5  25259503.494   103433455.26843
  23357178.657   122742807.716 7  23357176.894    95643737.20945
  21362098.527   112258591.241 9  21362095.804    87474222.22449
  24423387.619   128345774.489 7  24423388.191   100009704.59245
  20624042.318   108380081.897 9  20624043.316    84452021.43449
  24047298.371   126369406.555 6  24047299.106    98469672.87844
  21969053.278   115448170.596 9  21969050.936    89959609.97547
  22299414.968   117184203.537 9  22299412.296    91312353.75247
 18 01 01 00 07 00.0000000  0 10G05G16G18G20G21G25G26G27G29G31       0.000000000
  24170988.664   127019422.079 7  24170986.189    98976162.86945
  22024366.286   115738831.821 9  22024363.275    90186083.77347
  25242818.339   132651912.067 5  25242816.497   103365124.93242
  23345334.595   122680566.773 7  23345332.906    95595237.77044
  21356502.243   112229182.531 9  21356499.510    87451306.34649
  24443468.419   128451299.585 7  24443469.139   100091931.86344
  20617505.193   108345729.100 9  20617506.230    84425253.01749
  24028289.881   126269516.218 6  24028290.448    98391836.27644
  21984494.223   115529313.619 9  21984491.922    90022838.29747
  22315630.047   117269414.548 9  22315627.476    91378751.93447
 18 01 01 00 07 30.0000000  0 10G05G16G18G20G21G25G26G27G29G31       0.000000000
  24174343.989   127037054.917 7  24174341.468    98989902.77044
  22008776.024   115656904.067 8  22008773.003    90122243.97647
  25226121.266   132564168.594 5  25226119.132   103296753.39343
  23333569.285   122618739.443 7  23333567.600    95547060.63745
  21350996.674   112200250.517 9  21350993.916    87428761.92649
  24463572.190   128556945.535 7  24463572.997   100174253.40245
  20611050.451   108311809.232 9  20611051.491    84398821.94849
  24009305.332   126169752.482 6  24009306.056    98314098.35945
  21999974.607   115610663.355 9  21999972.396    90086227.69147
  22331911.667   117354975.135 9  22331909.165    91445422.51647
 18 01 01 00 08 00.0000000  0 10G05G16G18G20G21G25G26G27G29G31       0.000000000
  24177809.614   127055267.363 7  24177807.237    99004094.30044
  21993234.350   115575231.797 8  21993231.245    90058603.23847
  25209414.093   132476371.520 5  25209411.720   103228340.13144
  23321882.678   122557325.879 7  23321881.086    95499205.91545
  21345581.303   112171792.696 9  21345578.562    87406587.00449
  24483698.186   128662708.457 7  24483699.229   100256666.04044
  20604677.881   108278321.069 9  20604678.896    84372727.27249
  23990344.692   126070113.809 7  23990345.385    98236457.89145
  22015493.572   115692215.571 9  22015491.414    90149774.86647
  22348258.900   117440880.270 9  22348256.481    91512361.57747
 18 01 01 00 08 30.0000000  0 10G05G16G18G20G21G25G26G27G29G31       0.000000000
  24181386.155   127074061.631 7  24181383.805    99018739.18644
  21977742.297   115493820.510 8  21977739.177    89995165.89047
  25192697.667   132388526.136 5  25192695.233   103159889.13744
  23310275.912   122496331.915 7  23310274.374    95451678.18645
  21340256.837   112143812.528 9  21340254.093    87384784.28049
  24503846.714   128768590.329 7  24503847.844   100339171.37344
  20598388.296   108245269.129 9  20598389.314    84346972.51649
  23971408.578   125970604.248 7  23971409.303    98158918.01944
  22031051.302   115773972.060 9  22031049.228    90213481.21047
  22364671.758   117527130.360 9  22364669.413    91579569.43247
 18 01 01 00 09 00.0000000  0 10G05G16G18G20G21G25G26G27G29G31       0.000000000
  24185072.366   127093432.538 8  24185070.062    99033833.41944
  21962299.246   115412666.652 9  21962296.096    89931929.12347
  25175971.881   132300631.363 5  25175969.420   103091399.71643
  23298748.464   122435754.317 8  23298746.731    95404474.85244
  21335022.502   112116305.911 9  21335019.779    87363350.55649
  24524016.717   128874584.858 7  24524017.811   100421764.52944
  20592181.081   108212649.819 9  20592182.076    84321554.86949
  23952496.255   125871219.786 6  23952497.054    98081475.65845
  22046646.532   115855926.312 9  22046644.564    90277341.64847
  22381148.766   117613717.904 9  22381146.469    91647040.23047
 18 01 01 00 09 30.0000000  0 10G05G16G18G20G21G25G26G27G29G31       0.000000000
  24188869.190   127113384.794 7  24188866.918    99049380.62745
  21946906.482   115331777.073 9  21946903.293    89868898.28447
  25159237.916   132212693.604 6  25159235.361   103022876.72544
  23287301.817   122375601.380 7  23287299.879    95357602.42444
  21329879.217   112089277.794 9  21329876.523    87342289.69749
  24544208.910   128980695.583 7  24544209.961   100504448.21345
  20586057.350   108180469.307 9  20586058.363    84296479.13849
  23933608.913   125771966.105 6  23933609.683    98004135.17945
  22062280.087   115938081.897 9  22062278.207    90341358.96947
  22397690.567   117700645.732 9  22397688.229    91714776.19447
 18 01 01 00 10 00.0000000  0 10G05G16G18G20G21G25G26G27G29G31       0.000000000
  24192776.240   127133916.337 7  24192773.815    99065379.23244
  21931564.079   115251152.127 8  21931560.863    89806073.65447
  25142495.907   132124713.723 5  25142493.593   102954321.04444
  23275936.179   122315874.087 7  23275934.141    95311061.68345
  21324826.618   112062726.351 9  21324823.971    87321600.26649
  24564422.789   129086919.891 7  24564423.805   100587220.38345
  20580017.092   108148727.559 9  20580018.108    84271745.31149
  23914746.355   125672842.944 6  23914747.110    97926896.40646
  22077951.615   116020436.056 9  22077949.665    90405531.03747
  22414296.314   117787909.612 9  22414293.919    91782774.01547
 18 01 01 00 10 30.0000000  0 10G05G16G18G20G21G25G26G27G29G31       0.000000000
  24196793.147   127155025.456 7  24196790.587    99081827.87645
  21916272.123   115170792.352 9  21916268.943    89743455.65647
  25125746.145   132036693.180 5  25125743.937   102885733.67143
  23264651.732   122256573.623 7  23264649.723    95264853.54545
  21319864.677   112036651.287 9  21319862.051    87301282.04349
  24584657.778   129193255.259 7  24584658.798   100670079.09645
  20574060.351   108117424.634 9  20574061.393    84247353.41849
  23895908.528   125573849.851 6  23895909.232    97849759.00345
  22093660.399   116102985.637 9  22093658.317    90469855.37347
  22430965.240   117875505.544 9  22430962.803    91851030.56847
 18 01 01 00 11 00.0000000  0 10G05G16G18G20G21G25G26G27G29G31       0.000000000
  24200920.081   127176712.738 7  24200917.507    99098727.08444
  21901031.162   115090700.852 9  21901028.051    89681046.69647
  25108989.297   131948635.700 5  25108987.364   102817117.36143
  23253449.139   122197703.812 7  23253447.243    95218980.97144
  21314993.758   112011054.482 9  21314991.129    87281336.48349
  24604913.899   129299701.708 7  24604914.936   100753024.37445
  20568187.634   108086563.245 9  20568188.705    84223305.57949
  23877095.936   125474989.256 6  23877096.721    97772724.78845
  22109406.271   116185730.884 9  22109404.232    90534332.17047
  22447697.173   117963432.575 9  22447694.731    91919545.13147
 18 01 01 00 11 30.0000000  0 10G05G16G18G20G21G25G26G27G29G31       0.000000000
  24205156.600   127198975.657 7  24205154.024    99116074.82344
  21885841.277   115010877.554 9  21885838.183    89618846.72747
  25092225.497   131860541.780 5  25092223.619   102748472.81243
  23242328.612   122139265.433 7  23242326.860    95173444.57545
  21310213.492   111985934.036 9  21310210.857    87261762.12349
  24625190.560   129406256.095 7  24625191.576   100836053.74345
  20562398.836   108056142.803 9  20562399.880    84199601.33649
  23858308.304   125376260.002 6  23858309.126    97695792.91545
  22125188.734   116268668.278 9  22125186.762    90598958.69747
  22464491.226   118051686.066 9  22464488.790    91988314.06947
 18 01 01 00 12 00.0000000  0 10G05G16G18G20G21G25G26G27G29G31       0.000000000
  24209503.046   127221816.299 7  24209500.644    99133872.73844
  21870703.285   114931326.896 8  21870700.189    89556859.20447
  25075455.786   131772416.105 5  25075453.470   102679803.46343
  23231291.089   122081263.351 7  23231289.358    95128248.16145
  21305524.338   111961292.310 9  21305521.686    87242560.78249
  24645487.991   129512919.548 7  24645488.806   100919168.15644
  20556694.643   108026167.034 9  20556695.681    84176243.59649
  23839546.348   125277665.590 7  23839547.269    97618966.09145
  22141008.127   116351799.134 9  22141006.075    90663735.97447
  22481347.425   118140266.108 9  22481344.959    92057337.47047
 18 01 01 00 12 30.0000000  0 10G05G16G18G20G21G25G26G27G29G31       0.000000000
  24213958.908   127245232.280 7  24213956.481    99152118.92045
  21855617.226   114852049.134 9  21855614.151    89495084.32547
  25058680.291   131684259.896 6  25058677.758   102611110.24643
  23220336.868   122023698.386 7  23220334.966    95083392.35045
  21300926.082   111937128.304 9  21300923.446    87223731.69449
  24665805.577   129619689.272 7  24665806.354   101002365.31645
  20551075.018   107996635.704 9  20551076.054    84153232.16149
  23820809.955   125179205.473 7  23820810.961    97542243.94745
  22156863.643   116435119.969 9  22156861.504    90728661.28547
  22498265.005   118229168.494 9  22498262.515    92126612.04547
 18 01 01 00 13 00.0000000  0 10G05G16G18G20G21G25G26G27G29G31       0.000000000
  24218524.665   127269226.307 7  24218522.439    99170815.61245
  21840584.090   114773049.526 9  21840581.055    89433526.19247
  25041899.980   131596072.906 5  25041897.678   102542381.8654 
  23209467.008   121966576.560 7  23209464.875    95038881.86145
  21296419.356   111913445.417 9  21296416.748    87205277.50349
  24686143.701   129726567.157 7  24686144.544   101085646.77944
  20545540.828   107967553.350 9  20545541.866    84130570.58449
  23802099.887   125080883.844 7  23802101.009    97465629.75845
  22172755.736   116518633.091 9  22172753.502    90793736.43247
  22515244.067   118318393.937 9  22515241.589    92196138.35047
 18 01 01 00 13 30.0000000  0 10G05G16G18G20G21G25G26G27G29G31       0.000000000
  24223199.484   127293792.376 7  24223197.326    99189957.99744
  21825603.244   114694324.550 9  21825600.213    89372182.05847
  25025114.241   131507863.412 5  25025112.325   102473649.93544
  23198680.912   121909894.817 7  23198678.670    94994714.26645
  21292003.193   111890238.461 9  21292000.603    87187194.16749
  24706501.228   129833546.798 7  24706502.086   101169007.52945
  20540091.307   107938915.995 9  20540092.369    84108255.75849
  23783415.321   124982696.278 7  23783416.470    97389119.99545
  22188683.110   116602331.593 9  22188680.873    90858956.04147
  22532283.075   118407934.497 9  22532280.653    92265910.21047
 18 01 01 00 14 00.0000000  0 10G05G16G18G20G21G25G26G27G29G31       0.000000000
  24227983.567   127318932.796 7  24227981.426    99209547.93445
  21810675.531   114615879.010 9  21810672.488    89311055.66447
  25008324.426   131419631.464 5  25008323.049   102404901.52943
  23187979.565   121853658.567 7  23187977.252    94950893.81745
  21287678.232   111867510.740 9  21287675.673    87169484.25849
  24726878.382   129940629.631 7  24726879.240   101252448.68444
  20534727.241   107910727.799 9  20534728.314    84086290.93649
  23764757.042   124884646.493 7  23764758.172    97312717.57945
  22204645.998   116686217.007 9  22204643.824    90924321.28547
  22549382.084   118497790.426 9  22549379.760    92335927.80447
 18 01 01 00 14 30.0000000  0 10G05G16G18G20G21G25G26G27G29G31       0.000000000
  24232877.109   127344647.923 8  24232874.761    99229585.73044
  21795801.544   114537715.649 9  21795798.444    89250149.15247
  24991531.213   131331382.156 5  24991529.885   102336136.79942
  23177363.622   121797871.345 7  23177361.274    94907423.26044
  21283444.700   111845263.397 9  21283442.158    87152148.66849
  24747275.164   130047815.636 7  24747276.017   101335970.24644
  20529449.122   107882991.270 9  20529450.223    84064678.04849
  23746125.513   124786736.853 7  23746126.557    97236424.39145
  22220644.307   116770289.018 9  22220642.281    90989831.91647
  22566540.852   118587960.392 9  22566538.537    92406190.11747
 18 01 01 00 15 00.0000000  0 10G05G16G18G20G21G25G26G27G29G31       0.000000000
  24237878.674   127370931.299 7  24237876.293    99250066.26245
  21780980.432   114459830.119 9  21780977.268    89189459.12847
  24974733.698   131243110.540 6  24974732.054   102267353.7684 
  23166832.376   121742529.754 7  23166830.149    94864299.95345
  21279301.534   111823490.893 9  21279298.975    87135183.09249
  24767690.234   130155097.495 7  24767691.118   101419566.47644
  20524256.039   107855701.567 9  20524257.140    84043413.34149
  23727519.643   124688962.105 6  23727520.593    97160236.31345
  22236676.676   116854540.112 9  22236674.794    91055482.11147
  22583757.746   118678435.798 9  22583755.475    92476690.42247
 18 01 01 00 15 30.0000000  0 11G05G09G16G18G20G21G25G26G27G29G31    0.000000000
  24242989.872   127397790.874 7  24242987.444    99270995.80444
  25037644.399   131573707.250 6  25037644.363   102524963.83845
  21766214.270   114382233.366 9  21766211.089    89128994.12347
  24957934.144   131154828.000 5  24957932.287   102198562.1734 
  23156388.046   121687644.875 7  23156385.900    94821532.51145
  21275250.340   111802201.680 9  21275247.757    87118594.10049
  24788124.956   130262482.574 7  24788125.774   101503243.18944
  20519149.908   107828868.749 9  20519151.007    84022504.64649
  23708941.231   124591331.962 7  23708942.094    97084160.91046
  22252744.750   116938977.830 9  22252742.729    91121277.73747
  22601033.942   118769222.703 9  22601031.677    92547433.46347
 18 01 01 00 16 00.0000000  0 11G05G09G16G18G20G21G25G26G27G29G31    0.000000000
  24248209.385   127425219.031 7  24248206.864    99292368.42045
  25039764.467   131584847.828 5  25039764.201   102533644.78944
  21751502.088   114304920.304 9  21751498.943    89068750.18847
  24941131.605   131066529.997 6  24941129.867   102129758.54843
  23146029.778   121633212.204 7  23146027.749    94779117.47545
  21271289.697   111781388.391 9  21271287.095    87102375.95949
  24808577.724   130369962.855 7  24808578.599   101586994.07045
  20514129.632   107802487.188 9  20514130.779    84001947.58849
  23690389.229   124493840.599 7  23690390.131    97008193.68146
  22268846.682   117023593.901 9  22268844.542    91187212.32847
  22618367.690   118860311.899 9  22618365.446    92618412.04147
 18 01 01 00 16 30.0000000  0 11G05G09G16G18G20G21G25G26G27G29G31    0.000000000
  24253537.354   127453217.929 7  24253534.948    99314185.73344
  25041987.010   131596527.092 5  25041986.680   102542745.48345
  21736844.825   114227895.978 9  21736841.763    89008731.23747
  24924327.243   130978222.322 6  24924325.366   102060947.36743
  23135758.515   121579236.644 7  23135756.475    94737058.60245
  21267420.347   111761054.860 9  21267417.734    87086531.65849
  24829048.861   130477539.987 6  24829049.990   101670820.39345
  20509196.056   107776561.122 9  20509197.191    83981745.45149
  23671864.348   124396491.895 7  23671865.286    96932337.59446
  22284982.624   117108389.367 9  22284980.546    91253286.69547
  22635758.962   118951703.551 9  22635756.734    92689626.30447
 18 01 01 00 17 00.0000000  0 11G05G09G16G18G20G21G25G26G27G29G31    0.000000000
  24258973.864   127481786.643 7  24258971.254    99336447.08044
  25044311.967   131608744.763 5  25044311.875   102552265.74745
  21722242.953   114151162.663 9  21722239.962    88948939.03547
  24907521.607   130889907.873 5  24907519.350   101992130.92044
  23125574.911   121525721.931 7  23125573.014    94695358.85645
  21263642.511   111741202.174 9  21263639.865    87071062.03849
  24849538.250   130585213.014 6  24849539.487   101754721.42344
  20504349.484   107751092.148 9  20504350.586    83961899.49849
  23653366.813   124299287.043 7  23653367.748    96856593.56546
  22301152.653   117193363.862 9  22301150.672    91319500.56747
  22653207.386   119043395.588 9  22653205.137    92761074.62947
 18 01 01 00 17 30.0000000  0 11G05G09G16G18G20G21G25G26G27G29G31    0.000000000
  24264518.273   127510922.963 7  24264515.707    99359150.74844
  25046738.929   131621498.348 5  25046738.592   102562203.59745
  21707696.437   114074720.291 9  21707693.477    88889373.55547
  24890714.811   130801587.835 5  24890712.489   101923310.08543
  23115479.064   121472668.344 7  23115477.383    94654018.39545
  21259955.677   111721827.591 9  21259952.968    87055964.96649
  24870045.388   130692978.937 6  24870046.617   101838694.86244
  20499589.792   107726079.764 9  20499590.891    83942409.32449
  23634896.472   124202225.344 7  23634897.493    96780961.12046
  22317356.273   117278514.182 9  22317354.283    91385851.44747
  22670712.075   119135383.390 9  22670709.753    92832753.43347
 18 01 01 00 18 00.0000000  0 11G05G09G16G18G20G21G25G26G27G29G31    0.000000000
  24270171.212   127540629.437 7  24270168.718    99382298.66044
  25049268.358   131634790.606 6  25049267.939   102572561.16444
  21693206.325   113998574.246 9  21693203.380    88830038.97447
  24873907.925   130713267.736 5  24873905.791   101854489.22643
  23105472.186   121420081.725 7  23105470.593    94613041.83945
  21256360.596   111702935.183 9  21256357.821    87041243.61249
  24890570.775   130800839.867 7  24890571.952   101922742.35544
  20494917.859   107701528.653 9  20494919.010    83923278.58849
  23616454.366   124105311.268 7  23616455.313    96705443.71146
  22333593.837   117363842.549 9  22333591.794    91452341.06747
  22688273.232   119227667.973 9  22688270.864    92904663.48847
 18 01 01 00 18 30.0000000  0 11G05G09G16G18G20G21G25G26G27G29G31    0.000000000
  24275931.625   127570900.902 7  24275929.310    99405886.82044
  25051899.308   131648616.472 5  25051899.030   102583334.60644
  21678772.132   113922722.196 9  21678769.205    88770933.48847
  24857100.749   130624946.054 5  24857098.890   101785667.14042
  23095553.842   121367959.993 7  23095552.022    94572427.49844
  21252856.569   111684521.209 9  21252853.694    87026895.07149
  24911113.232   130908790.494 7  24911114.229   102006859.76144
  20490333.189   107677435.921 9  20490334.315    83904505.02449
  23598039.718   124008541.549 7  23598040.547    96630038.77345
  22349864.205   117449343.354 9  22349862.113    91518965.05747
  22705889.679   119320242.785 9  22705887.263    92976799.69447
 18 01 01 00 19 00.0000000  0 11G05G09G16G18G20G21G25G26G27G29G31    0.000000000
  24281799.671   127601738.384 7  24281797.567    99429916.00644
  25054631.892   131662976.880 5  25054631.810   102594524.55444
  21664394.583   113847167.931 9  21664391.739    88712060.03647
  24840294.143   130536626.943 6  24840292.321   101716847.04342
  23085724.621   121316307.318 7  23085722.721    94532178.66445
  21249443.803   111666586.922 9  21249440.873    87012920.30749
  24931672.803   131016831.087 7  24931673.560   102091047.23644
  20485836.296   107653804.419 9  20485837.378    83886090.86049
  23579653.034   123911918.730 7  23579653.762    96554748.30846
  22366167.278   117535016.947 9  22366165.229    91585723.67047
  22723561.092   119413106.524 9  22723558.668    93049161.03247
 18 01 01 00 19 30.0000000  0 11G05G09G16G18G20G21G25G26G27G29G31    0.000000000
  24287775.215   127633140.675 7  24287773.212    99454385.30644
  25057466.035   131677870.649 5  25057465.960   102606130.08945
  21650073.989   113771912.734 9  21650071.168    88653419.62747
  24823488.445   130448312.395 5  24823486.455   101648030.46844
  23075985.045   121265125.535 7  23075983.000    94492296.76645
  21246122.131   111649131.488 9  21246119.200    86999318.67849
  24952249.087   131124960.095 7  24952249.663   102175303.63045
  20481427.328   107630634.988 9  20481428.399    83868036.75849
  23561294.467   123815443.523 7  23561295.114    96479572.84146
  22382502.888   117620861.419 9  22382500.842    91652615.45847
  22741286.921   119506256.347 9  22741284.591    93121745.29347
 18 01 01 00 20 00.0000000  0 11G05G09G16G18G20G21G25G26G27G29G31    0.000000000
  24293858.359   127665108.311 7  24293856.405    99479295.16744
  25060401.687   131693298.348 6  25060401.671   102618151.71544
  21635810.954   113696960.012 9  21635808.146    88595014.90347
  24806684.399   130360006.439 6  24806682.399   101579220.62944
  23066335.747   121214418.512 7  23066333.719    94452784.80946
  21242891.914   111632156.755 9  21242889.020    86986091.62049
  24972842.233   131233177.636 7  24972842.778   102259628.99944
  20477106.822   107607930.311 9  20477107.884    83850344.79549
  23542964.547   123719118.232 7  23542964.946    96404514.19746
  22398871.122   117706876.431 9  22398868.913    91719640.14047
  22759066.935   119599691.136 9  22759064.674    93194551.60847
 18 01 01 00 20 30.0000000  0 11G05G09G16G18G20G21G25G26G27G29G31    0.000000000
  24300048.383   127697636.687 7  24300046.258    99504641.96244
  25063438.323   131709255.839 5  25063438.024   102630586.10644
  21621605.231   113622308.515 9  21621602.435    88536844.90447
  24789882.064   130271708.934 5  24789880.363   101510417.39144
  23056776.640   121164185.187 7  23056774.790    94413641.98044
  21239752.608   111615659.695 9  21239749.734    86973236.77949
  24993451.320   131341479.159 7  24993451.745   102344019.79045
  20472874.332   107585688.293 9  20472875.403    83833013.35749
  23524662.614   123622940.689 7  23524662.888    96329570.71345
  22415271.125   117793058.568 9  22415268.959    91786795.03147
  22776900.017   119693404.892 8  22776897.856    93267575.30547
 18 01 01 00 21 00.0000000  0 11G05G09G16G18G20G21G25G26G27G29G31    0.000000000
  24306345.610   127730728.360 7  24306343.390    99530427.68744
  25066576.179   131725745.593 5  25066576.008   102643435.28343
  21607457.808   113547963.578 9  21607455.043    88478913.78647
  24773082.414   130183425.618 5  24773080.486   101441625.17943
  23047308.878   121114431.528 8  23047307.109    94374872.91145
  21236704.841   111599643.671 9  21236701.984    86960756.77049
  25014076.839   131449866.766 7  25014077.373   102428477.65544
  20468730.739   107563913.484 9  20468731.787    83816045.96949
  23506389.494   123526915.132 7  23506389.691    96254745.63845
  22431703.159   117879409.404 9  22431701.032    91854081.37646
  22794786.339   119787398.228 9  22794784.219    93340816.85547
 18 01 01 00 21 30.0000000  0 11G05G09G16G18G20G21G25G26G27G29G31    0.000000000
  24312749.533   127764380.857 7  24312747.220    99556650.40144
  25069814.884   131742764.912 5  25069814.679   102656697.12945
  21593368.724   113473925.033 9  21593365.992    88421221.41047
  24756285.556   130095157.260 5  24756283.660   101372844.62843
  23037932.403   121065157.753 7  23037930.590    94336477.76245
  21233748.173   111584106.401 9  21233745.346    86948649.81249
  25034718.099   131558337.482 7  25034718.795   102513000.34144
  20464675.958   107542605.363 9  20464677.006    83799442.23949
  23488145.097   123431040.797 7  23488145.308    96180038.40346
  22448166.566   117965925.521 9  22448164.604    91921496.51446
  22812725.156   119881667.167 9  22812722.940    93414273.15846
 18 01 01 00 22 00.0000000  0 11G05G09G16G18G20G21G25G26G27G29G31    0.000000000
  24319260.073   127798593.583 7  24319257.622    99583309.66444
  25073154.287   131760313.573 5  25073154.162   102670371.36444
  21579338.473   113400195.662 9  21579335.783    88363769.95347
  24739492.078   130006907.046 5  24739490.330   101304078.22744
  23028647.887   121016366.803 7  23028645.887    94298458.87644
  21230882.790   111569048.872 9  21230880.010    86936916.68149
  25055375.057   131666890.551 7  25055375.835   102597587.12744
  20460710.330   107521765.702 9  20460711.347    83783203.53649
  23469929.814   123335319.215 7  23469930.054    96105450.18446
  22464661.354   118052606.647 9  22464659.605    91989040.22647
  22830716.020   119976209.502 9  22830713.684    93487942.50746
 18 01 01 00 22 30.0000000  0 11G05G09G16G18G20G21G25G26G27G29G31    0.000000000
  24325876.845   127833364.604 7  24325874.379    99610403.96244
  25076594.088   131778389.701 5  25076593.875   102684456.72144
  21565367.345   113326776.869 9  21565364.648    88306560.50748
  24722702.336   129918676.504 6  24722700.648   101235327.14743
  23019455.490   120968060.045 8  23019453.442    94260817.23445
  21228108.578   111554470.381 9  21228105.839    86925556.82449
  25076047.261   131775524.021 6  25076048.219   102682236.57344
  20456833.880   107501394.860 9  20456834.905    83767330.15449
  23451743.678   123239750.641 7  23451743.867    96030981.20245
  22481187.293   118139450.463 9  22481185.422    92056710.73147
  22848758.213   120071021.815 8  22848755.851    93561822.21946
 18 01 01 00 23 00.0000000  0 11G05G09G16G18G20G21G25G26G27G29G31    0.000000000
  24332599.860   127868694.767 7  24332597.484    99637933.96944
  25080134.429   131796994.181 6  25080134.126   102698953.66943
  21551455.917   113253671.923 9  21551453.279    88249595.61147
  24705917.303   129830470.467 6  24705915.345   101166595.18044
  23010355.954   120920241.374 8  23010353.937    94223555.95945
  21225425.790   111540372.300 9  21225423.080    86914571.31549
  25096734.927   131884238.219 7  25096735.814   102766948.98144
  20453047.193   107481495.689 9  20453048.214    83751824.30649
  23433587.112   123144337.573 7  23433587.368    95956633.35846
  22497744.182   118226457.462 9  22497742.179    92124508.37546
  22866851.562   120166103.070 9  22866849.194    93635911.50746
 18 01 01 00 23 30.0000000  0 11G05G09G16G18G20G21G25G26G27G29G31    0.000000000
  24339428.449   127904579.356 7  24339426.107    99665896.00245
  25083774.455   131816122.373 6  25083774.123   102713858.72344
  21537603.928   113180879.451 9  21537601.313    88192874.20247
  24689136.806   129742287.994 6  24689134.501   101097881.57542
  23001348.979   120872909.570 7  23001347.078    94186674.04445
  21222833.707   111526750.812 9  21222830.989    86903957.18349
  25117437.011   131993028.361 7  25117438.012   102851720.49644
  20449349.796   107462065.784 9  20449350.823    83736684.11649
  23415459.686   123049077.578 7  23415460.050    95882404.81246
  22514331.122   118313622.916 9  22514329.120    92192429.47946
  22884994.919   120261447.309 8  22884992.667    93710205.70446
 18 01 01 00 24 00.0000000  0 11G05G09G16G18G20G21G25G26G27G29G31    0.000000000
  24346363.074   127941021.491 7  24346360.967    99694292.46744
  25087514.684   131835777.556 6  25087514.477   102729174.45744
  21523812.539   113108405.280 9  21523809.956    88136400.82648
  24672362.137   129654135.630 6  24672359.739   101029191.38044
  22992435.870   120826071.423 7  22992433.990    94150176.80345
  21220333.189   111513610.485 9  21220330.456    86893717.97149
  25138154.126   132101897.460 7  25138155.182   102936553.58143
  20445742.736   107443110.641 9  20445743.785    83721913.87449
  23397362.401   122953975.998 7  23397362.905    95808299.72146
  22530948.793   118400949.598 9  22530946.929    92260476.21546
  22903188.696   120357056.207 9  22903186.548    93784706.12846
 18 01 01 00 24 30.0000000  0 11G05G09G16G18G20G21G25G26G27G29G31    0.000000000
  24353402.981   127978016.634 7  24353400.883    99723119.83744
  25091354.490   131855955.258 6  25091354.176   102744897.32744
  21510081.509   113036248.150 9  21510078.914    88080174.48548
  24655593.007   129566012.662 6  24655590.676   100960524.21045
  22983616.502   120779725.325 8  22983614.651    94114062.96845
  21217923.460   111500947.375 9  21217920.735    86883850.62549
  25158885.391   132210840.803 7  25158886.336   103021444.48043
  20442225.546   107424627.851 9  20442226.630    83707511.69549
  23379294.763   122859030.202 7  23379295.346    95734316.02746
  22547596.345   118488433.110 9  22547594.511    92328645.16446
  22921431.681   120452923.342 9  22921429.514    93859407.78946
 18 01 01 00 25 00.0000000  0 11G05G09G16G18G20G21G25G26G27G29G31    0.000000000
  24360548.600   128015567.348 7  24360546.494    99752380.12044
  25095294.064   131876658.051 6  25095293.762   102761029.36944
  21496411.841   112964413.383 9  21496409.245    88024199.34148
  24638830.478   129477925.240 6  24638827.846   100891884.65942
  22974891.833   120733876.660 8  22974889.941    94078336.76045
  21215605.215   111488765.061 9  21215602.510    86874357.91149
  25179631.160   132319860.567 6  25179632.019   103106394.98044
  20438799.135   107406622.053 9  20438800.234    83693481.20449
  23361257.642   122764244.605 7  23361258.180    95660457.12946
  22564274.153   118576075.289 9  22564272.160    92396937.76346
  22939723.920   120549049.490 8  22939721.764    93934311.28046
 18 01 01 00 25 30.0000000  0 11G05G09G16G18G20G21G25G26G27G29G31    0.000000000
  24367798.697   128053667.170 7  24367796.447    99782068.31844
  25099332.396   131897879.755 5  25099332.230   102777565.75244
  21482802.853   112892897.749 9  21482800.261    87968472.86848
  24622074.276   129389870.887 6  24622071.420   100823270.83343
  22966261.261   120688522.993 7  22966259.381    94042996.24245
  21213377.442   111477058.151 9  21213374.750    86865235.65349
  25200390.252   132428950.509 7  25200391.100   103191400.12943
  20435462.759   107389089.325 9  20435463.847    83679819.33149
  23343250.175   122669615.204 7  23343250.702    95586719.94346
  22580981.075   118663870.223 9  22580978.890    92465349.38946
  22958064.038   120645427.586 8  22958061.916    94009411.08046
 18 01 01 00 26 00.0000000  0 11G05G09G16G18G20G21G25G26G27G29G31    0.000000000
  24375154.184   128092320.325 7  24375151.786    99812187.65744
  25103470.232   131919624.469 5  25103470.166   102794509.66245
  21469256.023   112821708.764 9  21469253.468    87913000.94048
  24605325.878   129301857.709 6  24605323.417   100754689.12344
  22957726.213   120643671.284 8  22957724.335    94008046.88745
  21211241.126   111465831.765 9  21211238.425    86856487.82749
  25221163.455   132538114.518 6  25221164.368   103276462.98144
  20432217.624   107372036.062 9  20432218.741    83666531.07449
  23325273.670   122575148.289 7  23325274.215    95513109.41146
  22597717.788   118751822.019 9  22597715.527    92533883.22646
  22976452.457   120742059.901 8  22976450.328    94084708.97746
 18 01 01 00 26 30.0000000  0 11G05G09G16G18G20G21G25G26G27G29G31    0.000000000
  24382613.958   128131521.263 7  24382611.632    99842733.84844
  25107706.564   131941886.693 5  25107706.530   102811856.84844
  21455770.916   112750844.003 9  21455768.323    87857781.63248
  24588585.069   129213883.914 6  24588582.687   100686138.11743
  22949286.340   120599319.682 8  22949284.410    93973487.21845
  21209195.467   111455081.719 9  21209192.734    86848111.18149
  25241949.663   132647346.982 6  25241950.706   103361579.20944
  20429063.108   107355458.922 9  20429064.214    83653613.81949
  23307327.381   122480840.375 7  23307327.985    95439622.73646
  22614483.192   118839924.652 9  22614481.048    92602534.60746
  22994887.963   120838939.424 8  22994885.828    94160199.50846
 18 01 01 00 27 00.0000000  0 11G05G09G16G18G20G21G25G26G27G29G31    0.000000000
  24390178.208   128171271.692 7  24390175.908    99873708.20144
  25112041.690   131964668.134 5  25112041.635   102829608.62244
  21442348.368   112680308.073 9  21442345.788    87802818.56948
  24571852.713   129125954.647 6  24571850.197   100617621.84643
  22940942.647   120555473.101 8  22940940.562    93939321.05845
  21207240.959   111444810.619 9  21207238.181    86840107.73049
  25262749.265   132756649.507 7  25262750.390   103446749.99444
  20425999.934   107339361.827 9  20426001.000    83641070.62749
  23289412.081   122386695.248 7  23289412.707    95366262.92746
  22631277.653   118928180.002 8  22631275.550    92671304.99346
  23013370.608   120936066.185 8  23013368.392    94235882.70646
 18 01 01 00 27 30.0000000  0 11G05G09G16G18G20G21G25G26G27G29G31    0.000000000
  24397846.590   128211568.904 7  24397844.250    99905108.66742
  25116475.244   131987966.778 5  25116475.179   102847763.42643
  21428988.641   112610101.955 9  21428986.062    87748112.50648
  24555129.238   129038071.639 6  24555126.416   100549141.54343
  22932695.146   120512132.520 7  22932693.100    93905549.17845
  21205377.346   111435017.109 9  21205374.524    86832476.42849
  25283561.831   132866019.692 7  25283562.901   103531973.52944
  20423028.138   107323744.856 9  20423029.180    83628901.55349
  23271527.820   122292712.931 7  23271528.372    95293029.97146
  22648100.681   119016585.710 8  22648098.554    92740192.54946
  23031899.652   121033436.822 8  23031897.395    94311755.92146
 18 01 01 00 28 00.0000000  0 11G05G09G16G18G20G21G25G26G27G29G31    0.000000000
  24405618.655   128252411.057 7  24405616.376    99936933.69744
  25121006.805   132011780.250 5  25121006.619   102866319.38143
  21415691.754   112540226.372 9  21415689.169    87693664.00248
  24538414.867   128950236.573 6  24538411.818   100480698.60542
  22924544.161   120469298.892 8  22924542.257    93872172.35545
  21203604.327   111425699.845 9  21203601.512    86825216.23649
  25304386.741   132975455.304 7  25304387.881   103617248.00945
  20420147.717   107308608.003 9  20420148.731    83617106.59749
  23253674.563   122198893.267 7  23253675.019    95219923.77346
  22664951.901   119105139.583 8  22664949.865    92809195.52546
  23050474.343   121131047.329 8  23050472.107    94387816.04646
 18 01 01 00 28 30.0000000  0 11G05G09G16G18G20G21G25G26G27G29G31    0.000000000
  24413494.309   128293797.843 7  24413491.948    99969183.16643
  25125636.440   132036109.198 4  25125636.458   102885277.00343
  21402458.527   112470685.394 9  21402455.941    87639476.23248
  24521710.235   128862453.947 6  24521707.195   100412296.60344
  22916490.465   120426975.697 8  22916488.423    93839193.25745
  21201922.201   111416860.253 9  21201919.392    86818328.25349
  25325224.125   133084956.716 7  25325225.367   103702573.80544
  20417359.186   107293954.092 9  20417360.184    83605687.96449
  23235852.758   122105239.030 7  23235853.029    95146946.46346
  22681831.514   119193841.853 9  22681829.442    92878314.17546
  23069094.563   121228897.105 8  23069092.310    94464062.62246
 18 01 01 00 29 00.0000000  0 11G05G09G16G18G20G21G25G26G27G29G31    0.000000000
  24421473.047   128335727.224 7  24421470.890   100001855.42844
  25130363.691   132060950.739 5  25130363.803   102904634.04044
  21389288.981   112401478.915 9  21389286.390    87585549.10348
  24505015.809   128774724.988 6  24505013.049   100343936.38543
  22908534.003   120385164.058 8  22908531.938    93806612.76945
  21200330.723   111408496.888 9  21200327.870    86811811.35149
  25346073.469   133194521.162 6  25346074.605   103787948.71144
  20414662.450   107279782.561 9  20414663.447    83594645.21149
  23218062.326   122011749.576 7  23218062.500    95074097.53646
  22698738.732   119282690.020 8  22698736.758    92947546.50146
  23087759.441   121326981.711 8  23087757.156    94540492.17946
 18 01 01 00 29 30.0000000  0 11G05G09G16G18G20G21G25G26G27G29G31    0.000000000
  24429555.150   128378198.579 7  24429552.914   100034950.02443
  25135188.479   132086304.430 4  25135188.326   102924390.1894 
  21376183.677   112332609.944 9  21376181.043    87531884.96548
  24488332.343   128687052.906 6  24488329.835   100275620.48443
  22900675.167   120343866.381 8  22900673.263    93774432.78946
  21198829.858   111400609.654 9  21198826.944    86805665.46249
  25366934.744   133304147.966 6  25366935.926   103873372.21244
  20412057.827   107266095.098 9  20412058.803    83583979.64849
  23200303.520   121918426.557 7  23200303.702    95001378.32646
  22715673.508   119371683.533 8  22715671.707    93016892.05246
  23106468.610   121425299.218 8  23106466.366    94617103.20946
 18 01 01 00 30 00.0000000  0 11G05G09G16G18G20G21G25G26G27G29G31    0.000000000
  24437740.259   128421211.646 6  24437737.833   100068466.67745
  25140110.509   132112170.326 4  25140110.130   102944545.39245
  21363143.099   112264081.428 9  21363140.508    87478486.12648
  24471660.301   128599441.452 6  24471657.844   100207351.78643
  22892914.678   120303085.363 8  22892912.807    93742655.39845
  21197419.825   111393199.825 9  21197416.884    86799891.57849
  25387807.883   133413837.095 6  25387809.038   103958844.21544
  20409545.742   107252893.919 9  20409546.699    83573693.01049
  23182576.855   121825272.136 7  23182577.080    94928790.49046
  22732636.166   119460822.593 9  22732634.356    93086351.03846
  23125221.866   121523848.010 9  23125219.529    94693894.48446
 18 01 01 00 30 30.0000000  0 11G05G09G16G18G20G21G25G26G27G29G31    0.000000000
  24446027.447   128464760.770 7  24446024.822   100102401.08744
  25145128.936   132138542.914 5  25145128.535   102965095.45943
  21350166.981   112195891.467 9  21350164.424    87425351.09148
  24454999.583   128511889.050 6  24454997.228   100139129.16342
  22885252.446   120262819.825 8  22885250.438    93711279.65645
  21196099.757   111386262.843 9  21196096.827    86794486.14249
  25408691.902   133523583.304 6  25408693.155   104044360.77844
  20407125.627   107240176.118 9  20407126.596    83563783.03349
  23164881.671   121732283.372 7  23164882.053    94856331.76746
  22749625.512   119550101.805 8  22749623.666    93155919.23346
  23144017.999   121622621.803 8  23144015.652    94770861.07046
 18 01 01 00 31 00.0000000  0 11G05G09G16G18G20G21G25G26G27G29G31    0.000000000
  24454416.680   128508846.159 6  24454414.222   100136753.34544
  25150244.016   132165422.358 4  25150242.505   102986037.4164 
  21337255.916   112128043.253 9  21337253.351    87372482.35348
  24438350.978   128424399.831 6  24438348.677   100070955.7404 
  22877688.865   120223072.604 8  22877686.804    93680307.82646
  21194869.853   111379799.662 9  21194866.938    86789449.90849
  25429586.812   133633386.628 6  25429588.017   104129921.82544
  20404797.930   107227943.996 9  20404798.919    83554251.50749
  23147218.468   121639462.522 7  23147218.919    94784003.85146
  22766641.282   119639520.919 8  22766639.538    93225596.43046
  23162856.600   121721618.979 8  23162854.239    94848001.73446
 18 01 01 00 31 30.0000000  0 11G05G09G16G18G20G21G25G26G27G29G31    0.000000000
  24462908.326   128553471.189 6  24462906.112   100171526.06343
  25155456.250   132192812.438 4  25155454.637   103007382.41343
  21324411.230   112060543.948 9  21324408.643    87319885.48748
  24421715.944   128336981.706 6  24421713.514   100002837.70743
  22870225.090   120183850.360 8  22870223.012    93649745.04045
  21193731.109   111373815.558 9  21193728.211    86784786.97349
  25450493.316   133743250.917 6  25450494.372   104215530.37544
  20402563.800   107216203.615 9  20402564.803    83545103.15549
  23129588.344   121546815.589 7  23129588.794    94711811.45546
  22783684.535   119729084.282 8  22783682.814    93295386.05246
  23181738.062   121820842.203 8  23181735.790    94925318.52546
 18 01 01 00 32 00.0000000  0 11G05G09G16G18G20G21G25G26G27G29G31    0.000000000
  24471501.282   128598628.247 6  24471499.242   100206713.35444
  25160764.120   132220705.002 4  25160762.436   103029116.78841
  21311631.950   111993388.430 9  21311629.439    87267556.52248
  24405093.591   128249630.622 6  24405091.083    99934771.95844
  22862860.509   120145149.072 8  22862858.234    93619588.21345
  21192682.155   111368303.477 9  21192679.303    86780491.85349
  25471409.932   133853168.098 7  25471410.857   104301180.09944
  20400422.147   107204949.196 9  20400423.161    83536333.47749
  23111990.182   121454336.843 7  23111990.716    94639750.08946
  22800753.855   119818784.282 8  22800752.223    93365282.12246
  23200660.721   121920281.886 8  23200658.499    95002803.97846
 18 01 01 00 32 30.0000000  0 10G05G16G18G20G21G25G26G27G29G31       0.000000000
  24480196.526   128644321.888 6  24480194.377   100242318.84843
  21298919.694   111926585.128 9  21298917.178    87215502.00648
  24388485.672   128162355.512 6  24388482.947    99866765.32743
  22855596.573   120106976.580 8  22855594.198    93589843.43046
  21191724.021   111363268.750 9  21191721.235    86776568.69849
  25492337.528   133963143.168 6  25492338.295   104386875.00644
  20398374.347   107194187.954 9  20398375.348    83527948.08249
  23094425.431   121362033.535 7  23094425.922    94567825.46446
  22817850.130   119908625.735 8  22817848.578    93435288.43146
  23219625.253   122019941.487 8  23219623.048    95080460.80346
 18 01 01 00 33 00.0000000  0 10G05G16G18G20G21G25G26G27G29G31       0.000000000
  24488992.315   128690544.901 6  24488990.463   100278336.81443
  21286273.828   111860130.617 9  21286271.249    87163719.26548
  24371891.573   128075153.498 6  24371888.993    99798815.69444
  22848432.384   120069328.951 8  22848430.070    93560507.63546
  21190855.631   111358705.531 9  21190852.896    86773012.95249
  25513274.790   134073169.379 6  25513275.791   104472609.71543
  20396419.523   107183915.298 9  20396420.539    83519943.41749
  23076893.170   121269901.119 7  23076893.706    94496033.98346
  22834972.073   119998601.757 8  22834970.509    93505399.59646
  23238630.194   122119813.365 8  23238628.042    95158283.05346
 18 01 01 00 33 30.0000000  0 10G05G16G18G20G21G25G26G27G29G31       0.000000000
  24497888.680   128737296.219 6  24497886.921   100314766.35142
  21273694.703   111794026.759 9  21273692.082    87112209.76248
  24355311.805   127988027.242 6  24355309.731    99730925.14641
  22841368.474   120032208.343 8  22841366.250    93531582.51546
  21190077.033   111354614.040 9  21190074.305    86769824.77949
  25534221.594   134183245.358 6  25534222.766   104558383.20344
  20394557.855   107174132.230 9  20394558.893    83512320.24649
  23059393.629   121177940.504 7  23059394.169    94424376.40046
  22852119.464   120088711.325 8  22852117.746    93575614.82446
  23257675.055   122219894.430 8  23257672.736    95236268.30446
 18 01 01 00 34 00.0000000  0 10G05G16G18G20G21G25G26G27G29G31       0.000000000
  24506886.461   128784580.010 6  24506884.774   100351610.9004 
  21261183.882   111728281.645 9  21261181.198    87060979.80448
  24338748.074   127900985.238 6  24338746.095    99663100.18743
  22834406.396   119995622.492 8  22834404.151    93503074.06045
  21189389.162   111350999.398 9  21189386.437    86767008.18049
  25555178.710   134293375.884 6  25555179.811   104644199.23744
  20392790.686   107164845.682 9  20392791.722    83505083.97149
  23041928.101   121086158.733 7  23041928.647    94352858.16846
  22869293.137   120178959.303 9  22869291.270    93645937.90746
  23276760.312   122320187.974 8  23276757.947    95314419.11446
 18 01 01 00 34 30.0000000  0 10G05G16G18G20G21G25G26G27G29G31       0.000000000
  24515984.044   128832387.384 6  24515982.224   100388863.45344
  21248740.249   111662889.712 9  21248737.431    87010025.04948
  24322199.838   127814023.329 6  24322197.918    99595337.61744
  22827545.086   119959565.777 8  22827542.956    93474977.95245
  21188790.533   111347853.731 9  21188787.800    86764557.02449
  25576144.506   134403552.442 6  25576145.798   104730051.09344
  20391116.779   107156049.299 9  20391117.841    83498229.64649
  23024495.390   120994549.493 7  23024495.881    94281474.35946
  22886491.554   120269337.510 8  22886489.628    93716362.45146
  23295884.081   122420684.168 8  23295881.727    95392727.83046
 18 01 01 00 35 00.0000000  0 10G05G16G18G20G21G25G26G27G29G31       0.000000000
  24525181.654   128880720.698 6  24525179.680   100426525.77044
  21236364.787   111597856.375 9  21236361.970    86959349.71948
  24305667.994   127727147.584 7  24305665.965    99527642.27444
  22820785.516   119924043.966 8  22820783.567    93447298.64645
  21188281.867   111345180.716 9  21188279.095    86762474.16749
  25597119.579   134513777.318 7  25597120.832   104815940.62344
  20389536.996   107147747.575 9  20389538.069    83491760.77049
  23007096.486   120903117.456 8  23007096.895    94210228.64646
  22903715.177   120359848.079 8  22903713.338    93786890.15546
  23315046.577   122521383.926 8  23315044.167    95471195.16346
 18 01 01 00 35 30.0000000  0 10G05G16G18G20G21G25G26G27G29G31       0.000000000
  24534478.809   128929576.443 6  24534476.549   100464595.18643
  21224057.597   111533181.932 9  21224054.845    86908954.04748
  24289152.773   127640358.684 6  24289150.508    99460014.57644
  22814127.787   119889056.845 8  22814125.705    93420035.97846
  21187862.771   111342978.169 9  21187859.916    86760757.89649
  25618103.268   134624047.252 6  25618104.466   104901865.22144
  20388051.139   107139939.420 9  20388052.210    83485676.49049
  22989731.117   120811861.413 8  22989731.495    94139120.05447
  22920963.370   120450488.153 8  22920961.594    93857518.76546
  23334246.957   122622282.639 8  23334244.421    95549817.54046
 18 01 01 00 36 00.0000000  0 10G05G16G18G20G21G25G26G27G29G31       0.000000000
  24543875.340   128978954.937 6  24543872.488   100503071.88444
  21211819.378   111468869.811 9  21211816.670    86858840.70848
  24272654.933   127553661.272 6  24272652.560    99392458.10941
  22807572.407   119854607.568 8  22807570.036    93393192.39545
  21187533.399   111341247.154 9  21187530.486    86759409.06649
  25639095.674   134734362.792 6  25639096.778   104987825.41244
  20386659.693   107132627.420 9  20386660.783    83479978.83049
  22972399.755   120720784.139 8  22972400.111    94068150.76546
  22938236.422   120541258.208 8  22938234.635    93928248.65946
  23353485.112   122723379.450 8  23353482.413    95628594.28346
 18 01 01 00 36 30.0000000  0 10G05G16G18G20G21G25G26G27G29G31       0.000000000
  24553370.619   129028852.939 6  24553367.561   100541953.49044
  21199650.382   111404921.006 9  21199647.640    86809010.45948
  24256174.653   127467055.955 6  24256172.209    99324973.46844
  22801119.407   119820697.078 8  22801117.029    93366768.65945
  21187293.373   111339985.799 9  21187290.459    86758426.19649
  25660096.226   134844721.445 6  25660097.146   105073819.22043
  20385362.644   107125811.354 9  20385363.750    83474667.60349
  22955102.402   120629885.562 8  22955102.724    93997320.72646
  22955533.741   120632155.686 8  22955531.790    93999077.86346
  23372760.174   122824670.449 8  23372757.342    95707522.33846
 18 01 01 00 37 00.0000000  0 10G05G16G18G20G21G25G26G27G29G31       0.000000000
  24562965.917   129079276.341 5  24562963.445   100581244.44944
  21187552.194   111341344.326 9  21187549.375    86759470.18848
  24239713.819   127380553.232 6  24239711.436    99257568.75244
  22794770.510   119787333.917 8  22794768.194    93340771.41445
  21187143.707   111339199.303 9  21187140.822    86757813.35349
  25681106.046   134955128.971 6  25681106.918   105159851.03843
  20384161.434   107119498.908 9  20384162.538    83469748.81049
  22937840.435   120539173.389 8  22937840.810    93926635.92847
  22972856.454   120723186.881 8  22972854.486    94070011.23346
  23392072.945   122926159.829 8  23392070.165    95786604.96346
 18 01 01 00 37 30.0000000  0 10G05G16G18G20G21G25G26G27G29G31       0.000000000
  24572658.507   129130211.719 5  24572656.072   100620934.30244
  21175522.922   111278130.141 9  21175520.049    86710212.38248
  24223270.615   127294144.196 6  24223268.359    99190237.08044
  22788523.828   119754507.936 8  22788521.508    93315192.75745
  21187082.498   111338877.591 9  21187079.637    86757562.67849
  25702122.645   135065572.359 6  25702123.432   105245910.83543
  20383054.018   107113679.390 9  20383055.121    83465214.12149
  22920611.907   120448637.181 8  22920612.431    93856088.27547
  22990202.043   120814338.680 8  22990200.281    94141038.59146
  23411420.758   123027833.188 8  23411418.082    95865830.95146
 18 01 01 00 38 00.0000000  0 10G05G16G18G20G21G25G26G27G29G31       0.000000000
  24582448.443   129181658.595 5  24582446.161   100661022.80045
  21163563.196   111215281.577 9  21163560.332    86661239.47448
  24206846.062   127207832.456 7  24206843.880    99122981.13744
  22782379.900   119722222.328 8  22782377.681    93290035.16246
  21187109.840   111339021.120 9  21187106.971    86757674.52249
  25723146.210   135176051.722 5  25723147.115   105331998.67644
  20382040.797   107108354.874 9  20382041.916    83461065.13749
  22903417.310   120358279.076 8  22903417.830    93785679.37746
  23007570.704   120905611.662 8  23007568.990    94212160.38146
  23430803.323   123129689.468 8  23430800.839    95945199.47546
 18 01 01 00 38 30.0000000  0 10G05G16G18G20G21G25G26G27G29G31       0.000000000
  24592336.272   129233619.813 5  24592334.201   100701512.09242
  21151674.328   111152805.310 9  21151671.534    86612556.66748
  24190441.391   127121625.171 6  24190439.265    99055806.64944
  22776340.162   119690483.590 8  22776338.000    93265303.69545
  21187226.439   111339633.839 9  21187223.564    86758151.97349
  25744177.331   135286570.604 6  25744178.200   105418117.2974 
  20381122.796   107103530.841 9  20381123.970    83457306.15349
  22886257.696   120268104.692 8  22886258.146    93715413.65047
  23024963.100   120997009.149 9  23024961.282    94283379.18546
  23450221.192   123231730.630 8  23450218.644    96024712.07945
 18 01 01 00 39 00.0000000  0 10G05G16G18G20G21G25G26G27G29G31       0.000000000
  24602322.784   129286098.252 5  24602320.837   100742404.41241
  21139857.529   111090707.536 9  21139854.703    86564168.79148
  24174057.993   127035529.941 6  24174055.741    98988719.47044
  22770405.626   119659297.299 8  22770403.466    93241002.70246
  21187432.976   111340719.253 9  21187430.099    86758997.75849
  25765216.322   135397131.629 5  25765217.273   105504268.74144
  20380300.977   107099212.196 9  20380302.192    83453940.97249
  22869134.053   120178119.322 8  22869134.413    93645295.20046
  23042379.733   121088534.412 8  23042377.917    94354697.53346
  23469674.423   123333958.052 8  23469671.775    96104369.82046
 18 01 01 00 39 30.0000000  0 10G05G16G18G20G21G25G26G27G29G31       0.000000000
  24612405.893   129339085.280 4  24612403.804   100783693.00544
  21128111.790   111028983.053 9  21128108.965    86516071.79348
  24157695.068   126949542.008 6  24157692.827    98921715.89744
  22764575.117   119628658.216 8  22764573.063    93217128.12345
  21187727.987   111342269.543 9  21187725.104    86760205.78349
  25786261.835   135507726.625 5  25786263.453   105590446.7114 
  20379574.196   107095392.975 9  20379575.408    83450964.95449
  22852045.207   120088316.834 8  22852045.453    93575319.26547
  23059819.030   121180179.078 8  23059817.416    94426108.91846
  23489161.216   123436361.956 8  23489158.401    96184165.07245
 18 01 01 00 40 00.0000000  0  9G16G18G20G21G25G26G27G29G31          0.000000000
  21116438.572   110967639.787 9  21116435.777    86468271.84848
  24141354.161   126863670.139 7  24141351.827    98854802.71944
  22758850.247   119598573.627 8  22758848.233    93193685.61346
  21188112.549   111344290.347 9  21188109.656    86761780.44049
  25807314.648   135618360.334 5  25807317.346   105676649.79843
  20378943.733   107092079.796 9  20378944.929    83448383.25249
  22834992.393   119998704.181 8  22834992.680    93505491.24547
  23077282.164   121271948.286 8  23077280.615    94497617.35746
  23508682.253   123538945.863 8  23508679.326    96264100.60046
 18 01 01 00 40 30.0000000  0  9G16G18G20G21G25G26G27G29G31          0.000000000
  21104836.279   110906669.171 9  21104833.447    86420762.27448
  24125033.742   126777906.108 7  24125031.521    98787973.65244
  22753229.280   119569034.628 8  22753227.185    93170668.21546
  21188584.503   111346770.554 9  21188581.627    86763713.07749
  25828372.602   135729020.936 4  25828370.344   105762858.33653
  20378407.692   107089262.800 9  20378408.879    83446188.18949
  22817973.855   119909271.763 8  22817974.266    93435803.69047
  23094766.780   121363830.235 8  23094765.136    94569213.65446
  23528235.044   123641696.524 8  23528232.132    96344166.04945
 18 01 01 00 41 00.0000000  0  9G16G18G20G21G25G26G27G29G31          0.000000000
  21093306.392   110846079.238 9  21093303.532    86373549.33948
  24108735.736   126692259.279 7  24108733.356    98721235.83144
  22747713.475   119540049.150 8  22747711.476    93148082.14046
  21189144.892   111349715.638 9  21189142.057    86766007.95549
  25849436.604   135839713.404 4         0.000           0.000  
  20377967.366   107086948.861 9  20377968.572    83444385.11649
  22800990.990   119820026.616 7  22800991.468    93366262.04047
  23112273.796   121455830.033 8  23112271.954    94640901.79245
  23547820.238   123744617.188 8  23547817.463    96424363.97245
 18 01 01 00 41 30.0000000  0  9G16G18G20G21G25G26G27G29G31          0.000000000
  21081849.705   110785873.816 9  21081846.766    86326636.02348
  24092460.665   126606734.104 6  24092458.586    98654592.90344
  22742303.483   119511620.384 8  22742301.582    93125929.88645
  21189794.016   111353127.079 9  21189791.213    86768666.22549
  25870506.850   135950438.345 4         0.000           0.000  
  20377623.270   107085140.633 9  20377624.485    83442976.10549
  22784044.312   119730971.633 8  22784044.779    93296868.55746
  23129803.445   121547948.442 8  23129801.486    94712682.33946
  23567437.583   123847707.017 8  23567434.968    96504693.71245
 18 01 01 00 42 00.0000000  0  9G16G18G20G21G25G26G27G29G31          0.000000000
  21070465.810   110726051.060 9  21070462.786    86280020.89248
  24076208.655   126521329.338 7  24076206.685    98588043.74344
  22736999.012   119483746.008 8  22736997.242    93104209.61446
  21190531.062   111357000.443 9  21190528.258    86771684.43549
  25891582.467   136061190.814 3  25891586.991   106021716.62444
  20377374.853   107083835.150 9  20377376.058    83441958.83949
  22767133.363   119642104.088 8  22767133.799    93227621.12447
  23147354.787   121640180.655 8  23147352.731    94784551.57345
  23587085.910   123950959.955 8  23587083.406    96585150.54745
 18 01 01 00 42 30.0000000  0  8G16G18G20G21G26G27G29G31             0.000000000
  21059155.851   110666616.773 9  21059152.816    86233708.46448
  24059980.805   126436051.584 7  24059978.682    98521593.53444
  22731801.344   119456431.687 8  22731799.424    93082925.74245
  21191356.616   111361338.781 9  21191353.766    86775064.96049
  20377222.968   107083036.905 9  20377224.165    83441336.82949
  22750259.036   119553428.764 8  22750259.382    93158523.49646
  23164928.099   121732529.692 8  23164926.293    94856511.82845
  23606765.400   124054376.911 8  23606762.943    96665735.18445
 18 01 01 00 43 00.0000000  0  8G16G18G20G21G26G27G29G31             0.000000000
  21047919.451   110607568.952 9  21047916.419    86187697.17448
  24043776.966   126350899.793 7  24043774.851    98455241.50945
  22726709.687   119429674.669 8  22726707.693    93062076.13246
  21192269.829   111366137.728 9  21192266.932    86778804.40649
  20377167.020   107082742.714 9  20377168.172    83441107.58149
  22733420.780   119464942.748 8  22733421.000    93089573.37747
  23182522.722   121824990.464 8  23182520.966    94928559.15845
  23626474.943   124157951.319 8  23626472.441    96746442.53745
 18 01 01 00 43 30.0000000  0  8G16G18G20G21G26G27G29G31             0.000000000
  21036757.429   110548911.955 9  21036754.385    86141990.42048
  24027598.000   126265878.797 7  24027595.973    98388991.37344
  22721724.757   119403479.032 8  22721722.873    93041663.96546
  21193270.965   111371398.736 9  21193268.047    86782903.89749
  20377207.534   107082955.574 9  20377208.678    83441273.44349
  22716619.171   119376649.348 8  22716619.316    93020773.34746
  23200139.052   121917564.389 8  23200137.275    95000694.66745
  23646214.504   124261683.038 8  23646211.898    96827272.45745
 18 01 01 00 44 00.0000000  0  8G16G18G20G21G26G27G29G31             0.000000000
  21025669.777   110490645.923 9  21025666.743    86096588.31748
  24011444.159   126180989.887 6  24011442.088    98322844.16644
  22716846.712   119377844.612 8  22716844.710    93021689.09345
  21194359.579   111377119.601 9  21194356.687    86787361.72349
  20377344.392   107083674.727 9  20377345.516    83441833.81949
  22699854.145   119288548.054 8  22699854.234    92952123.01247
  23217776.306   122010248.872 8  23217774.573    95072916.30645
  23665983.199   124365567.859 8  23665980.596    96908221.68145
 18 01 01 00 44 30.0000000  0  8G16G18G20G21G26G27G29G31             0.000000000
  21014657.494   110432775.925 9  21014654.433    86051494.81348
  23995316.522   126096238.664 7  23995314.381    98256804.24843
  22712076.352   119352775.809 8  22712074.253    93002154.98446
  21195536.238   111383303.235 9  21195533.409    86792180.14249
  20377578.250   107084903.644 9  20377579.352    83442791.40949
  22683126.348   119200642.695 8  22683126.417    92883625.33247
  23235434.717   122103045.582 8  23235433.292    95145225.37145
  23685780.926   124469605.867 8  23685778.529    96989290.24745
 18 01 01 00 45 00.0000000  0  8G16G18G20G21G26G27G29G31             0.000000000
  21003720.072   110375299.589 9  21003717.073    86006708.05848
  23979214.726   126011623.038 7  23979212.559    98190870.02844
  22707413.050   119328269.529 8  22707410.903    92983059.19845
  21196799.946   111389944.128 9  21196797.149    86797354.86749
  20377908.408   107086638.673 9  20377909.522    83444143.37449
  22666435.187   119112929.936 8  22666435.242    92815277.74547
  23253113.706   122195948.772 8  23253112.277    95217617.45445
  23705606.442   124573790.063 8  23705604.296    97070472.74545
 18 01 01 00 45 30.0000000  0  8G16G18G20G21G26G27G29G31             0.000000000
  20992858.406   110318221.174 9  20992855.446    85962231.37148
  23963139.889   125927148.878 7  23963137.563    98125046.00444
  22702857.454   119304329.450 8  22702855.239    92964404.61745
  21198151.049   111397044.023 9  21198148.236    86802887.25749
  20378335.470   107088882.979 9  20378336.593    83445892.17849
  22649781.266   119025413.296 8  22649781.320    92747082.97547
  23270813.502   122288960.380 8  23270811.811    95290094.01245
  23725459.806   124678120.411 8  23725457.772    97151769.10545
 18 01 01 00 46 00.0000000  0  8G16G18G20G21G26G27G29G31             0.000000000
  20982073.022   110261543.719 9  20982070.061    85918067.12648
  23947092.631   125842819.930 7  23947090.187    98059335.14943
  22698410.156   119280958.064 8  22698407.831    92946193.14746
  21199589.576   111404603.132 9  21199586.710    86808777.47549
  20378859.773   107091638.298 9  20378860.907    83448039.18049
  22633165.029   118938094.824 8  22633165.170    92679042.62447
  23288533.714   122382081.013 8  23288532.084    95362655.51445
  23745340.742   124782595.360 8  23745338.728    97233178.17245
 18 01 01 00 46 30.0000000  0  8G16G18G20G21G26G27G29G31             0.000000000
  20971363.621   110205265.577 9  20971360.654    85874214.02448
  23931072.721   125758634.923 7  23931070.297    97993736.47044
  22694070.566   119258153.277 8  22694068.206    92928423.19546
  21201114.682   111412617.418 9  21201111.791    86815022.38249
  20379480.746   107094901.453 9  20379481.857    83450581.89349
  22616585.980   118850971.764 8  22616586.208    92611154.54547
  23306273.750   122475305.521 8  23306272.180    95435297.97645
  23765247.991   124887208.372 8  23765245.779    97314694.81745
 18 01 01 00 47 00.0000000  0  8G16G18G20G21G26G27G29G31             0.000000000
  20960730.707   110149389.054 9  20960727.724    85830673.87748
  23915080.888   125674597.253 7  23915078.512    97928252.57744
  22689839.060   119235916.907 8  22689836.763    92911096.17146
  21202726.276   111421086.399 9  21202723.400    86821621.58449
  20380198.604   107098673.655 9  20380199.698    83453521.26749
  22600044.446   118764045.692 8  22600044.764    92543419.97347
  23324033.692   122568633.434 8  23324031.948    95508021.00545
  23785181.099   124991957.602 8  23785178.917    97396317.60546
 18 01 01 00 47 30.0000000  0  8G16G18G20G21G26G27G29G31             0.000000000
  20950175.265   110093919.776 9  20950172.278    85787451.06548
  23899118.309   125590713.328 7  23899115.987    97862888.49744
  22685716.716   119214254.159 8  22685714.435    92894216.13146
  21204424.999   111430013.340 9  21204422.163    86828577.65349
  20381014.172   107102959.394 9  20381015.249    83456860.79549
  22583541.337   118677321.516 8  22583541.626    92475842.71047
  23341813.614   122662067.736 8  23341811.894    95580826.90645
  23805140.356   125096844.022 8  23805138.226    97478047.27245
 18 01 01 00 48 00.0000000  0  8G16G18G20G21G26G27G29G31             0.000000000
  20939697.109   110038856.850 9  20939694.177    85744544.89048
  23883184.986   125506982.894 7  23883182.613    97797643.98144
  22681703.134   119193163.095 8  22681700.935    92877781.54246
  21206210.114   111439394.259 9  21206207.277    86835887.46549
  20381926.951   107107756.030 9  20381928.004    83460598.43149
  22567076.228   118590797.035 8  22567076.513    92408421.05147
  23359612.882   122755604.138 8  23359611.233    95653712.37945
  23825124.610   125201862.036 8  23825122.469    97559879.47345
 18 01 01 00 48 30.0000000  0  8G16G18G20G21G26G27G29G31             0.000000000
  20929296.461   109984201.217 9  20929293.603    85701956.08348
  23867281.108   125423407.606 7  23867278.803    97732520.38844
  22677798.290   119172643.525 8  22677796.139    92861792.28445
  21208081.338   111449227.662 9  21208078.481    86843549.86149
  20382936.854   107113063.068 9  20382937.914    83464733.77749
  22550649.067   118504472.093 8  22550649.367    92341154.89247
  23377431.395   122849240.726 8  23377429.640    95726675.91745
  23845133.323   125307007.872 8  23845131.098    97641811.31145
 18 01 01 00 49 00.0000000  0  8G16G18G20G21G26G27G29G31             0.000000000
  20918974.363   109929958.313 9  20918971.542    85659688.88748
  23851407.865   125339993.541 7  23851405.730    97667522.43944
  22674003.290   119152700.775 8  22674001.176    92846252.48946
  21210039.235   111459516.506 9  21210036.335    86851567.15149
  20384044.737   107118884.982 9  20384045.810    83469270.32849
  22534260.862   118418351.683 8  22534261.215    92274048.10447
  23395269.557   122942980.299 8  23395267.722    95799719.71645
  23865166.566   125412282.816 8  23865164.326    97723843.73345
 18 01 01 00 49 30.0000000  0  8G16G18G20G21G26G27G29G31             0.000000000
  20908730.057   109876124.336 9  20908727.308    85617740.33148
  23835564.850   125256738.225 7  23835562.966    97602648.20744
  22670317.216   119133330.359 8  22670315.042    92831158.68646
  21212082.539   111470254.167 9  21212079.597    86859934.16349
  20385249.569   107125216.438 9  20385250.645    83474203.92649
  22517910.689   118332430.959 8  22517911.120    92207096.92347
  23413126.038   123036816.279 8  23413124.197    95872838.62045
  23885222.654   125517678.292 8  23885220.409    97805970.06645
 18 01 01 00 50 00.0000000  0  8G16G18G20G21G26G27G29G31             0.000000000
  20898564.659   109822704.900 9  20898561.960    85576114.79948
  23819753.262   125173647.848 7  23819751.390    97537902.45444
  22666740.924   119114536.918 8  22666738.798    92816514.46446
  21214211.707   111481443.132 9  21214208.775    86868652.84149
  20386552.161   107132061.661 9  20386553.247    83479537.86149
  22501599.433   118246714.536 8  22501599.904    92140304.92747
  23431001.119   123130751.127 8  23430999.425    95946034.54745
  23905301.893   125623195.353 8  23905299.529    97888191.18645
 18 01 01 00 50 30.0000000  0  8G16G18G20G21G26G27G29G31             0.000000000
  20888478.490   109769701.896 9  20888475.817    85534813.75848
  23803973.630   125090725.149 7  23803971.432    97473287.40144
  22663274.763   119096321.774 8  22663272.529    92802320.85646
  21216426.737   111493083.276 9  21216423.827    86877723.08949
  20387952.639   107139421.176 9  20387953.729    83485272.54149
  22485327.210   118161203.468 8  22485327.674    92073672.94147
  23448894.953   123224784.113 8  23448893.215    96019306.97445
  23925403.716   125728831.513 8  23925401.444    97970505.01845
 18 01 01 00 51 00.0000000  0  8G16G18G20G21G26G27G29G31             0.000000000
  20878471.477   109717114.744 9  20878468.765    85493836.75548
  23788225.966   125007970.647 7  23788223.618    97408803.35644
  22659918.382   119078683.625 8  22659916.110    92788576.85046
  21218726.940   111505170.952 9  21218724.047    86887142.06149
  20389450.646   107147293.118 9  20389451.705    83491406.51749
  22469093.815   118075896.363 8  22469094.248    92007199.88747
  23466807.021   123318911.726 8  23466805.052    96092653.15945
  23945527.347   125834581.686 8  23945524.953    98052907.77145
 18 01 01 00 51 30.0000000  0  8G16G18G20G21G26G27G29G31             0.000000000
  20868544.734   109664949.320 9  20868541.987    85453188.37748
  23772511.589   124925390.902 7  23772509.222    97344455.49944
  22656672.663   119061627.537 8  22656670.497    92775286.41645
  21221112.887   111517709.263 9  21221110.026    86896912.18149
  20391046.993   107155681.944 9  20391048.043    83497943.26049
  22452900.146   117990798.255 8  22452900.579    91940889.70247
  23484737.463   123413137.228 8  23484735.532    96166075.58345
  23965672.945   125940447.202 8  23965670.424    98135400.37345
 18 01 01 00 52 00.0000000  0  8G16G18G20G21G26G27G29G31             0.000000000
  20858697.603   109613202.205 9  20858694.826    85412865.95448
  23756829.861   124842983.143 7  23756827.564    97280241.68044
  22653536.988   119045149.533 8  22653534.802    92762446.44346
  21223583.517   111530692.677 9  21223580.693    86907029.13049
  20392740.768   107164582.806 9  20392741.829    83504878.99049
  22436745.414   117905904.805 8  22436745.888    91874738.98947
  23502685.376   123507454.579 8  23502683.645    96239569.56445
  23985838.989   126046420.364 8  23985836.477    98217976.85845
 18 01 01 00 52 30.0000000  0  8G16G18G20G21G26G27G29G31             0.000000000
  20848931.118   109561878.743 9  20848928.287    85372873.64148
  23741181.965   124760753.157 7  23741179.710    97216166.37444
  22650512.226   119029253.638 8  22650509.903    92750060.04346
  21226139.267   111544123.393 9  21226136.477    86917494.62849
  20394532.710   107173999.438 9  20394533.732    83512216.61949
  22420630.447   117821220.292 8  22420630.904    91808751.07847
  23520651.361   123601865.699 8  23520649.560    96313136.64945
  24006025.540   126152501.710 8  24006022.908    98300637.64945
 18 01 01 00 53 00.0000000  0  8G16G18G20G21G26G27G29G31             0.000000000
  20839245.444   109510980.218 9  20839242.614    85333212.45848
  23725568.383   124678703.716 7  23725566.248    97152231.76944
  22647598.293   119013940.439 8  22647595.853    92738127.69546
  21228779.724   111557999.134 9  21228776.938    86928306.90249
  20396422.772   107183931.766 9  20396423.795    83519956.09349
  22404555.356   117736745.183 8  22404555.781    91742926.33047
  23538634.929   123696369.364 8  23538633.054    96386775.85245
  24026231.967   126258688.028 8  24026229.485    98383380.20945
 18 01 01 00 53 30.0000000  0  8G16G18G20G21G26G27G29G31             0.000000000
  20829641.021   109460508.530 9  20829638.183    85293883.87148
  23709989.711   124596837.334 7  23709987.629    97088439.80344
  22644795.289   118999211.251 8  22644792.981    92726650.40445
  21231504.959   111572320.291 9  21231502.149    86939466.24649
  20398411.073   107194380.262 9  20398412.097    83528097.77049
  22388520.386   117652480.517 8  22388520.734    91677265.55547
  23556635.698   123790964.644 8  23556633.990    96460486.42045
  24046458.126   126364976.842 8  24046455.637    98466202.67345
 18 01 01 00 54 00.0000000  0  8G16G18G20G21G26G27G29G31             0.000000000
  20820117.862   109410464.005 9  20820115.027    85254888.13248
  23694446.168   124515155.260 7  23694444.113    97024791.43844
  22642103.146   118985065.249 8  22642101.029    92715627.59745
  21234314.382   111587083.848 9  21234311.524    86950970.32049
  20400497.378   107205343.818 9  20400498.406    83536640.79549
  22372525.356   117568425.885 8  22372525.693    91611768.45747
  23574653.613   123885649.237 8  23574651.950    96534266.60745
  24066703.082   126471363.883 8  24066700.316    98549101.67345
 18 01 01 00 54 30.0000000  0  8G16G18G20G21G26G27G29G31             0.000000000
  20810676.628   109360849.897 9  20810673.770    85216227.78948
  23678938.457   124433661.706 7  23678936.438    96961289.98544
  22639522.637   118971504.984 8  22639520.361    92705061.16346
  21237208.099   111602290.546 9  21237205.230    86962819.70349
  20402682.030   107216824.278 9  20402683.083    83545586.60649
  22356570.718   117484583.671 8  22356570.979    91546436.87847
  23592688.728   123980423.737 8  23592687.020    96608116.85945
  24086966.543   126577848.487 8  24086963.652    98632076.67245
 18 01 01 00 55 00.0000000  0  8G16G18G20G21G26G27G29G31             0.000000000
  20801317.504   109311667.540 9  20801314.683    85177903.87748
  23663466.975   124352358.237 7  23663464.990    96897936.62344
  22637053.869   118958530.926 8  22637051.288    92694951.50346
  21240185.894   111617939.114 9  21240183.033    86975013.39549
  20404965.016   107228821.456 9  20404966.085    83554935.05249
  22340656.579   117400954.323 8  22340656.779    91481271.16647
  23610740.599   124075286.734 8  23610739.018    96682036.03945
  24107247.857   126684427.012 8  24107244.973    98715124.86345
 18 01 01 00 55 30.0000000  0  8G16G18G20G21G26G27G29G31             0.000000000
  20792040.235   109262915.357 9  20792037.438    85139915.16248
  23648031.609   124271244.572 7  23648029.539    96834731.17344
  22634695.998   118946140.385 8  22634693.465    92685296.56546
  21243246.927   111634024.918 9  21243244.067    86987547.79549
  20407345.753   107241332.329 9  20407346.837    83564683.78049
  22324782.502   117317535.448 8  22324782.694    91416269.47247
  23628808.406   124170233.416 8  23628806.739    96756020.45344
  24127545.776   126791093.373 8  24127542.954    98798241.48944
 18 01 01 00 56 00.0000000  0  8G16G18G20G21G26G27G29G31             0.000000000
  20782846.567   109214602.642 9  20782843.874    85102268.89348
  23632634.250   124190330.990 7  23632632.127    96771681.63344
  22632450.709   118934341.890 8  22632448.372    92676102.96546
  21246392.398   111650554.336 9  21246389.525    87000427.86749
  20409825.742   107254364.782 9  20409826.808    83574838.93149
  22308950.089   117234335.645 8  22308950.294    91351438.48747
  23646893.471   124265270.790 8  23646891.643    96830075.52845
  24147861.472   126897852.707 8  24147858.425    98881430.62445
 18 01 01 00 56 30.0000000  0  8G16G18G20G21G26G27G29G31             0.000000000
  20773735.923   109166726.001 9  20773733.249    85064962.42048
  23617274.455   124109614.595 7  23617272.351    96708785.76745
  22630317.250   118923130.651 8  22630315.028    92667366.96446
  21249621.130   111667521.288 9  21249618.230    87013648.87449
  20412403.974   107267913.479 9  20412405.027    83585396.35149
  22293158.417   117151350.172 8  22293158.570    91286774.50947
  23664994.471   124360392.436 8  23664992.748    96904196.25345
  24168193.198   127004696.777 8  24168190.465    98964685.70545
 18 01 01 00 57 00.0000000  0  8G16G18G20G21G26G27G29G31             0.000000000
  20764709.234   109119290.442 9  20764706.564    85027999.64748
  23601953.304   124029101.289 7  23601951.108    96646048.12445
  22628296.445   118912511.082 8  22628294.161    92659091.98746
  21252933.611   111684928.417 9  21252930.682    87027212.87649
  20415081.150   107281982.162 9  20415082.240    83596358.95549
  22277408.393   117068583.510 8  22277408.461    91222281.01947
  23683111.936   124455600.776 8  23683110.344    96978384.53145
  24188541.179   127111626.294 8  24188538.554    99048007.41045
 18 01 01 00 57 30.0000000  0  7G16G18G20G21G26G29G31                0.000000000
  20755765.421   109072290.069 9  20755762.676    84991375.97648
  23586669.913   123948786.297 7  23586667.589    96583465.01244
  22626386.888   118902476.250 8  22626384.483    92651272.65445
  21256328.150   111702766.928 9  21256325.233    87041113.02649
  20417855.883   107296563.484 9  20417856.997    83607721.02249
  23701244.394   124550887.466 8  23701242.915    97052633.86645
  24208903.473   127218630.984 8  24208900.943    99131387.69145
 18 01 01 00 58 00.0000000  0  8G16G18G20G21G26G27G29G31             0.000000000
  20746902.017   109025712.342 9  20746899.232    84955081.63648
  23571421.997   123868657.802 7  23571419.624    96521027.25344
  22624586.065   118893012.751 8  22624583.573    92643898.51246
  21259801.823   111721021.277 9  21259798.912    87055337.19449
  20420725.514   107311643.434 9  20420726.626    83619471.62149
  22246026.918   116903673.263 8  22246027.010    91093779.56747
  23719388.830   124646237.153 8  23719387.439    97126932.27545
  24229276.676   127325694.164 7  24229274.385    99214813.52345
 18 01 01 00 58 30.0000000  0  8G16G18G20G21G26G27G29G31             0.000000000
  20738131.258   108979621.688 9  20738128.493    84919166.84148
  23556221.986   123788781.199 7  23556219.565    96458785.74945
  22622905.920   118884183.754 8  22622903.460    92637018.79546
  21263366.439   111739753.342 9  21263363.500    87069933.61749
  20423701.966   107327284.856 9  20423703.114    83631659.74049
  22230405.023   116821579.954 8  22230405.143    91029810.76447
  23737556.978   124741711.482 8  23737555.652    97201327.80245
  24249672.604   127432875.777 8  24249670.434    99298331.63245
 18 01 01 00 59 00.0000000  0  9G10G16G18G20G21G26G27G29G31          0.000000000
  25641839.664   134748775.320 6  25641841.335   104999054.44344
  20729440.903   108933953.937 9  20729438.228    84883581.58449
  23541057.926   123709093.059 8  23541055.473    96396691.11444
  22621334.198   118875924.224 8  22621331.732    92630582.81546
  21267009.079   111758895.347 9  21267006.092    87084849.46949
  20426772.727   107343421.938 9  20426773.902    83644234.08349
  22214820.748   116739684.058 8  22214820.800    90965995.78547
  23755736.288   124837243.397 8  23755734.795    97275768.24744
  24270078.132   127540107.214 8  24270075.642    99381888.61444
 18 01 01 00 59 30.0000000  0  9G10G16G18G20G21G26G27G29G31          0.000000000
  25621806.437   134643497.347 5  25621807.930   104917016.2814 
  20720835.942   108888734.750 9  20720833.293    84848345.85248
  23525934.845   123629620.230 7  23525932.293    96334764.22244
  22619875.410   118868258.579 8  22619872.958    92624609.60545
  21270734.238   111778470.996 9  21270731.216    87100103.22249
  20429942.416   107360078.876 9  20429943.612    83657213.50549
  22199278.757   116658010.484 8  22199278.832    90902354.04647
  23773931.008   124932856.439 8  23773929.235    97350271.85944
  24290497.205   127647409.809 8  24290494.446    99465501.05344
 18 01 01 01 00 00.0000000  0  9G10G16G18G20G21G26G27G29G31          0.000000000
  25601753.768   134538118.122 5  25601754.824   104834902.52343
  20712315.789   108843961.062 9  20712313.142    84813457.26549
  23510852.235   123550360.440 7  23510849.586    96273003.35445
  22618528.847   118861182.573 8  22618526.312    92619095.86845
  21274540.831   111798474.681 9  21274537.807    87115690.51149
  20433210.167   107377251.061 9  20433211.370    83670594.42549
  22183778.358   116576555.449 8  22183778.479    90838882.61247
  23792139.882   125028544.631 8  23792137.929    97424834.06244
  24310928.284   127754775.818 8  24310925.479    99549162.84244
 18 01 01 01 00 30.0000000  0  9G10G16G18G20G21G26G27G29G31          0.000000000
  25581682.384   134432646.741 6  25581682.835   104752715.38244
  20703882.159   108799641.732 9  20703879.471    84778922.71549
  23495811.916   123471323.194 7  23495809.390    96211415.90045
  22617296.059   118854704.175 8  22617293.453    92614047.77646
  21278429.879   111818911.952 9  21278426.917    87131615.66849
  20436577.347   107394945.717 9  20436578.566    83684382.46549
  22168321.043   116495326.943 8  22168321.202    90775587.68547
  23810364.231   125124314.396 7  23810362.219    97499459.83544
  24331372.105   127862209.712 7  24331369.312    99632877.56244
 18 01 01 01 01 00.0000000  0  9G10G16G18G20G21G26G27G29G31          0.000000000
  25561591.742   134327070.378 6  25561592.568   104670448.23843
  20695534.738   108755775.383 9  20695531.969    84744741.14549
  23480813.721   123392507.479 7  23480811.290    96150001.06545
  22616176.330   118848820.492 8  22616173.884    92609463.08546
  21282400.492   111839778.037 9  21282397.620    87147874.95749
  20440043.314   107413159.638 9  20440044.579    83698575.12749
  22152906.458   116414322.601 8  22152906.643    90712467.44047
  23828603.325   125220161.389 8  23828601.371    97574145.79045
  24351827.833   127969706.088 8  24351825.090    99716640.98244
 18 01 01 01 01 30.0000000  0  9G10G16G18G20G21G26G27G29G31          0.000000000
  25541482.243   134221394.130 5  25541482.918   104588102.94744
  20687273.029   108712359.740 9  20687270.229    84710910.77748
  23465857.489   123313912.724 7  23465855.170    96088758.41244
  22615169.300   118843528.533 8  22615166.989    92605339.51946
  21286451.922   111861068.739 9  21286449.101    87164465.11649
  20443607.422   107431889.160 9  20443608.700    83713169.55149
  22137533.980   116333539.546 8  22137534.253    90649519.62947
  23846856.150   125316080.694 8  23846854.327    97648888.07344
  24372294.343   128077258.400 8  24372291.514    99800447.97144
 18 01 01 01 02 00.0000000  0  9G10G16G18G20G21G26G27G29G31          0.000000000
  25521354.874   134115623.517 6  25521355.507   104505684.27844
  20679097.971   108669399.595 9  20679095.167    84677435.33349
  23450944.443   123235544.699 7  23450942.229    96027692.41445
  22614275.708   118838832.044 8  22614273.505    92601679.91346
  21290584.509   111882785.703 9  21290581.673    87181387.42949
  20447270.306   107451137.659 9  20447271.585    83728168.37949
  22122204.406   116252982.052 8  22122204.657    90586747.57447
  23865123.256   125412074.967 8  23865121.594    97723688.79745
  24392771.725   128184867.209 8  24392768.911    99884298.97144
 18 01 01 01 02 30.0000000  0  9G10G16G18G20G21G26G27G29G31          0.000000000
  25501209.927   134009761.927 6  25501210.934   104423196.86641
  20671010.099   108626897.734 9  20671007.328    84644317.00549
  23436075.227   123157406.906 7  23436073.061    95966805.82745
  22613495.553   118834732.280 8  22613493.391    92598485.32246
  21294798.357   111904929.489 9  21294795.468    87198642.33649
  20451032.175   107470906.272 9  20451033.430    83743572.48749
  22106918.161   116172652.116 8  22106918.287    90524152.82548
  23883404.681   125508144.422 8  23883403.040    97798548.07745
  24413259.506   128292530.544 8  24413256.686    99968192.47545
 18 01 01 01 03 00.0000000  0  9G10G16G18G20G21G26G27G29G31          0.000000000
  25481048.122   133903811.184 5  25481048.842   104340637.67543
  20663009.646   108584855.134 9  20663006.880    84611556.53049
  23421250.179   123079500.861 7  23421247.903    95906099.81044
  22612828.755   118831228.788 8  22612826.681    92595755.35245
  21299092.988   111927497.717 9  21299090.048    87216227.97049
  20454892.849   107491194.012 9  20454894.064    83759381.11149
  22091675.162   116092549.579 8  22091675.267    90461735.28748
  23901699.932   125604286.849 8  23901698.264    97873464.22744
  24433757.097   128400245.145 7  24433754.157   100052125.95644
 18 01 01 01 03 30.0000000  0  9G10G16G18G20G21G26G27G29G31          0.000000000
  25460869.365   133797771.821 5  25460870.153   104258009.69944
  20655096.577   108543271.588 9  20655093.826    84579153.76949
  23406469.364   123001827.304 8  23406467.033    95845574.95644
  22612275.350   118828320.729 8  22612273.263    92593489.33645
  21303467.802   111950487.446 9  21303464.859    87234142.05049
  20458852.003   107511999.292 9  20458853.198    83775593.00949
  22076475.292   116012673.808 8  22076475.431    90399494.44447
  23920008.614   125700499.821 8  23920006.990    97948435.36044
  24454263.489   128508006.708 7  24454260.439   100136096.00944
 18 01 01 01 04 00.0000000  0  9G10G16G18G20G21G26G27G29G31          0.000000000
  25440674.723   133691647.793 6  25440675.329   104175315.66544
  20647271.402   108502149.814 9  20647268.571    84547110.83049
  23391733.553   122924390.011 7  23391731.269    95785234.21544
  22611835.530   118826009.542 8  22611833.427    92591688.43146
  21307922.701   111973898.282 9  21307919.784    87252384.26749
  20462909.847   107533323.204 9  20462911.030    83792209.04449
  22061318.973   115933026.797 8  22061319.034    90337431.85148
  23938330.943   125796783.770 8  23938329.317    98023461.81744
  24474778.253   128615813.537 7  24474775.461   100220101.28244
 18 01 01 01 04 30.0000000  0  9G10G16G18G20G21G26G27G29G31          0.000000000
  25420464.976   133585444.828 6  25420465.512   104092560.15145
  20639535.091   108461495.061 9  20639532.207    84515431.79849
  23377043.879   122847195.430 7  23377041.596    95725082.60045
  22611509.911   118824298.880 8  22611507.797    92590355.46646
  21312458.167   111997732.794 9  21312455.322    87270956.62049
  20467067.025   107555169.222 9  20467068.203    83809231.90549
  22046206.972   115853612.925 8  22046207.081    90275550.93248
  23956667.113   125893141.486 8  23956665.772    98098545.72145
  24495301.945   128723666.697 7  24495299.242   100304142.73544
 18 01 01 01 05 00.0000000  0  9G10G16G18G20G21G26G27G29G31          0.000000000
  25400239.587   133479159.488 5  25400239.822   104009740.42244
  20631886.665   108421302.401 9  20631883.824    84484112.85149
  23362399.645   122770239.536 8  23362397.397    95665116.98245
  22611297.478   118823182.906 8  22611295.299    92589485.89745
  21317072.842   112021983.519 9  21317070.073    87289853.29549
  20471322.373   107577531.132 9  20471323.540    83826656.76449
  22031138.321   115774426.943 8  22031138.467    90213847.58647
  23975015.889   125989565.372 8  23975014.768    98173681.18544
  24515832.859   128831557.201 8  24515830.147   100388213.25344
 18 01 01 01 05 30.0000000  0  9G10G16G18G20G21G26G27G29G31          0.000000000
  25379999.227   133372795.498 7  25379999.529   103926859.33443
  20624326.839   108381575.243 9  20624323.991    84453156.62549
  23347801.686   122693526.075 8  23347799.434    95605340.25945
  22611198.670   118822663.502 8  22611196.388    92589081.17745
  21321766.805   112046650.620 9  21321764.077    87309074.41649
  20475676.129   107600410.239 9  20475677.281    83844484.63349
  22016113.483   115695471.140 8  22016113.664    90152323.60347
  23993377.573   126086055.731 8  23993376.051    98248868.49744
  24536370.654   128939483.831 7  24536367.942   100472311.95545
 18 01 01 01 06 00.0000000  0  9G10G16G18G20G21G26G27G29G31          0.000000000
  25359745.108   133266359.983 6  25359745.698   103843922.68944
  20616856.697   108342319.367 9  20616853.815    84422567.62949
  23333251.184   122617062.248 8  23333248.929    95545758.06045
  22611214.257   118822745.286 8  22611211.952    92589144.92045
  21326540.781   112071737.992 9  21326538.036    87328623.02249
  20480129.146   107623810.952 9  20480130.266    83862718.94249
  22001133.512   115616750.893 8  22001133.669    90090983.17348
  24011752.607   126182616.492 8  24011750.697    98324110.67544
  24556915.580   129047448.508 7  24556912.923   100556440.26444
 18 01 01 01 06 30.0000000  0  9G10G16G18G20G21G26G27G29G31          0.000000000
  25339475.054   133159840.349 6  25339475.715   103760920.29043
  20609473.670   108303521.320 9  20609470.801    84392335.38649
  23318745.768   122540835.619 8  23318743.445    95486360.69844
  22611341.466   118823413.445 8  22611339.165    92589665.57546
  21331391.520   112097228.572 9  21331388.717    87348485.81649
  20484678.514   107647718.034 9  20484679.607    83881347.83549
  21986195.677   115538251.898 8  21986195.740    90029815.14048
  24030137.785   126279231.567 8  24030135.932    98399395.06544
  24577464.429   129155433.326 7  24577461.883   100640584.24745
 18 01 01 01 07 00.0000000  0  9G10G16G18G20G21G26G27G29G31          0.000000000
  25319195.490   133053271.490 4  25319196.468   103677879.70443
  20602184.218   108265214.892 9  20602181.326    84362486.22249
  23304292.065   122464881.056 8  23304289.659    95427175.35145
  22611586.343   118824700.853 8  22611584.202    92590668.76846
  21336324.964   112123153.708 9  21336322.107    87368687.22749
  20489330.379   107672163.812 9  20489331.459    83900396.48749
  21971306.273   115460007.558 8  21971306.252    89968845.54047
  24048539.360   126375932.463 8  24048537.604    98474746.38045
  24598022.695   129263468.200 7  24598020.230   100724767.26644
 18 01 01 01 07 30.0000000  0  9G10G16G18G20G21G26G27G29G31          0.000000000
  25298902.896   132946633.083 5  25298904.005   103594784.80743
  20594984.212   108227378.699 9  20594981.294    84333003.47249
  23289886.142   122389177.531 8  23289883.689    95368185.59144
  22611944.586   118826584.340 8  22611942.542    92592136.45445
  21341336.416   112149488.848 9  21341333.545    87389208.11849
  20494080.346   107697125.071 9  20494081.457    83919846.81249
  21956461.100   115381995.669 9  21956461.058    89908057.07148
  24066952.821   126472695.506 8  24066951.133    98550146.12844
  24618585.574   129371527.166 7  24618583.165   100808969.06344
 18 01 01 01 08 00.0000000  0 10G08G10G16G18G20G21G26G27G29G31       0.000000000
  25426441.827   133616853.201 5  25426443.121   104117032.89142
  25278595.286   132839916.458 6  25278596.618   103511629.12544
  20587871.963   108190003.813 9  20587869.111    84303880.19049
  23275526.502   122313717.011 8  23275523.987    95309385.19744
  22612414.400   118829053.247 8  22612412.192    92594060.27645
  21346423.638   112176222.312 9  21346420.778    87410039.38749
  20498926.285   107722590.706 9  20498927.462    83939690.15749
  21941658.233   115304206.167 9  21941658.154    89847441.88748
  24085375.740   126569508.572 8  24085374.103    98625584.87444
  24639150.485   129479596.500 7  24639148.161   100893178.93144
 18 01 01 01 08 30.0000000  0 10G08G10G16G18G20G21G26G27G29G31       0.000000000
  25407691.384   133518319.054 5  25407692.106   104040253.14944
  25258277.433   132733144.885 6  25258278.299   103428430.34644
  20580851.567   108153111.656 9  20580848.812    84275133.05949
  23261217.535   122238522.333 8  23261214.880    95250791.93545
  22612999.681   118832128.100 8  22612997.127    92596456.28245
  21351590.209   112203372.795 9  21351587.368    87431195.61149
  20503872.050   107748580.870 9  20503873.252    83959942.22549
  21926901.748   115226660.278 9  21926901.658    89787016.52548
  24103811.852   126666391.071 8  24103810.214    98701077.74744
  24659720.919   129587694.419 7  24659718.622   100977411.05544
 18 01 01 01 09 00.0000000  0 10G08G10G16G18G20G21G26G27G29G31       0.000000000
  25388947.077   133419817.398 5  25388947.917   103963498.65743
  25237948.695   132626315.906 6  25237949.339   103345187.10144
  20573922.352   108116698.538 9  20573919.610    84246759.20249
  23246958.569   122163590.559 8  23246955.829    95192403.54545
  22613699.298   118835804.235 8  22613696.575    92599320.81946
  21356834.964   112230934.125 9  21356832.101    87452671.98049
  20508916.675   107775090.505 9  20508917.873    83980599.07749
  21912190.774   115149353.992 9  21912190.755    89726777.87948
  24122260.181   126763337.151 8  24122258.416    98776620.10844
  24680295.187   129695813.054 7  24680292.988   101061659.36045
 18 01 01 01 09 30.0000000  0 10G08G10G16G18G20G21G26G27G29G31       0.000000000
  25370208.578   133321345.674 4  25370209.626   103886767.51444
  25217608.754   132519429.536 6  25217609.569   103261899.00845
  20567084.246   108080763.872 9  20567081.432    84218758.16049
  23232749.590   122088922.045 8  23232746.929    95134220.30344
  22614512.761   118840079.180 8  22614510.123    92602651.94845
  21362157.161   112258902.482 9  21362154.269    87474465.50749
  20514059.617   107802116.900 9  20514060.792    84001658.59949
  21897525.096   115072285.709 9  21897525.216    89666724.68948
  24140719.900   126860343.548 8  24140718.134    98852209.51844
  24700872.466   129803947.240 7  24700870.357   101145919.74544
 18 01 01 01 10 00.0000000  0 10G08G10G16G18G20G21G26G27G29G31       0.000000000
  25351477.690   133222914.332 5  25351478.861   103810064.84044
  25197260.269   132412497.713 6  25197261.261   103178575.52146
  20560339.222   108045318.398 9  20560336.395    84191138.31649
  23218592.989   122014528.696 8  23218590.426    95076251.45845
  22615441.934   118844962.257 8  22615439.415    92606456.96646
  21367558.270   112287285.544 9  21367555.350    87496582.18049
  20519302.618   107829669.100 9  20519303.778    84023127.84349
  21882906.626   114995465.615 9  21882906.840    89606864.89348
  24159192.496   126957418.798 7  24159191.039    98927852.57544
  24721453.984   129912104.042 7  24721451.971   101230197.78044
 18 01 01 01 10 30.0000000  0 10G08G10G16G18G20G21G26G27G29G31       0.000000000
  25332751.248   133124506.502 4  25332752.662   103733383.38842
  25176900.439   132305505.970 5  25176901.517   103095205.31844
  20553684.318   108010346.513 9  20553681.461    84163887.49749
  23204485.893   121940395.528 8  23204483.416    95018485.37845
  22616483.561   118850436.493 8  22616481.212    92610722.62145
  21373034.882   112316065.494 9  21373031.941    87519008.11649
  20524642.379   107857729.722 9  20524643.544    84044993.26449
  21868332.319   114918877.422 9  21868332.575    89547185.79748
  24177674.826   127054544.867 7  24177673.602    99003535.21245
  24742035.903   130020262.952 7  24742033.903   101314477.40744
 18 01 01 01 11 00.0000000  0 10G08G10G16G18G20G21G26G27G29G31       0.000000000
  25314031.260   133026132.555 5  25314033.149   103656728.46244
  25156531.394   132198466.141 6  25156532.419   103011797.74443
  20547121.550   107975858.929 9  20547118.685    84137014.05449
  23190430.581   121866534.503 8  23190428.162    94960931.35145
  22617639.595   118856511.203 8  22617637.352    92615456.17446
  21378588.464   112345249.989 9  21378585.514    87541749.28549
  20530080.614   107886307.850 9  20530081.781    84067261.91949
  21853804.146   114842531.384 9  21853804.375    89487695.39748
  24196168.517   127151729.844 8  24196167.278    99079263.77244
  24762619.738   130128431.503 7  24762617.692   101398764.59344
 18 01 01 01 11 30.0000000  0 10G08G10G16G18G20G21G26G27G29G31       0.000000000
  25295317.576   132927791.124 5  25295319.092   103580098.79844
  25136153.282   132091378.991 5  25136154.274   102928353.11843
  20540650.840   107941855.229 9  20540647.996    84110517.66549
  23176427.107   121792945.929 8  23176424.771    94903589.62245
  22618909.570   118863184.386 8  22618907.235    92620656.09146
  21384218.478   112374836.084 9  21384215.520    87564803.39249
  20535616.935   107915401.372 9  20535618.121    84089932.18849
  21839321.914   114766426.535 9  21839322.034    89428392.92548
  24214672.990   127248970.980 7  24214671.706    99155036.08644
  24783204.460   130236604.967 7  24783202.512   101483055.60644
 18 01 01 01 12 00.0000000  0 10G08G10G16G18G20G21G26G27G29G31       0.000000000
  25276610.996   132829487.079 5  25276612.504   103503498.25344
  25115767.695   131984251.707 6  25115768.550   102844877.34444
  20534273.356   107908341.345 9  20534270.543    84084402.94949
  23162476.871   121719636.907 8  23162474.462    94846465.70945
  22620294.190   118870460.586 8  22620291.790    92626325.87046
  21389925.427   112404826.466 9  21389922.505    87588172.51649
  20541252.141   107945014.526 9  20541253.333    84113007.36449
  21824886.586   114690568.241 9  21824886.595    89369282.58348
  24233188.837   127346272.306 7  24233187.527    99230855.27345
  24803790.557   130344785.168 7  24803788.542   101567351.85845
 18 01 01 01 12 30.0000000  0 10G08G10G16G18G20G21G26G27G29G31       0.000000000
  25257910.783   132731217.164 5  25257912.417   103426924.39644
  25095374.013   131877082.156 6  25095374.949   102761368.62444
  20527988.504   107875314.287 9  20527985.731    84058667.57649
  23148579.478   121646605.251 8  23148576.978    94789557.92145
  22621792.739   118878335.174 8  22621790.143    92632461.91246
  21395708.260   112435215.591 9  21395705.391    87611852.36149
  20546985.270   107975142.282 9  20546986.442    84136483.53049
  21810497.453   114614952.724 9  21810497.440    89310361.41148
  24251715.063   127443628.351 7  24251713.835    99306717.14144
  24824376.543   130452964.719 7  24824374.450   101651647.58344
 18 01 01 01 13 00.0000000  0 10G08G10G16G18G20G21G26G27G29G31       0.000000000
  25239217.456   132632983.668 6  25239219.264   103350378.80745
  25074973.331   131769875.490 6  25074974.158   102677830.97344
  20521796.971   107842777.589 9  20521794.207    84033314.30949
  23134735.764   121573855.897 8  23134733.211    94732870.11645
  22623405.595   118886810.647 8  22623402.795    92639066.18945
  21401567.154   112466004.317 9  21401564.296    87635843.57749
  20552816.724   108005786.712 9  20552817.882    84160362.30549
  21796155.134   114539583.304 9  21796155.187    89251632.02148
  24270252.046   127541040.483 7  24270250.715    99382622.68244
  24844962.339   130561143.446 7  24844960.281   101735942.69544
 18 01 01 01 13 30.0000000  0 10G08G10G16G18G20G21G26G27G29G31       0.000000000
  25220530.978   132534785.712 5  25220532.677   103273861.02744
  25054565.660   131662632.372 7  25054566.344   102594264.89443
  20515698.690   107810730.827 9  20515695.900    84008342.80149
  23120945.755   121501389.193 8  23120943.172    94676402.54445
  22625132.248   118895884.624 8  22625129.574    92646136.82146
  21407501.457   112497189.247 9  21407498.607    87660143.53049
  20558746.086   108036945.562 9  20558747.224    84184641.92449
  21781859.412   114464458.904 9  21781859.452    89193093.54148
  24288799.147   127638505.912 7  24288797.677    99458569.76044
  24865547.078   130669316.694 7  24865545.089   101820233.51944
 18 01 01 01 14 00.0000000  0 10G08G10G16G18G20G21G26G27G29G31       0.000000000
  25201851.589   132436625.293 6  25201853.223   103197372.46544
  25034151.901   131555356.803 6  25034152.386   102510673.48444
  20509694.220   107779177.051 9  20509691.402    83983755.43949
  23107210.159   121429208.729 8  23107207.700    94620158.06145
  22626973.145   118905558.435 8  22626970.634    92653674.87845
  21413511.195   112528770.562 9  21413508.324    87684752.35249
  20564773.543   108068619.857 9  20564774.666    84209323.17649
  21767610.719   114389581.753 9  21767610.666    89134747.71448
  24307356.472   127736025.065 7  24307355.052    99534558.70144
  24886130.527   130777483.428 7  24886128.475   101904519.28144
 18 01 01 01 14 30.0000000  0 10G08G10G16G18G20G21G26G27G29G31       0.000000000
  25183179.855   132338504.709 6  25183181.363   103120914.86544
  25013732.707   131448053.100 6  25013733.343   102427060.28445
  20503784.055   107748118.859 9  20503781.231    83959554.25449
  23093529.836   121357318.733 8  23093527.453    94564139.88545
  22628928.462   118915833.375 8  22628926.048    92661681.33046
  21419596.302   112560747.934 9  21419593.403    87709669.77949
  20570899.301   108100810.829 9  20570900.439    84234407.04349
  21753409.552   114314954.391 9  21753409.493    89076596.53548
  24325923.945   127833598.260 7  24325922.591    99610589.76244
  24906712.516   130885642.501 7  24906710.375   101988799.05944
 18 01 01 01 15 00.0000000  0 10G08G10G16G18G20G21G26G27G29G31       0.000000000
  25164515.187   132240421.335 5  25164516.672   103044486.30041
  24993307.889   131340720.739 6  24993308.743   102343424.72344
  20497967.881   107717554.766 9  20497965.110    83935738.07949
  23079904.812   121285718.965 8  23079902.462    94508347.86545
  22630997.558   118926706.768 8  22630995.328    92670154.13546
  21425756.070   112593117.598 9  21425753.122    87734892.90349
  20577122.730   108133515.056 9  20577123.849    84259890.85049
  21739255.540   114240574.659 9  21739255.487    89018638.31148
  24344501.374   127931222.918 7  24344499.804    99686660.93744
  24927292.028   130993788.543 7  24927289.817   102073068.69843
 18 01 01 01 15 30.0000000  0 10G08G10G16G18G20G21G26G27G29G31       0.000000000
  25145857.876   132142377.124 6  25145859.394   102968088.27243
  24972878.571   131233363.653 6  24972879.173   102259769.77444
  20492246.156   107687487.028 9  20492243.414    83912308.66849
  23066335.639   121214412.292 8  23066333.326    94452784.24545
  22633180.425   118938178.979 8  22633178.362    92679093.51745
  21431990.454   112625879.349 9  21431987.451    87760421.53649
  20583443.916   108166733.086 9  20583445.014    84285775.02149
  21725149.041   114166444.452 9  21725149.031    88960874.52948
  24363088.395   128028898.302 7  24363086.694    99762771.61145
  24947868.725   131101919.590 7  24947866.499   102157326.65344
 18 01 01 01 16 00.0000000  0 10G08G10G16G18G20G21G26G27G29G31       0.000000000
  25127208.855   132044375.651 6  25127210.298   102891723.54744
  24952445.280   131125987.044 5  24952445.788   102176099.75045
  20486619.728   107657920.095 9  20486617.016    83889269.49849
  23052823.202   121143403.765 8  23052820.895    94397452.91545
  22635477.879   118950252.565 8  22635475.663    92688501.53545
  21438299.639   112659034.242 9  21438296.632    87786256.51849
  20589863.315   108200467.419 9  20589864.448    84312061.51349
  21711090.734   114092567.521 9  21711090.754    88903308.10248
  24381685.256   128126626.464 7  24381683.836    99838923.37844
  24968442.739   131210036.413 7  24968440.620   102241573.52244
 18 01 01 01 16 30.0000000  0 10G08G10G16G18G20G21G26G27G29G31       0.000000000
  25108567.026   131946412.043 6  25108568.315   102815388.28445
  24932007.992   131018588.398 6  24932008.673   102092412.53144
  20481087.851   107628849.971 9  20481085.141    83866617.45349
  23039366.875   121072690.602 8  23039364.626    94342351.77445
  22637888.856   118962922.118 8  22637886.431    92698373.90945
  21444682.190   112692574.725 9  21444679.197    87812391.96249
  20596379.842   108234712.093 9  20596381.005    84338745.66949
  21697079.698   114018939.251 9  21697079.753    88845935.43948
  24400291.146   128224400.934 8  24400289.706    99915111.26644
  24989012.451   131318130.682 7  24989010.215   102325802.77944
 18 01 01 01 17 00.0000000  0 11G07G08G10G16G18G20G21G26G27G29G31    0.000000000
  25403783.764   133497793.528 5  25403793.529   104024248.6274 
  25089932.426   131848487.260 5  25089933.970   102739083.29043
  24911567.284   130911170.706 7  24911568.051   102008710.40344
  20475650.796   107600277.880 9  20475648.026    83844353.48349
  23025967.221   121002275.177 8  23025965.005    94287482.61745
  22640413.295   118976187.699 8  22640410.703    92708710.73745
  21451138.117   112726500.808 9  21451135.150    87838827.87049
  20602993.463   108269466.971 9  20602994.655    84365827.38249
  21683116.226   113945560.835 9  21683116.317    88788757.46148
  24418905.979   128322221.440 7  24418904.383    99991335.03644
  25009577.486   131426200.065 7  25009574.983   102410012.68444
 18 01 01 01 17 30.0000000  0 11G07G08G10G16G18G20G21G26G27G29G31    0.000000000
  25387400.106   133411684.702 5  25387396.868   103957137.01243
  25071307.091   131750610.816 6  25071308.779   102662815.96944
  24891124.915   130803745.414 6  24891125.591   101925002.37944
  20470310.521   107572214.474 9  20470307.737    83822485.89649
  23012626.468   120932169.135 8  23012624.239    94232854.55745
  22643052.571   118990057.643 8  22643050.203    92719518.50546
  21457668.710   112760819.255 9  21457665.756    87865569.52149
  20609705.780   108304740.478 9  20609706.984    84393313.22549
  21669202.147   113872442.092 9  21669202.249    88731781.84548
  24437531.065   128420095.936 7  24437529.462   100067600.85144
  25030138.855   131534250.673 7  25030136.436   102494207.93944
 18 01 01 01 18 00.0000000  0 11G07G08G10G16G18G20G21G26G27G29G31    0.000000000
  25371074.377   133325891.992 6  25371069.596   103890285.56343
  25052689.168   131652773.406 5  25052690.965   102586579.04045
  24870679.506   130696305.079 6  24870680.198   101841282.64544
  20465065.336   107544650.650 9  20465062.514    83801007.58849
  22999343.046   120862364.559 8  22999340.817    94178461.39445
  22645804.863   119004521.652 8  22645802.620    92730789.17246
  21464271.833   112795518.969 9  21464268.907    87892608.26549
  20616514.768   108340522.008 9  20616515.982    84421194.92549
  21655335.793   113799573.759 9  21655335.788    88675001.32648
  24456164.291   128518013.674 7  24456162.725   100143900.34645
  25050694.383   131642270.316 7  25050691.802   102578379.07945
 18 01 01 01 18 30.0000000  0 11G07G08G10G16G18G20G21G26G27G29G31    0.000000000
  25354809.327   133240418.678 6  25354805.390   103823682.9994 
  25034079.692   131554980.157 6  25034081.487   102510376.55845
  24850232.936   130588857.022 7  24850233.542   101757556.87145
  20459916.222   107517591.810 9  20459913.395    83779922.77749
  22986118.264   120792867.934 8  22986116.000    94124308.20745
  22648671.081   119019584.132 8  22648668.926    92742526.17745
  21470948.013   112830602.616 9  21470945.092    87919946.17449
  20623421.183   108376815.538 9  20623422.435    84449475.59649
  21641518.068   113726961.224 9  21641518.079    88618420.15148
  24474806.290   128615978.123 7  24474804.733   100220236.25044
  25071244.345   131750260.950 7  25071241.755   102662527.60844
 18 01 01 01 19 00.0000000  0 10G07G08G10G16G18G20G21G26G29G31       0.000000000
  25338605.199   133155264.574 6  25338601.985   103757329.0844 
  25015478.394   131457229.717 5  25015480.322   102434207.43045
  24829784.947   130481401.361 6  24829785.597   101673825.21644
  20454863.084   107491037.386 9  20454860.267    83759231.01849
  22972952.268   120723679.823 8  22972949.860    94070395.39545
  22651650.777   119035241.978 8  22651648.250    92754727.09745
  21477696.588   112866066.719 9  21477693.715    87947580.54049
  20630424.467   108413618.035 9  20630425.750    84478152.85549
  24493456.646   128713986.053 7  24493455.110   100296606.03344
  25091787.675   131858217.307 6  25091785.026   102746649.44944
 18 01 01 01 19 30.0000000  0 11G07G08G10G16G18G20G21G26G27G29G31    0.000000000
  25322463.275   133070438.910 5  25322460.113   103691231.21343
  24996886.398   131359528.653 5  24996888.552   102358076.78344
  24809337.053   130373947.309 6  24809337.841   101590094.81444
  20449907.433   107464995.233 9  20449904.619    83738938.42749
  22959846.584   120654808.693 8  22959844.107    94016729.59645
  22654744.993   119051501.330 8  22654742.217    92767396.71746
  21484518.440   112901915.830 9  21484515.593    87975514.91849
  20637525.766   108450935.498 9  20637527.050    84507231.38949
  21614029.194   113582506.104 9  21614029.204    88505857.74248
  24512116.302   128812043.109 7  24512114.706   100373014.13844
  25112325.209   131966143.239 7  25112322.605   102830747.55344
 18 01 01 01 20 00.0000000  0 11G07G08G10G16G18G20G21G26G27G29G31    0.000000000
  25306383.022   132985937.860 5  25306380.114   103625386.20342
  24978302.827   131261871.675 5  24978304.925   102281980.43244
  24788889.057   130266491.431 7  24788889.487   101506362.87345
  20445048.235   107439460.068 9  20445045.450    83719040.89449
  22946800.348   120586250.273 8  22946797.802    93963307.46245
  22657952.160   119068355.362 8  22657949.515    92780529.73745
  21491412.108   112938142.271 9  21491409.265    88003743.31448
  20644723.764   108488761.082 9  20644725.042    84536705.86349
  21600358.387   113510665.569 9  21600358.334    88449878.11148
  24530783.907   128910142.303 7  24530782.324   100449455.03244
  25132855.403   132074030.214 7  25132852.876   102914815.31044
 18 01 01 01 20 30.0000000  0 11G07G08G10G16G18G20G21G26G27G29G31    0.000000000
  25290365.763   132901766.878 6  25290362.654   103559798.59842
  24959728.383   131164262.091 5  24959730.394   102205921.06446
  24768441.583   130159039.160 6  24768442.083   101422633.88744
  20440286.317   107414435.961 9  20440283.530    83699541.58849
  22933814.492   120518009.594 8  22933811.946    93910132.92245
  22661272.829   119085806.508 8  22661270.529    92794128.08346
  21498377.780   112974747.093 9  21498374.902    88032266.55749
  20652018.860   108527096.979 9  20652020.130    84566577.98249
  21586736.990   113439084.822 9  21586736.914    88394100.91748
  24549459.878   129008285.575 7  24549458.452   100525930.27544
  25153378.171   132181878.312 7  25153375.764   102998852.78644
 18 01 01 01 21 00.0000000  0 11G07G08G10G16G18G20G21G26G27G29G31    0.000000000
  25274411.226   132817925.364 6  25274408.011   103494467.50243
  24941162.573   131066697.870 6  24941164.551   102129897.01344
  24747994.691   130051590.088 7  24747995.294   101338907.37844
  20435621.336   107389921.210 9  20435618.539    83680439.17749
  22920888.986   120450086.317 8  22920886.471    93857205.71345
  22664706.574   119103851.117 8  22664704.360    92808188.80246
  21505414.842   113011727.040 9  21505411.929    88061082.10049
  20659410.380   108565939.573 9  20659411.623    84596844.93249
  21573164.665   113367761.817 9  21573164.603    88338524.55248
  24568143.498   129106469.023 7  24568142.195   100602436.83044
  25173892.605   132289681.875 7  25173889.981   103082855.56844
 18 01 01 01 21 30.0000000  0 11G07G08G10G16G18G20G21G26G27G29G31    0.000000000
  25258520.639   132734419.554 6  25258517.358   103429398.00941
  24922606.141   130969183.328 6  24922608.210   102053911.65444
  24727549.681   129944150.901 7  24727550.153   101255188.49544
  20431054.169   107365920.606 9  20431051.383    83661737.40949
  22908025.117   120382486.599 8  22908022.600    93804530.63045
  22668254.086   119122492.826 8  22668251.784    92822714.81746
  21512523.577   113049083.680 9  21512520.609    88090191.17249
  20666898.923   108605292.062 9  20666900.164    84627509.20349
  21559642.268   113296701.211 9  21559642.266    88283152.65948
  24586835.393   129204695.824 7  24586834.109   100678977.17143
  25194398.785   132397442.260 7  25194395.979   103166824.68644
 18 01 01 01 22 00.0000000  0 11G07G08G10G16G18G20G21G26G27G29G31    0.000000000
  25242693.598   132651248.099 6  25242690.690   103364589.1144 
  24904058.645   130871715.254 6  24904060.379   101977962.52544
  24707106.346   129836720.517 6  24707106.637   101171476.47844
  20426584.397   107342431.855 9  20426581.649    83643434.48949
  22895222.581   120315208.755 8  22895220.018    93752106.33945
  22671914.368   119141727.317 8  22671911.987    92837702.74046
  21519702.994   113086811.780 9  21519699.981    88119589.68948
  20674483.652   108645150.093 9  20674484.885    84658567.40649
  21546169.307   113225900.154 9  21546169.327    88227983.01448
  24605534.719   129302961.134 7  24605533.274   100755547.55644
  25214895.507   132505153.165 7  25214892.590   103250755.24444
 18 01 01 01 22 30.0000000  0 11G07G08G10G16G18G20G21G26G27G29G31    0.000000000
  25226931.608   132568418.525 6  25226928.751   103300046.65943
  24885521.206   130774299.814 6  24885522.759   101902054.41045
  24686666.015   129729306.679 6  24686666.578   101087777.45045
  20422213.206   107319461.168 9  20422210.474    83625535.25049
  22882482.785   120248260.471 8  22882480.249    93699938.86245
  22675688.257   119161558.854 8  22675685.741    92853155.89746
  21526953.706   113124914.704 9  21526950.719    88149280.27949
  20682165.422   108685518.040 9  20682166.609    84690022.93949
  21532746.830   113155364.554 9  21532746.844    88173020.22148
  24624242.117   129401269.491 7  24624240.824   100832151.38545
  25235383.161   132612817.169 6  25235380.261   103334649.23544
 18 01 01 01 23 00.0000000  0 11G07G08G10G16G18G20G21G26G27G29G31    0.000000000
  25211234.310   132485928.729 6  25211231.217   103235768.96843
  24866992.906   130676932.844 6  24866994.633   101826184.02844
  24666228.435   129621907.452 7  24666229.167   101004089.71845
  20417939.912   107297004.970 9  20417937.186    83608036.91149
  22869805.044   120181638.299 8  22869802.496    93648025.49946
  22679574.649   119181982.355 8  22679572.161    92869070.31746
  21534274.494   113163385.902 9  21534271.568    88179257.83649
  20689943.208   108726390.539 9  20689944.339    84721871.63449
  21519374.117   113085090.626 9  21519374.142    88118261.32148
  24642956.589   129499614.924 7  24642955.300   100908784.18345
  25255860.450   132720426.952 6  25255857.764   103418501.04243
 18 01 01 01 23 30.0000000  0 11G07G08G10G16G18G20G21G26G27G29G31    0.000000000
  25195602.444   132403783.217 6  25195599.786   103171759.51043
  24848474.339   130579617.026 6  24848476.196   101750353.57044
  24645794.731   129514527.537 6  24645795.324   100920417.02945
  20413765.114   107275066.317 9  20413762.395    83590941.85449
  22857190.360   120115347.746 8  22857187.809    93596370.53345
  22683573.893   119202998.943 8  22683571.556    92885446.88746
  21541665.594   113202226.633 9  21541662.733    88209523.34348
  20697817.216   108767768.788 9  20697818.353    84754114.42149
  21506051.757   113015081.117 9  21506051.749    88063708.46648
  24661678.534   129597999.112 7  24661677.089   100985447.18243
  25276327.349   132827982.174 6  25276324.830   103502310.31244
 18 01 01 01 24 00.0000000  0 11G07G08G10G16G18G20G21G26G27G29G31    0.000000000
  25180036.692   132321985.056 6  25180034.484   103108020.75343
  24829965.642   130482353.491 6  24829967.334   101674563.84745
  24625365.265   129407170.399 6  24625365.823   100836762.12544
  20409689.159   107253647.076 9  20409686.494    83574251.53849
  22844639.188   120049391.140 8  22844636.737    93544975.77545
  22687686.030   119224608.968 8  22687683.810    92902285.89146
  21549126.849   113241435.992 9  21549124.031    88240076.09048
  20705787.474   108809652.912 9  20705788.642    84786751.39749
  21492780.089   112945337.653 9  21492779.983    88009362.90848
  24680407.807   129696421.600 7  24680406.271   101062140.01944
  25296783.612   132935480.792 6  25296781.169   103586075.43843
 18 01 01 01 24 30.0000000  0 11G07G08G10G16G18G20G21G26G27G29G31    0.000000000
  25164537.148   132240534.802 6  25164534.798   103044552.95343
  24811466.814   130385141.643 6  24811468.335   101598814.38145
  24604940.433   129299837.183 7  24604941.129   100753125.86345
  20405711.992   107232746.725 9  20405709.311    83557965.54949
  22832151.661   119983768.931 8  22832149.276    93493841.60446
  22691910.707   119246809.831 8  22691908.575    92919585.26046
  21556657.632   113281010.687 9  21556654.848    88270913.51448
  20713853.543   108852040.504 9  20713854.729    84819780.68049
  21479558.841   112875859.466 9  21479558.703    87955224.07548
  24699143.745   129794880.129 7  24699142.443   101138860.82344
  25317228.339   133042918.506 7  25317225.931   103669793.10044
 18 01 01 01 25 00.0000000  0 11G07G08G10G16G18G20G21G26G27G29G31    0.000000000
  25149104.373   132159435.813 5  25149101.816   102981358.91544
  24792978.030   130287982.924 6  24792979.589   101523106.35344
  24584520.914   129192531.571 6  24584521.620   100669511.06645
  20401833.976   107212367.358 9  20401831.241    83542085.52049
  22819728.430   119918484.252 8  22819726.034    93442970.43446
  22696247.997   119269601.991 8  22696245.754    92937345.39646
  21564257.867   113320950.209 9  21564255.080    88302035.21848
  20722015.466   108894931.743 9  20722016.653    84853202.41349
  21466388.445   112806648.350 9  21466388.247    87901293.34148
  24717886.766   129893374.815 7  24717885.391   101215609.96643
  25337661.448   133150294.347 6  25337659.050   103753462.57244
 18 01 01 01 25 30.0000000  0 11G07G08G10G16G18G20G21G26G27G29G31    0.000000000
  25133739.036   132078691.273 6  25133736.748   102918441.12944
  24774499.677   130190878.864 5  24774501.481   101447440.85145
  24564107.090   129085256.653 7  24564108.072   100585920.25844
  20398055.326   107192510.294 9  20398052.584    83526612.48049
  22807369.966   119853540.084 8  22807367.646    93392364.60146
  22700697.617   119292985.082 8  22700695.290    92955565.99646
  21571927.278   113361253.210 9  21571924.519    88333440.16048
  20730273.196   108938326.368 9  20730274.386    84887016.39749
  21453269.110   112737705.669 9  21453268.913    87847571.78048
  24736636.489   129991905.277 7  24736634.977   101292386.97843
  25358082.237   133257605.743 6  25358079.724   103837081.82744
 18 01 01 01 26 00.0000000  0 11G07G08G10G16G18G20G21G26G27G29G31    0.000000000
  25118441.815   131998304.370 6  25118439.927   102855801.96943
  24756031.991   130093830.438 6  24756033.811   101371818.75344
  24543699.968   128978016.167 7  24543700.836   100502356.19945
  20394376.467   107173177.741 9  20394373.699    83511548.15149
  22795076.842   119788939.188 8  22795074.515    93342026.24246
  22705259.684   119316959.187 8  22705257.430    92974247.11846
  21579665.663   113401918.611 9  21579662.911    88365127.48749
  20738626.718   108982224.323 9  20738627.909    84921222.58549
  21440201.114   112669033.020 9  21440200.981    87794060.63148
  24755392.745   130090471.771 7  24755391.562   101369191.99844
  25378490.347   133364851.015 6  25378487.576   103920649.60544
 18 01 01 01 26 30.0000000  0 11G07G08G10G16G18G20G21G26G27G29G31    0.000000000
  25103212.433   131918273.524 6  25103210.539   102793440.29143
  24737574.310   129996834.806 6  24737575.952   101296237.73145
  24523299.154   128870808.935 6  24523300.080   100418818.09745
  20390796.914   107154366.916 9  20390794.095    83496890.36749
  22782848.749   119724680.018 8  22782846.398    93291954.17646
  22709933.540   119341519.949 8  22709931.151    92993385.38446
  21587472.110   113442941.583 9  21587469.321    88397093.44648
  20747075.179   109026621.092 9  20747076.339    84955817.46549
  21427183.919   112600627.500 9  21427183.847    87740757.64548
  24774155.250   130189069.364 7  24774154.135   101446021.28544
  25398884.709   133472024.431 6  25398881.887   104004161.35244
 18 01 01 01 27 00.0000000  0 11G07G08G10G16G18G20G21G26G27G29G31    0.000000000
  25088052.382   131838606.105 7  25088050.066   102731361.76143
  24719127.665   129899896.989 6  24719129.198   101220701.81644
  24502905.888   128763642.154 7  24502906.896   100335311.56744
  20387317.668   107136083.294 9  20387314.815    83482643.38749
  22770686.730   119660768.041 8  22770684.310    93242152.64345
  22714719.723   119366671.028 8  22714717.185    93012983.63146
  21595347.176   113484325.086 9  21595344.314    88429340.33048
  20755619.268   109071520.348 9  20755620.406    84990803.88649
  21414218.657   112532494.517 9  21414218.536    87687667.00448
  24792924.505   130287701.723 7  24792923.370   101522877.66344
  25419265.690   133579127.652 6  25419262.931   104087618.37544
 18 01 01 01 27 30.0000000  0 11G07G08G10G16G18G20G21G26G27G29G31    0.000000000
  25072961.088   131759300.055 6  25072958.714   102669564.84344
  24700691.372   129803013.639 6  24700692.892   101145208.34344
  24482520.311   128656514.596 7  24482521.207   100251835.51244
  20383938.058   107118323.418 9  20383935.201    83468804.52549
  22758590.774   119597203.202 8  22758588.270    93192621.60046
  22719617.222   119392407.434 8  22719614.711    93033037.97446
  21603289.802   113526063.645 9  21603286.859    88461863.88248
  20764258.039   109116917.058 9  20764259.117    85026177.93849
  21401304.627   112464630.689 9  21401304.513    87634786.10748
  24811699.207   130386364.099 7  24811698.032   101599757.40944
  25439632.024   133686153.901 6  25439629.465   104171015.42544
 18 01 01 01 28 00.0000000  0 11G07G08G10G16G18G20G21G26G27G29G31    0.000000000
  25057939.845   131680362.662 6  25057937.452   102608055.22043
  24682266.531   129706190.694 6  24682268.072   101069761.95245
  24462143.681   128549433.995 7  24462144.367   100168396.06844
  20380659.370   107101093.924 9  20380656.524    83455378.93849
  22746562.079   119533992.109 8  22746559.593    93143366.20846
  22724626.842   119418733.444 8  22724624.377    93053551.77146
  21611300.631   113568160.668 9  21611297.660    88494666.75948
  20772992.281   109162815.454 9  20772993.309    85061942.91949
  21388442.955   112397041.967 9  21388442.819    87582119.58448
  24830480.665   130485060.680 8  24830479.397   101676663.85444
  25459984.267   133793105.898 7  25459981.720   104254354.61544
 18 01 01 01 28 30.0000000  0 11G07G08G10G16G18G20G21G26G27G29G31    0.000000000
  25042988.540   131601792.426 6  25042985.868   102546831.63642
  24663852.626   129609425.045 6  24663854.191   100994360.16544
  24441775.500   128442399.280 7  24441776.480   100084992.44545
  20377481.071   107084391.946 9  20377478.234    83442364.41049
  22734600.309   119471132.878 8  22734597.966    93094385.01646
  22729747.764   119445644.225 8  22729745.356    93074521.22246
  21619378.493   113610609.922 9  21619375.508    88527744.09748
  20781821.061   109209210.863 9  20781822.095    85098095.17849
  21375633.033   112329725.388 9  21375632.824    87529665.10748
  24849267.868   130583786.870 7  24849266.515   101753593.30344
  25480321.086   133899977.187 6  25480318.524   104337630.91944
 18 01 01 01 29 00.0000000  0 11G07G08G10G16G18G20G21G26G27G29G31    0.000000000
  25028107.918   131523594.135 7  25028105.229   102485897.92543
  24645450.097   129512719.563 6  24645451.567   100919005.31345
  24421417.264   128335415.502 7  24421418.080   100001628.40445
  20374403.761   107068220.524 9  20374400.916    83429763.29649
  22722706.258   119408629.553 8  22722704.066    93045681.13146
  22734980.347   119473141.056 8  22734977.869    93095947.33046
  21627523.575   113653412.487 9  21627520.594    88561096.74848
  20790744.616   109256104.649 9  20790745.726    85134635.77349
  21362875.450   112262684.036 9  21362875.232    87477425.10348
  24868060.724   130682544.302 7  24868059.649   101830547.07644
  25500642.586   134006767.500 7  25500640.005   104420844.15441
 18 01 01 01 29 30.0000000  0 11G07G08G10G16G18G20G21G26G27G29G31    0.000000000
  25013297.976   131445767.459 7  25013295.419   102425253.78044
  24627058.707   129416072.074 6  24627060.034   100843695.59244
  24401068.539   128228482.548 7  24401069.298    99918304.04945
  20371427.008   107052577.697 9  20371424.187    83417574.08549
  22710879.856   119346481.454 8  22710877.694    92997254.05245
  22740323.678   119501220.285 8  22740321.187    93117827.27746
  21635735.127   113696564.465 9  21635732.141    88594721.66748
  20799762.282   109303493.072 9  20799763.464    85171561.81149
  21350169.860   112195915.934 9  21350169.674    87425398.02348
  24886858.882   130781329.162 7  24886857.776   101907522.32443
  25520947.842   134113471.845 7  25520944.912   104503990.38944
 18 01 01 01 30 00.0000000  0 11G07G08G10G16G18G20G21G26G27G29G31    0.000000000
  24998560.426   131368321.047 7  24998557.834   102364905.90944
  24608679.656   129319489.596 6  24608680.965   100768436.56644
  24380731.252   128121609.616 7  24380732.136    99835026.44745
  20368552.243   107037470.844 9  20368549.418    83405802.50749
  22699122.827   119284697.565 8  22699120.572    92949110.77046
  22745778.788   119529887.563 8  22745776.390    93140165.42846
  21644013.958   113740070.070 9  21644010.998    88628622.14248
  20808875.120   109351381.572 9  20808876.337    85208877.51949
  21337517.692   112129428.327 9  21337517.533    87373589.50648
  24905663.326   130880147.024 7  24905662.057   101984523.28944
  25541237.268   134220093.643 5  25541234.197   104587072.29543
 18 01 01 01 30 30.0000000  0 11G07G08G10G16G18G20G21G26G27G29G31    0.000000000
  24983894.224   131291249.695 7  24983891.397   102304850.32343
  24590311.750   129222965.652 6  24590312.934   100693223.17445
  24360404.653   128014792.127 7  24360405.422    99751792.00745
  20365778.291   107022893.635 9  20365775.445    83394443.64249
  22687434.016   119223272.366 8  22687431.675    92901246.99546
  22751344.233   119559134.443 8  22751341.853    93162955.21346
  21652358.455   113783920.804 9  21652355.520    88662791.55248
  20818081.532   109399761.874 9  20818082.824    85246576.44549
  21324917.669   112063214.721 9  21324917.556    87321994.49448
  24924472.500   130978989.837 7  24924471.351   102061543.63444
  25561509.263   134326624.156 6  25561506.394   104670083.06342
 18 01 01 01 31 00.0000000  0 11G07G08G10G16G18G20G21G26G27G29G31    0.000000000
  24969300.398   131214559.078 7  24969297.561   102245091.40243
  24571955.606   129126503.622 6  24571956.773   100618057.96644
  24340089.620   127908035.911 7  24340090.372    99668605.36345
  20363105.911   107008850.091 9  20363103.030    83383500.61249
  22675814.380   119162210.900 8  22675811.986    92853666.63346
  22757020.445   119588962.743 8  22757017.835    93186198.04646
  21660768.828   113828117.774 9  21660765.910    88697230.74948
  20827381.953   109448636.102 9  20827383.310    85284660.25049
  21312370.520   111997278.989 9  21312370.377    87270616.00448
  24943286.768   131077859.888 6  24943285.959   102138585.16244
  25581763.880   134433063.167 6  25581761.272   104753022.53143
 18 01 01 01 31 30.0000000  0 11G07G08G10G16G18G20G21G26G27G29G31    0.000000000
  24954779.897   131138253.240 7  24954777.118   102185632.30144
  24553611.777   129030106.284 6  24553612.899   100542943.21944
  24319787.023   127801345.611 7  24319787.987    99585470.08245
  20360535.519   106995342.622 9  20360532.641    83372975.31449
  22664264.638   119101516.975 8  22664262.236    92806372.67346
  22762807.578   119619373.666 8  22762804.755    93209894.88145
  21669245.144   113872661.198 9  21669242.233    88731939.91548
  20836776.588   109498005.083 9  20836777.935    85323129.57549
  21299876.714   111931623.836 9  21299876.581    87219456.15048
  24962106.405   131176758.030 7  24962105.648   102215648.67843
  25602001.015   134539410.229 6  25601998.824   104835890.28742
 18 01 01 01 32 00.0000000  0 11G07G08G10G16G18G20G21G26G27G29G31    0.000000000
  24940332.372   131062330.724 7  24940329.690   102126471.88944
  24535279.633   128933770.474 6  24535280.700   100467876.43344
  24299496.882   127694719.996 7  24299497.850    99502385.16144
  20358066.594   106982368.536 9  20358063.759    83362865.63449
  22652784.449   119041188.410 8  22652782.011    92759363.40946
  22768704.493   119650362.067 8  22768701.565    93234041.69846
  21677786.346   113917545.495 9  21677783.412    88766914.70048
  20846264.462   109547863.852 9  20846265.723    85361980.55649
  21287435.692   111866246.118 9  21287435.648    87168512.48148
  24980930.750   131275679.660 7  24980929.750   102292730.56143
  25622219.485   134645658.562 6  25622217.382   104918681.22243
 18 01 01 01 32 30.0000000  0 11G07G08G10G16G18G20G21G26G27G29G31    0.000000000
  24925958.931   130986798.027 7  24925956.459   102067615.29243
  24516960.225   128837501.654 6  24516961.245   100392861.81645
  24279220.428   127588166.568 7  24279221.386    99419356.51545
  20355700.249   106969933.489 9  20355697.455    83353175.98349
  22641375.213   118981232.213 8  22641372.696    92712644.31246
  22774711.752   119681931.141 8  22774709.025    93258640.99046
  21686393.082   113962774.236 9  21686390.153    88802157.87848
  20855846.214   109598216.129 9  20855847.393    85401216.09049
  21275048.478   111801151.326 9  21275048.513    87117789.28048
  24999760.175   131374628.643 6  24999759.227   102369833.61744
  25642419.668   134751811.156 6  25642417.603   105001397.45643
 18 01 01 01 33 00.0000000  0 11G07G08G10G16G18G20G21G26G27G29G31    0.000000000
  24911659.775   130911655.638 7  24911657.175   102009062.77444
  24498653.195   128741298.126 6  24498654.247   100317898.07244
  24258957.785   127481685.925 7  24258959.023    99336384.63245
  20353436.204   106958035.788 9  20353433.408    83343905.04649
  22630036.932   118921648.688 8  22630034.372    92666215.60246
  22780828.844   119714078.221 7  22780826.582    93283690.65946
  21695064.529   114008342.996 9  21695061.610    88837666.00448
  20865521.260   109649058.769 9  20865522.401    85440833.72649
  21262714.929   111736338.256 9  21262714.987    87067285.58848
  25018594.188   131473602.221 7  25018593.310   102446955.84644
  25662600.730   134857863.172 5  25662598.647   105084035.36043
 18 01 01 01 33 30.0000000  0 11G07G08G10G16G18G20G21G26G27G29G31    0.000000000
  24897435.129   130836904.569 7  24897432.447   101950815.19144
  24480358.618   128645159.427 6  24480359.543   100242984.79043
  24238709.464   127375279.473 7  24238710.419    99253470.47445
  20351274.221   106946674.379 9  20351271.387    83335052.00349
  22618769.643   118862438.237 8  22618767.035    92620077.58346
  22787055.630   119746800.881 8  22787053.481    93309188.85745
  21703800.066   114054248.584 9  21703797.152    88873436.59948
  20875289.157   109700389.267 9  20875290.295    85480831.51049
  21250434.926   111671806.238 9  21250434.907    87017000.90649
  25037432.545   131572597.980 7  25037431.656   102524095.39344
  25682761.882   134963811.025 6  25682760.025   105166592.12844
 18 01 01 01 34 00.0000000  0 11G07G08G10G16G18G20G21G26G27G29G31    0.000000000
  24883285.356   130762547.394 7  24883282.915   101892874.57643
  24462076.647   128549086.766 6  24462077.581   100168123.00945
  24218475.824   127268950.618 6  24218476.589    99170616.80146
  20349214.766   106935851.812 9  20349211.903    83326618.82649
  22607573.656   118803603.129 8  22607571.203    92574232.06746
  22793392.057   119780098.542 8  22793389.785    93335135.09945
  21712599.687   114100491.095 9  21712596.798    88909469.73048
  20885149.767   109752207.193 9  20885150.962    85521209.10149
  21238208.694   111607556.827 9  21238208.669    86966936.44249
  25056275.133   131671616.056 7  25056273.911   102601252.39443
  25702902.943   135069652.779 6  25702901.219   105249066.30143
 18 01 01 01 34 30.0000000  0 11G07G08G10G16G18G20G21G26G27G29G31    0.000000000
  24869211.416   130688588.657 7  24869209.045   101835244.40244
  24443807.739   128453083.176 6  24443808.904   100093315.07544
  24198257.708   127162704.273 7  24198258.652    99087827.48446
  20347258.266   106925570.324 9  20347255.400    83318607.27849
  22596449.866   118745147.786 8  22596447.528    92528682.46746
  22799838.092   119813971.863 8  22799835.685    93361529.89246
  21721463.398   114147070.412 9  21721460.537    88945765.30048
  20895103.307   109804513.621 9  20895104.591    85561967.34149
  21226036.747   111543592.916 9  21226036.751    86917094.44548
  25075122.019   131770657.506 7  25075120.545   102678427.56543
  25723023.782   135175388.151 5  25723021.988   105331457.38044
 18 01 01 01 35 00.0000000  0 11G07G08G10G16G18G20G21G26G27G29G31    0.000000000
  24855213.015   130615026.861 7  24855210.549   101777923.51144
  24425551.378   128357145.466 6  24425552.528   100018558.42144
  24178055.259   127056539.583 7  24178056.312    99005101.75045
  20345404.275   106915827.389 9  20345401.388    83311015.37649
  22585398.026   118687070.526 8  22585395.735    92483427.48246
  22806392.744   119848416.268 8  22806390.152    93388369.70045
  21730390.073   114193980.605 9  21730387.224    88982318.70548
  20905148.908   109857303.766 9  20905150.247    85603102.51749
  21213918.593   111479911.656 9  21213918.555    86867472.69148
  25093972.584   131869718.092 7  25093971.159   102755617.60844
  25743123.360   135281011.459 6  25743121.501   105413761.13043
 18 01 01 01 35 30.0000000  0 11G07G08G10G16G18G20G21G26G27G29G31    0.000000000
  24841291.612   130541869.421 7  24841289.191   101720917.71544
  24407308.625   128261279.241 6  24407309.760    99943857.53745
  24157869.658   126950463.842 7  24157870.465    98922445.30244
  20343653.721   106906628.094 9  20343650.847    83303847.09649
  22574419.322   118629377.239 8  22574416.948    92438471.67346
  22813056.646   119883435.112 8  22813053.914    93415657.10946
  21739380.523   114241225.818 9  21739377.680    89019133.16248
  20915287.255   109910581.123 9  20915288.608    85644617.33049
  21201855.315   111416518.490 9  21201855.213    86818075.42748
  25112827.562   131968801.472 7  25112826.200   102832825.45143
  25763202.035   135386524.826 6  25763200.065   105495979.24544
 18 01 01 01 36 00.0000000  0 11G07G08G10G16G18G20G21G26G27G29G31    0.000000000
  24827446.839   130469114.594 7  24827444.378   101664225.62944
  24389078.875   128165481.694 6  24389080.118    99869210.14544
  24137700.965   126844476.828 7  24137701.775    98839858.04346
  20342006.162   106897970.013 9  20342003.276    83297100.53049
  22563513.620   118572067.269 8  22563511.167    92393814.57046
  22819828.975   119919024.031 8  22819826.181    93443388.74445
  21748433.615   114288800.150 9  21748430.780    89056204.06848
  20925517.511   109964341.445 9  20925518.877    85686508.48249
  21189846.396   111353411.149 9  21189846.301    86768900.88049
  25131686.124   132067903.798 7  25131684.944   102910048.05243
  25783258.759   135491922.445 6  25783256.587   105578107.19843
 18 01 01 01 36 30.0000000  0 11G07G08G10G16G18G20G21G26G27G29G31    0.000000000
  24813679.166   130396765.025 7  24813676.824   101607849.38043
  24370862.358   128069754.091 6  24370863.690    99794617.23144
  24117549.878   126738581.652 7  24117550.722    98757342.32145
  20340461.841   106889854.503 9  20340458.958    83290776.75449
  22552681.252   118515142.810 8  22552678.820    92349457.85646
  22826709.659   119955181.909 8  22826706.848    93471563.72945
  21757549.147   114336702.469 9  21757546.270    89093530.55748
  20935839.523   110018583.901 9  20935840.906    85728775.32849
  21177892.017   111290590.736 9  21177891.966    86719949.92349
  25150548.164   132167024.759 7  25150546.885   102987285.24943
  25803292.985   135597201.974 5  25803290.748   105660143.24042
 18 01 01 01 37 00.0000000  0 11G07G08G10G16G18G20G21G26G27G29G31    0.000000000
  24799989.181   130324824.011 7  24799986.910   101551791.45044
  24352659.468   127974097.618 6  24352660.770    99720079.78744
  24097416.715   126632781.760 7  24097417.437    98674900.85245
  20339020.980   106882282.638 9  20339018.105    83284876.59949
  22541922.784   118458606.483 9  22541920.303    92305403.58646
  22833698.455   119991908.395 8  22833695.716    93500181.78646
  21766727.048   114384932.451 9  21766724.164    89131112.36648
  20946253.203   110073308.057 9  20946254.590    85771417.52149
  21165992.622   111228058.849 9  21165992.538    86671223.78248
  25169413.854   132266164.498 7  25169412.604   103064537.0224 
  25823304.564   135702363.214 6  25823302.355   105742087.08243
 18 01 01 01 37 30.0000000  0 11G07G08G10G16G18G20G21G26G27G29G31    0.000000000
  24786378.114   130253297.625 7  24786375.948   101496056.62244
  24334471.055   127878516.717 6  24334472.316    99645601.20545
  24077303.117   126527083.678 7  24077303.655    98592538.65545
  20337684.444   106875258.944 9  20337681.583    83279403.58749
  22531239.261   118402463.754 8  22531236.749    92261656.01546
  22840795.817   120029205.934 8  22840793.264    93529244.80946
  21775967.529   114433491.507 9  21775964.643    89168950.59548
  20956758.991   110128516.340 9  20956760.360    85814436.95449
  21154148.923   111165819.875 9  21154148.810    86622725.88048
  25188283.450   132365325.425 6  25188282.139   103141805.33043
  25843293.787   135807407.199 5  25843291.600   105823939.57242
 18 01 01 01 38 00.0000000  0 11G07G08G10G16G18G20G21G26G27G29G31    0.000000000
  24772844.931   130182180.318 7  24772842.738   101440640.58044
  24316295.911   127783005.381 6  24316297.054    99571176.79544
  24057207.975   126421483.011 7  24057208.766    98510252.47545
  20336450.989   106868776.954 9  20336448.102    83274352.68149
  22520629.543   118346709.322 8  22520627.029    92218211.00946
  22848000.254   120067066.098 8  22847997.805    93558746.26146
  21785268.953   114482370.757 9  21785266.104    89207038.32648
  20967355.334   110184200.511 9  20967356.663    85857827.21449
  21142359.799   111103867.589 9  21142359.690    86574451.38449
  25207155.612   132464499.724 6  25207154.471   103219083.96843
  25863258.709   135912324.193 4  25863256.656   105905693.12343
 18 01 01 01 38 30.0000000  0 11G07G08G10G16G18G20G21G26G27G29G31    0.000000000
  24759390.993   130111479.448 7  24759388.685   101385548.98344
  24298134.923   127687568.934 6  24298136.173    99496810.77545
  24037132.824   126315987.623 7  24037133.665    98428048.30445
  20335321.682   106862842.256 9  20335318.765    83269728.24249
  22510094.989   118291350.141 8  22510092.524    92175073.98546
  22855312.540   120105492.402 8  22855310.150    93588688.82446
  21794632.160   114531574.636 9  21794629.318    89245379.01048
  20978042.962   110240364.351 9  20978044.237    85901591.23549
  21130626.352   111042207.853 9  21130626.248    86526404.84649
  25226031.269   132563691.919 7  25226029.995   103296376.5674 
  25883200.291   136017117.275 4  25883197.819   105987350.01644
 18 01 01 01 39 00.0000000  0 11G07G08G10G16G18G20G21G26G27G29G31    0.000000000
  24746017.787   130041202.664 7  24746015.457   101330787.84943
  24279989.388   127592213.691 6  24279990.580    99422508.00844
  24017079.476   126210605.828 7  24017080.067    98345932.54345
  20334297.704   106857461.034 9  20334294.753    83265535.07649
  22499637.063   118236393.626 8  22499634.598    92132250.75046
  22862733.321   120144488.786 8  22862730.850    93619075.64046
  21804057.731   114581106.133 9  21804054.845    89283974.98648
  20988822.687   110297012.100 9  20988823.920    85945732.33449
  21118949.740   110980846.895 9  21118949.611    86478591.11649
  25244911.121   132662906.542 7  25244909.934   103373686.68842
  25903118.737   136121789.639 5  25903115.897   106068927.66244
 18 01 01 01 39 30.0000000  0 11G07G08G10G16G18G20G21G26G27G29G31    0.000000000
  24732729.675   129971373.217 7  24732727.363   101276375.29844
  24261863.473   127496961.363 6  24261864.601    99348285.48545
  23997052.039   126105361.099 7  23997052.815    98263923.71246
  20333383.045   106852654.421 9  20333380.094    83261789.66249
  22489260.033   118181862.350 8  22489257.560    92089758.84446
  22870266.228   120184074.590 8  22870263.706    93649921.72846
  21813549.287   114630984.353 9  21813546.314    89322841.13348
  20999698.233   110354163.310 9  20999699.416    85990265.73849
  21107334.111   110919806.361 9  21107333.980    86431027.07249
  25263799.094   132762163.597 7  25263798.091   103451029.89143
  25923017.930   136226359.701 5  25923015.820   106150414.92642
 18 01 01 01 40 00.0000000  0 10G07G08G10G16G18G20G21G26G27G29       0.000000000
  24719516.367   129901936.672 7  24719514.060   101222268.91944
  24243746.534   127401756.238 6  24243747.492    99274099.67745
  23977040.612   126000200.124 8  23977041.397    98181980.08845
  20332567.180   106848367.048 9  20332564.244    83258448.84449
  22478953.557   118127701.816 8  22478951.121    92047555.85146
  22877900.330   120224192.764 8  22877897.916    93681182.64446
  21823095.762   114681151.262 9  21823092.717    89361932.23348
  21010658.632   110411760.446 9  21010659.793    86035146.61849
  21095768.889   110859030.699 9  21095768.763    86383669.42249
  25282684.239   132861406.154 6  25282683.202   103528361.7694 
 18 01 01 01 40 30.0000000  0 10G07G08G10G16G18G20G21G26G27G29       0.000000000
  24706383.823   129832924.033 7  24706381.286   101168492.86644
  24225644.202   127306627.950 6  24225645.245    99199973.77345
  23957051.102   125895154.467 7  23957051.651    98100126.29845
  20331855.740   106844628.464 9  20331852.840    83255535.66149
  22468723.557   118073943.109 8  22468721.175    92005665.95946
  22885640.920   120264870.408 7  22885638.493    93712879.53446
  21832702.310   114731633.968 9  21832699.261    89401269.40348
  21021709.132   110469831.143 9  21021710.328    86080396.50849
  21084259.768   110798549.821 9  21084259.637    86336541.46549
  25301571.985   132960662.405 6  25301571.018   103605704.25144
 18 01 01 01 41 00.0000000  0 10G07G08G10G16G18G20G21G26G27G29       0.000000000
  24693332.940   129764340.544 7  24693330.139   101115051.17644
  24207557.185   127211580.246 6  24207558.294    99125910.66345
  23937084.519   125790229.920 7  23937085.327    98018366.94546
  20331249.379   106841442.108 9  20331246.524    83253052.78549
  22458570.917   118020590.512 8  22458568.555    91964092.50346
  22893488.289   120306109.002 7  22893486.058    93745013.49546
  21842369.288   114782434.336 9  21842366.268    89440854.11248
  21032850.051   110528377.000 9  21032851.318    86126016.64849
  21072807.383   110738367.283 9  21072807.254    86289645.99549
  25320462.675   133059934.437 6  25320461.668   103683059.14942
 18 01 01 01 41 30.0000000  0 10G07G08G10G16G18G20G21G26G27G29       0.000000000
  24680363.272   129696184.315 7  24680360.541   101061942.42343
  24189484.965   127116610.007 7  24189486.074    99051907.89445
  23917140.963   125685425.527 8  23917141.772    97936701.18845
  20330747.384   106838804.124 9  20330744.553    83250997.20749
  22448495.178   117967642.008 8  22448492.830    91922833.94546
  22901441.600   120347903.475 8  22901439.338    93777580.64146
  21852095.559   114833546.371 9  21852092.594    89480681.67548
  21044080.420   110587392.953 9  21044081.744    86172003.09549
  21061411.286   110678480.216 9  21061411.097    86242980.74249
  25339355.748   133159217.859 6  25339354.484   103760422.79144
 18 01 01 01 42 00.0000000  0 10G07G08G10G16G18G20G21G26G27G29       0.000000000
  24667475.878   129628460.396 7  24667473.061   101009170.54844
  24171427.988   127021720.696 6  24171429.252    98977968.18444
  23897221.145   125580746.803 7  23897221.878    97855133.35846
  20330350.504   106836718.525 9  20330347.682    83249372.06049
  22438497.218   117915102.295 8  22438494.829    91881893.91746
  22909500.807   120390254.694 8  22909498.589    93810581.59145
  21861881.274   114884970.826 9  21861878.360    89520752.67948
  21055400.524   110646880.419 9  21055401.852    86218356.96149
  21050072.032   110618892.138 9  21050071.849    86196548.48849
  25358251.366   133258514.601 7  25358250.201   103837796.90643
 18 01 01 01 42 30.0000000  0 10G07G08G10G16G18G20G21G26G27G29       0.000000000
  24654670.719   129561169.200 7  24654667.910   100956735.83443
  24153386.045   126926910.983 6  24153387.610    98904090.48345
  23877325.637   125476194.754 8  23877326.208    97773664.20646
  20330058.412   106835183.740 9  20330055.621    83248176.11849
  22428577.047   117862971.355 8  22428574.623    91841272.41946
  22917665.292   120433159.550 7  22917663.132    93844013.95146
  21871725.918   114936704.965 9  21871723.026    89561064.99748
  21066809.711   110706836.173 9  21066811.062    86265075.72449
  21038789.476   110559601.940 9  21038789.345    86150348.33449
  25377149.129   133357822.014 6  25377147.803   103915179.36644
 18 01 01 01 43 00.0000000  0 10G07G08G10G16G18G20G21G26G27G29       0.000000000
  24641948.594   129494315.225 7  24641946.011   100904641.81244
  24135360.227   126832184.998 7  24135361.885    98830278.07645
  23857455.171   125371775.009 7  23857455.974    97692298.20945
  20329871.795   106834203.148 9  20329869.030    83247412.01649
  22418735.477   117811253.403 8  22418733.042    91800972.72246
  22925935.422   120476619.146 7  22925933.249    93877878.58346
  21881629.719   114988749.877 9  21881626.844    89601619.47448
  21078308.302   110767261.787 9  21078309.653    86312160.61749
  21027564.295   110500613.392 9  21027564.210    86104383.24049
  25396049.269   133457142.452 6  25396048.185   103992571.86644
 18 01 01 01 43 30.0000000  0 10G07G08G10G16G18G20G21G26G27G29       0.000000000
  24629309.716   129427898.019 7  24629307.288   100852888.14744
  24117349.976   126737540.058 7  24117351.493    98756528.83345
  23837609.934   125267487.700 7  23837610.684    97611035.34845
  20329790.232   106833774.509 9  20329787.487    83247078.00949
  22408972.276   117759947.311 8  22408969.872    91760993.95446
  22934310.409   120520629.792 8  22934308.121    93912172.60046
  21891591.655   115041100.315 9  21891588.780    89642412.02648
  21089895.562   110828153.230 9  21089896.858    86359608.48749
  21016396.163   110441924.611 9  21016396.128    86058651.72449
  25414951.070   133556472.354 6  25414949.886   104069971.81343
 18 01 01 01 44 00.0000000  0 10G07G08G10G16G18G20G21G26G27G29       0.000000000
  24616754.042   129361918.420 7  24616751.800   100801475.45043
  24099355.242   126642976.140 7  24099356.546    98682842.68544
  23817790.270   125163334.500 7  23817791.003    97529877.00645
  20329813.587   106833896.996 9  20329810.788    83247173.45049
  22399287.737   117709054.589 8  22399285.385    91721337.30146
  22942789.635   120565188.007 8  22942787.323    93946893.28645
  21901611.227   115093753.577 9  21901608.366    89683440.54148
  21101570.984   110889507.864 9  21101572.233    86407417.29349
  21005285.004   110383535.194 9  21005284.983    86013153.49249
  25433854.476   133655810.087 6  25433853.106   104147377.78244
 18 01 01 01 44 30.0000000  0 10G07G08G10G16G18G20G21G26G27G29       0.000000000
  24604282.391   129296379.530 7  24604280.186   100750406.20844
  24081376.366   126548495.660 7  24081377.494    98609221.56344
  23797996.813   125059319.523 8  23797997.751    97448826.39945
  20329942.125   106834572.264 9  20329939.267    83247699.62849
  22389682.273   117658577.598 8  22389679.952    91682004.58946
  22951373.089   120610294.279 7  22951370.706    93982041.03246
  21911688.532   115146710.169 9  21911685.639    89724705.42148
  21113334.542   110951325.659 9  21113335.766    86455587.00049
  20994231.285   110325447.288 9  20994231.172    85967890.18549
  25452759.325   133755156.149 6  25452758.241   104224790.29643
 18 01 01 01 45 00.0000000  0 10G07G08G10G16G18G20G21G26G27G29       0.000000000
  24591895.181   129231284.404 7  24591892.996   100699682.73344
  24063413.398   126454099.608 7  24063414.548    98535666.24145
  23778230.384   124955446.172 7  23778231.348    97367886.12046
  20330176.050   106835801.561 9  20330173.176    83248657.51549
  22380156.382   117608518.733 8  22380154.031    91642997.68746
  22960060.591   120655947.465 8  22960058.116    94017614.95045
  21921823.240   115199968.444 9  21921820.392    89766205.37448
  21125186.052   111013605.810 9  21125187.298    86504116.98049
  20983235.157   110267662.277 9  20983235.048    85922862.91649
  25471665.846   133854510.413 6  25471664.604   104302209.18642
 18 01 01 01 45 30.0000000  0 10G07G08G10G16G18G20G21G26G27G29       0.000000000
  24579592.839   129166635.419 7  24579590.872   100649306.88944
  24045466.669   126359789.089 7  24045467.793    98462177.54344
  23758491.572   124851717.795 8  23758492.474    97287058.82046
  20330515.591   106837585.831 9  20330512.741    83250047.85649
  22370710.518   117558880.290 8  22370708.153    91604318.39246
  22968851.805   120702146.197 7  22968849.268    94053613.96045
  21932015.106   115253527.203 9  21932012.326    89807939.47548
  21137125.356   111076347.378 9  21137126.647    86553006.51149
  20972296.869   110210181.469 9  20972296.822    85878072.68649
  25490573.891   133953872.841 6  25490572.563   104379634.52044
 18 01 01 01 46 00.0000000  0 10G07G08G10G16G18G20G21G26G27G29       0.000000000
  24567376.604   129102438.076 7  24567374.634   100599282.97444
  24027537.132   126265568.717 7  24027538.244    98388759.10545
  23738781.587   124748140.922 8  23738782.420    97206349.58446
  20330961.478   106839928.908 9  20330958.616    83251873.62549
  22361345.558   117509667.031 8  22361343.164    91565970.40746
  22977747.193   120748892.413 7  22977744.730    94090039.59146
  21942264.564   115307388.694 9  21942261.842    89849909.46648
  21149152.934   111139552.652 9  21149154.249    86602257.36649
  20961417.392   110153009.429 9  20961417.272    85833523.04949
  25509484.033   134053246.391 5  25509483.372   104457069.36954
 18 01 01 01 46 30.0000000  0 10G07G08G10G16G18G20G21G26G27G29       0.000000000
  24555244.441   129038682.445 7  24555242.338   100549603.28545
  24009622.497   126171427.071 7  24009623.689    98315402.00245
  23719098.660   124644706.188 8  23719099.450    97125751.10346
  20331511.435   106842818.961 9  20331508.560    83254125.60849
  22352059.641   117460869.210 8  22352057.217    91527946.13846
  22986744.224   120796172.450 7  22986741.796    94126881.20346
  21952568.851   115361538.279 9  21952566.153    89892103.95748
  21161266.166   111203208.003 9  21161267.486    86651858.93249
  20950594.528   110096134.783 9  20950594.336    85789205.15049
  25528393.720   134152618.226 5  25528386.926   104534497.91942
 18 01 01 01 47 00.0000000  0 10G07G08G10G16G18G20G21G26G27G29       0.000000000
  24543205.256   128975415.618 7  24543203.082   100500304.47145
  23991731.570   126077409.983 7  23991732.831    98242141.96445
  23699451.902   124541461.739 8  23699452.587    97045300.88746
  20332174.197   106846301.946 9  20332171.359    83256839.62349
  22342861.625   117412533.498 8  22342859.185    91490281.95446
  22995851.190   120844029.848 7  22995848.749    94164172.67145
  21962936.429   115416020.443 9  21962933.759    89934557.58548
  21173473.368   111267357.241 9  21173474.699    86701845.34249
  20939837.044   110039603.584 9  20939836.809    85745154.87149
  25547311.656   134252032.981 4         0.000           0.000  
 18 01 01 01 47 30.0000000  0 10G07G08G10G16G18G20G21G26G27G29       0.000000000
  24531247.208   128912575.579 7  24531245.054   100451338.16644
  23973852.355   125983454.431 7  23973853.614    98168929.90445
  23679829.637   124438346.194 8  23679830.193    96964951.10246
  20332937.629   106850313.927 9  20332934.808    83259965.83649
  22333739.636   117364597.324 8  22333737.163    91452929.10146
  23005055.665   120892398.866 7  23005053.079    94201862.82746
  21973354.685   115470768.738 9  21973352.042    89977218.59748
  21185762.087   111331934.766 9  21185763.391    86752165.48349
  20929132.809   109983352.499 9  20929132.658    85701322.86549
  25566225.422   134351425.864 4         0.000           0.000  
 18 01 01 01 48 00.0000000  0  9G07G08G10G16G18G20G21G26G27          0.000000000
  24519376.191   128850192.476 8  24519373.894   100402727.97044
  23955990.279   125889589.298 6  23955991.581    98095788.25445
  23660237.859   124335390.706 8  23660238.393    96884726.05546
  20333807.147   106854883.300 9  20333804.325    83263526.38349
  22324699.254   117317090.024 8  22324696.811    91415910.43947
  23014362.578   120941306.003 8  23014359.797    94239972.29645
  21983828.744   115525810.257 9  21983826.034    90020108.09648
  21198137.432   111396967.324 9  21198138.650    86802840.19649
  20918487.414   109927410.581 9  20918487.234    85657731.76549
 18 01 01 01 48 30.0000000  0  9G07G08G10G16G18G20G21G26G27          0.000000000
  24507592.776   128788269.142 7  24507590.113   100354476.01544
  23938145.763   125795816.211 6  23938147.143    98022718.36545
  23640677.167   124232599.061 8  23640677.863    96804628.69346
  20334783.026   106860011.547 9  20334780.197    83267522.41449
  22315741.103   117270014.811 8  22315738.721    91379228.47247
  23023771.616   120990750.520 7  23023768.831    94278500.50246
  21994358.382   115581143.972 9  21994355.676    90063225.27048
  21210599.274   111462454.433 9  21210600.359    86853869.10949
  20907901.178   109871779.697 9  20907900.950    85614383.03449
 18 01 01 01 49 00.0000000  0  9G07G08G10G16G18G20G21G26G27          0.000000000
  24495897.204   128726808.225 7  24495894.327   100306584.39944
  23920319.054   125702136.900 7  23920320.568    97949721.51145
  23621148.327   124129974.539 8  23621149.110    96724661.52246
  20335865.287   106865698.897 9  20335862.467    83271954.10949
  22306865.593   117223373.805 8  22306863.261    91342884.83747
  23033282.483   121040731.000 7  23033279.845    94317446.33045
  22004943.374   115636768.651 9  22004940.648    90106569.17048
  21223147.351   111528395.009 9  21223148.385    86905251.37349
  20897374.393   109816461.070 9  20897374.162    85571277.62349
 18 01 01 01 49 30.0000000  0  9G07G08G10G16G18G20G21G26G27          0.000000000
  24484288.995   128665806.493 8  24484286.066   100259050.56745
  23902509.514   125608547.151 7  23902511.091    97876794.46945
  23601650.992   124027515.387 8  23601651.947    96644823.25446
  20337053.257   106871941.693 9  20337050.436    83276818.62049
  22298072.111   117177163.627 8  22298069.719    91306876.91847
  23042894.158   121091241.145 7  23042891.670    94356804.89845
  22015582.545   115692677.863 9  22015579.785    90150134.79548
  21235780.517   111594782.921 9  21235781.580    86956982.20149
  20886906.334   109761450.865 9  20886906.078    85528412.53349
 18 01 01 01 50 00.0000000  0  9G07G08G10G16G18G20G21G26G27          0.000000000
  24472769.803   128605272.685 7  24472766.874   100211881.35144
  23884718.411   125515054.119 7  23884719.855    97803942.79046
  23582186.977   123925230.942 8  23582187.880    96565121.08146
  20338348.203   106878746.571 9  20338345.360    83282121.12249
  22289362.181   117131392.576 8  22289359.702    91271211.17147
  23052607.566   121142285.689 7  23052605.206    94396579.89246
  22026276.831   115748876.805 9  22026274.039    90193926.17348
  21248499.775   111661623.179 9  21248500.921    87009065.51049
  20876498.372   109706756.498 9  20876498.080    85485793.55249
 18 01 01 01 50 30.0000000  0  9G07G08G10G16G18G20G21G26G27          0.000000000
  24461339.452   128545206.529 7  24461336.740   100165076.55844
  23866945.413   125421656.436 7  23866946.788    97731165.39145
  23562756.095   123823121.603 8  23562757.113    96485555.38246
  20339749.609   106886110.893 9  20339746.734    83287859.54449
  22280735.546   117086059.431 9  22280733.046    91235886.64946
  23062421.751   121193860.455 7  23062419.524    94436767.99545
  22037025.442   115805361.197 9  22037022.629    90237939.98048
  21261304.318   111728911.717 9  21261305.555    87061498.12249
  20866150.149   109652376.252 9  20866149.830    85443419.33749
 18 01 01 01 51 00.0000000  0  9G07G08G10G16G18G20G21G26G27          0.000000000
  24449997.978   128485606.835 7  24449995.407   100118635.26244
  23849190.002   125328351.753 7  23849191.464    97658460.49145
  23543358.707   123721187.255 8  23543359.706    96406126.01346
  20341256.971   106894032.059 9  20341254.085    83294031.87949
  22272192.014   117041163.028 9  22272189.532    91200902.44846
  23072336.105   121245960.483 7  23072333.802    94477365.45545
  22047827.470   115862126.109 9  22047824.575    90282172.37848
  21274193.281   111796644.028 9  21274194.626    87114276.53649
  20855861.306   109598307.938 9  20855860.999    85401288.19149
 18 01 01 01 51 30.0000000  0  9G07G08G10G16G18G20G21G26G27          0.000000000
  24438745.851   128426476.878 7  24438743.194   100072559.98744
  23831452.835   125235142.691 7  23831454.375    97585830.09145
  23523995.393   123619432.534 8  23523996.368    96326836.62746
  20342870.722   106902512.355 9  20342867.839    83300639.89549
  22263732.131   116996706.153 8  22263729.638    91166260.73747
  23082350.457   121298586.006 7  23082348.140    94518372.35245
  22058682.953   115919171.811 9  22058680.016    90326623.57448
  21287166.803   111864820.414 9  21287168.209    87167400.97949
  20845632.333   109544554.315 9  20845632.053    85359402.25349
 18 01 01 01 52 00.0000000  0  9G07G08G10G16G18G20G21G26G27          0.000000000
  24427583.829   128367820.542 7  24427581.202   100026853.73144
  23813734.556   125142032.463 7  23813735.995    97513276.70145
  23504667.284   123517862.380 8  23504668.193    96247691.05646
  20344591.321   106911554.072 9  20344588.438    83307685.37949
  22255356.724   116952693.067 9  22255354.207    91131964.85147
  23092464.886   121351736.984 7  23092462.429    94559788.71245
  22069591.944   115976498.816 9  22069589.004    90371293.96548
  21300224.963   111933441.260 9  21300226.375    87220871.75549
  20835463.711   109491118.137 9  20835463.549    85317763.68749
 18 01 01 01 52 30.0000000  0  9G07G08G10G16G18G20G21G26G27          0.000000000
  24416512.107   128309638.402 7  24416509.260    99981516.97144
  23796034.910   125049019.878 7  23796036.213    97440799.37045
  23485374.433   123416477.997 8  23485375.266    96168690.24946
  20346418.410   106921155.417 9  20346415.515    83315166.94449
  22247065.716   116909123.544 8  22247063.210    91098014.57746
  23102678.620   121405410.293 7  23102676.224    94601612.05845
  22080553.743   116034103.413 9  22080550.805    90416180.66248
  21313367.052   112002503.422 9  21313368.471    87274686.41849
  20825355.374   109437998.675 9  20825355.250    85276371.89749
 18 01 01 01 53 00.0000000  0  9G07G08G10G16G18G20G21G26G27          0.000000000
  24405530.816   128251932.494 7  24405528.347    99936551.33945
  23778354.014   124956105.701 7  23778355.249    97368398.74845
  23466117.583   123315282.294 8  23466118.412    96089836.45546
  20348351.953   106931316.263 9  20348349.048    83323084.48049
  22238859.261   116865998.610 8  22238856.790    91064410.73947
  23112991.281   121459603.721 7  23112988.846    94643840.72645
  22091568.156   116091984.254 9  22091565.239    90461282.61148
  21326592.776   112072005.311 9  21326594.188    87328843.72449
  20815307.488   109385196.769 9  20815307.368    85235227.56349
 18 01 01 01 53 30.0000000  0  9G07G08G10G16G18G20G21G26G27          0.000000000
  24394640.523   128194704.296 7  24394638.168    99891957.93644
  23760692.135   124863291.478 7  23760693.317    97296076.01045
  23446897.176   123214278.267 8  23446898.115    96011132.04446
  20350392.102   106942037.370 9  20350389.196    83331438.58349
  22230737.858   116823320.471 9  22230735.430    91031155.05847
  23123402.558   121514315.629 7  23123400.094    94686473.38345
  22102634.835   116150139.806 9  22102631.931    90506598.62548
  21339901.926   112141945.504 9  21339903.332    87383342.56349
  20805320.193   109332713.380 9  20805320.080    85194331.41449
 18 01 01 01 54 00.0000000  0  9G07G08G10G16G18G20G21G26G27          0.000000000
  24383841.875   128137956.932 7  24383839.431    99847739.21144
  23743049.524   124770578.715 7  23743050.738    97223832.34045
  23427713.961   123113470.007 8  23427714.787    95932580.14646
  20352539.152   106953320.156 9  20352536.250    83340230.36649
  22222702.022   116781091.603 9  22222699.642    90998249.45647
  23133912.394   121569545.375 7  23133909.919    94729509.54245
  22113753.632   116208569.441 9  22113750.795    90552128.21048
  21353294.416   112212323.569 9  21353295.842    87438182.60449
  20795393.924   109280550.631 9  20795393.898    85153685.12349
 18 01 01 01 54 30.0000000  0  9G07G08G10G16G18G20G21G26G27          0.000000000
  24373134.813   128081690.479 7  24373132.225    99803895.18744
  23725425.988   124677966.695 7  23725427.263    97151667.15645
  23408568.331   123012858.711 8  23408569.142    95854181.74247
  20354792.715   106965162.675 9  20354789.817    83349458.29049
  22214751.392   116739310.642 9  22214749.025    90965692.87547
  23144520.050   121625289.502 7  23144517.621    94772946.54245
  22124923.986   116267270.040 9  22124921.185    90597868.93448
  21366769.579   112283136.193 9  21366771.068    87493361.25449
  20785528.509   109228707.597 9  20785528.526    85113287.95649
 18 01 01 01 55 00.0000000  0  9G07G08G10G16G18G20G21G26G27          0.000000000
  24362520.308   128025910.395 7  24362517.636    99760430.20744
  23707822.447   124585460.028 7  23707823.748    97079584.07745
  23389461.296   122912450.711 8  23389462.188    95775941.77046
  20357153.547   106977568.898 9  20357150.670    83359125.46949
  22206887.115   116697983.868 8  22206884.850    90933490.21547
  23155225.882   121681549.425 7  23155223.415    94816785.44145
  22136146.168   116326243.050 9  22136143.393    90643821.92648
  21380327.818   112354385.276 9  21380329.340    87548880.00449
  20775724.799   109177188.669 9  20775724.807    85073143.34049
 18 01 01 01 55 30.0000000  0  9G07G08G10G16G18G20G21G26G27          0.000000000
  24351998.080   127970615.052 8  24351995.269    99717342.91344
  23690238.357   124493055.790 7  23690239.707    97007580.81946
  23370392.817   122812245.376 8  23370393.533    95697859.68846
  20359620.863   106990534.778 9  20359618.012    83369228.74849
  22199108.860   116657108.974 9  22199106.574    90901639.65347
  23166028.876   121738319.666 7  23166026.433    94861022.00345
  22147419.288   116385483.809 9  22147416.523    90689983.54648
  21393968.185   112426065.569 9  21393969.636    87604734.76349
  20765982.256   109125991.075 9  20765982.217    85033249.11049
 18 01 01 01 56 00.0000000  0  9G07G08G10G16G18G20G21G26G27          0.000000000
  24341568.364   127915806.149 7  24341565.674    99674634.67544
  23672674.035   124400755.157 7  23672675.410    96935658.25045
  23351363.508   122712245.733 8  23351364.276    95619937.90446
  20362194.803   107004060.915 9  20362191.958    83379768.58749
  22191416.899   116616687.380 9  22191414.540    90870142.31847
  23176928.750   121795598.670 7  23176926.276    94905654.99845
  22158743.092   116444991.018 9  22158740.345    90736352.80348
  21407690.359   112498175.626 9  21407691.725    87660924.40549
  20756301.019   109075115.849 9  20756300.975    84993606.08349
 18 01 01 01 56 30.0000000  0  9G07G08G10G16G18G20G21G26G27          0.000000000
  24331231.811   127861486.537 8  24331229.132    99632307.66245
  23655129.775   124308559.826 7  23655131.206    96863817.76245
  23332374.152   122612455.662 8  23332374.778    95542179.41546
  20364875.606   107018148.598 9  20364872.774    83390746.00049
  22183811.646   116576721.467 9  22183809.207    90839000.05547
  23187925.254   121853385.184 7  23187922.760    94950683.47745
  22170117.385   116504763.451 9  22170114.642    90782928.72848
  21421494.189   112570714.792 9  21421495.489    87717448.42149
  20746681.508   109024564.877 9  20746681.407    84954215.72349
 18 01 01 01 57 00.0000000  0  9G07G08G10G16G18G20G21G26G27          0.000000000
  24320988.589   127807657.290 7  24320985.775    99590362.81244
  23637605.655   124216470.329 7  23637607.066    96792059.73046
  23313425.178   122512877.558 8  23313425.554    95464586.07946
  20367663.158   107032797.245 9  20367660.358    83402160.52349
  22176293.287   116537212.097 9  22176290.771    90808213.54447
  23199017.884   121911676.819 7  23199015.318    94996105.53445
  22181541.747   116564798.909 9  22181538.968    90829709.59848
  21435379.246   112643680.914 9  21435380.514    87774305.12449
  20737123.736   108974338.488 9  20737123.620    84915078.27849
 18 01 01 01 57 30.0000000  0  9G07G08G10G16G18G20G21G26G27          0.000000000
  24310839.359   127754322.151 8  24310836.346    99548802.94844
  23620102.325   124124489.473 7  23620103.566    96720386.36646
  23294517.288   122413516.078 8  23294517.763    95387161.57346
  20370557.726   107048008.242 9  20370554.937    83414013.24149
  22168862.427   116498162.522 9  22168859.898    90777785.31947
  23210206.578   121970473.611 7  23210203.854    95041921.22445
  22193016.249   116625097.855 9  22193013.383    90876695.78848
  21449345.507   112717074.090 9  21449346.795    87831494.58849
  20727628.260   108924439.334 9  20727628.116    84876195.82249
 18 01 01 01 58 00.0000000  0  9G07G08G10G16G18G20G21G26G27          0.000000000
  24300784.279   127701482.809 7  24300781.419    99507629.45544
  23602619.865   124032618.161 7  23602620.943    96648798.35745
  23275651.258   122314374.464 8  23275651.887    95309908.38446
  20373559.384   107063782.042 9  20373556.605    83426304.50849
  22161519.349   116459574.334 9  22161516.813    90747716.60947
  23221490.983   122029773.609 7  23221488.106    95088129.04144
  22204540.651   116685658.906 9  22204537.751    90923886.21348
  21463392.739   112790892.955 9  21463394.066    87889015.76949
  20718195.240   108874868.563 9  20718195.098    84837569.24749
 18 01 01 01 58 30.0000000  0  9G07G08G10G16G18G20G21G26G27          0.000000000
  24290823.370   127649138.483 8  24290820.748    99466841.67345
  23585157.770   123940854.140 7  23585158.831    96577293.94446
  23256826.978   122215452.445 8  23256827.515    95232826.27946
  20376667.576   107080115.790 9  20376664.801    83439032.09749
  22154263.653   116421445.633 9  22154261.199    90718005.95647
  23232870.075   122089571.649 7  23232867.371    95134724.93445
  22216114.055   116746477.257 9  22216111.071    90971277.13648
  21477520.141   112865132.862 9  21477521.480    87946865.03449
  20708824.294   108825623.950 9  20708824.146    84799196.82449
 18 01 01 01 59 00.0000000  0  9G07G08G10G16G18G20G21G26G27          0.000000000
  24280957.397   127597292.312 7  24280954.906    99426442.03044
  23567716.708   123849200.678 7  23567717.793    96505875.69345
  23238045.449   122116755.062 8  23238046.092    95155919.25147
  20379882.696   107097011.415 9  20379879.925    83452197.51549
  22147096.110   116383780.260 9  22147093.681    90688656.32547
  23244344.035   122149867.953 7  23244341.426    95181709.07545
  22227736.485   116807553.060 9  22227733.420    91018868.67248
  21491727.744   112939793.900 9  21491729.033    88005042.45849
  20699515.990   108776708.458 9  20699515.831    84761080.85949
 18 01 01 01 59 30.0000000  0  9G07G08G10G16G18G20G21G26G27          0.000000000
  24271186.353   127545945.687 7  24271184.005    99386431.67444
  23550296.734   123757658.067 7  23550297.890    96434543.79445
  23219307.158   122018284.627 8  23219307.888    95079189.06846
  20383204.638   107114468.419 9  20383201.905    83465800.36949
  22140016.828   116346578.576 9  22140014.433    90659668.01647
  23255912.315   122210659.623 7  23255909.632    95229079.22645
  22239407.608   116868884.798 9  22239404.425    91066659.64048
  21506015.047   113014873.931 9  21506016.280    88063546.36049
  20690270.358   108728122.347 9  20690270.205    84723221.56449
 18 01 01 02 00 00.0000000  0  9G07G08G10G16G18G20G21G26G27          0.000000000
  24261511.170   127495102.845 7  24261509.011    99346813.86644
  23532898.468   123666229.879 7  23532899.640    96363301.10546
  23200613.088   121920046.553 8  23200613.794    95002639.91147
  20386633.728   107132488.477 9  20386631.027    83479841.96849
  22133026.502   116309844.135 9  22133024.085    90631043.78847
  23267574.992   122271947.672 7  23267572.247    95276836.16745
  22251127.460   116930472.935 9  22251124.291    91114650.39048
  21520382.237   113090373.766 9  21520383.365    88122377.40048
  20681088.033   108679869.010 9  20681087.882    84685621.56649
 18 01 01 02 00 30.0000000  0  9G07G08G10G16G18G20G21G26G27          0.000000000
  24251926.865   127444737.264 8  24251924.688    99307567.95844
  23515516.801   123574888.947 7  23515517.972    96292126.34046
  23181958.460   121822015.738 8  23181959.179    94926252.27147
  20390164.814   107151044.398 9  20390162.105    83494301.11849
  22126120.095   116273550.722 9  22126117.635    90602763.20847
  23279326.313   122333701.885 7  23279323.578    95324956.34745
  22262890.555   116992288.272 9  22262887.396    91162818.18948
  21534823.615   113166263.673 9  21534824.703    88181512.37649
  20671963.906   108631921.324 9  20671963.704    84648259.73149
 18 01 01 02 01 00.0000000  0  9G07G08G10G16G18G20G21G26G27          0.000000000
  24242444.527   127394906.758 7  24242442.181    99268738.96245
  23498162.593   123483692.059 7  23498163.851    96221063.87245
  23163354.356   121724251.049 8  23163355.151    94850072.00846
  20393808.496   107170191.983 9  20393805.793    83509221.30849
  22119308.455   116237755.520 9  22119306.001    90574870.85947
  23291176.539   122395976.076 7  23291173.891    95373481.69845
  22274707.081   117054384.693 9  22274703.962    91211205.01048
  21549349.504   113242597.913 9  21549350.639    88240993.58649
  20662908.757   108584336.144 9  20662908.563    84611180.37449
 18 01 01 02 01 30.0000000  0  9G07G08G10G16G18G20G21G26G27          0.000000000
  24233057.871   127345579.398 7  24233055.498    99230302.06744
  23480829.512   123392606.809 7  23480830.893    96150088.37046
  23144795.134   121626721.978 8  23144795.855    94774075.33446
  20397558.327   107189897.508 9  20397555.633    83524576.25149
  22112585.531   116202426.242 9  22112583.048    90547341.56847
  23303119.025   122458734.729 7  23303116.524    95422384.55745
  22286570.430   117116727.237 9  22286567.404    91259783.61248
  21563953.261   113319341.279 9  21563954.465    88300793.60749
  20653916.395   108537080.903 9  20653916.186    84574358.10749
 18 01 01 02 02 00.0000000  0  9G07G08G10G16G18G20G21G26G27          0.000000000
  24223769.504   127296768.342 7  24223766.957    99192267.46644
  23463520.054   123301645.611 7  23463521.556    96079209.54545
  23126283.479   121529442.850 8  23126284.156    94698273.43447
  20401416.458   107210172.203 9  20401413.758    83540374.71249
  22105953.726   116167575.606 9  22105951.188    90520185.22947
  23315155.588   122521987.401 7  23315153.155    95471672.36144
  22298482.557   117179325.995 9  22298479.603    91308561.86148
  21578636.775   113396503.519 9  21578638.007    88360920.01449
  20644989.137   108490167.942 9  20644988.919    84537802.55749
 18 01 01 02 02 30.0000000  0  9G07G08G10G16G18G20G21G26G27          0.000000000
  24214575.908   127248455.835 8  24214573.475    99154621.37744
  23446230.846   123210790.456 7  23446232.305    96008413.35046
  23107816.390   121432397.469 8  23107817.065    94622653.66347
  20405379.177   107230996.487 9  20405376.479    83556601.41749
  22099409.568   116133185.514 9  22099407.002    90493387.77047
  23327282.029   122585712.444 7  23327279.621    95521328.24045
  22310439.490   117242160.235 9  22310436.568    91357523.60348
  21593396.012   113474063.660 9  21593397.257    88421356.47548
  20636123.500   108443578.940 9  20636123.321    84501499.44349
 18 01 01 02 03 00.0000000  0  9G07G08G10G16G18G20G21G26G27          0.000000000
  24205477.079   127200640.812 8  24205474.601    99117362.89444
  23428961.525   123120039.400 7  23428962.855    95937698.25846
  23089393.780   121335586.006 8  23089394.463    94547216.17246
  20409446.070   107252368.247 9  20409443.375    83573254.72249
  22092952.823   116099254.750 9  22092950.192    90466948.23347
  23339497.554   122649905.415 7  23339495.254    95571348.72945
  22322440.364   117305225.230 9  22322437.485    91406665.16848
  21608230.121   113552017.298 9  21608231.364    88482099.56248
  20627319.199   108397312.113 9  20627319.066    84465447.38049
 18 01 01 02 03 30.0000000  0  9G07G08G10G16G18G20G21G26G27          0.000000000
  24196478.432   127153352.225 8  24196475.910    99080514.62644
  23411717.317   123029420.572 7  23411718.639    95867086.19146
  23071021.368   121239038.645 8  23071022.131    94471984.47547
  20413622.211   107274314.046 9  20413619.524    83590355.34549
  22086588.881   116065811.810 9  22086586.170    90440888.80747
  23351806.867   122714591.440 7  23351804.589    95621753.47145
  22334490.017   117368546.773 9  22334487.232    91456006.61748
  21623143.896   113630389.887 9  21623145.147    88543169.10148
  20618581.608   108351395.588 9  20618581.455    84429668.26849
 18 01 01 02 04 00.0000000  0 10G07G08G10G15G16G18G20G21G26G27       0.000000000
  24187578.305   127106581.505 7  24187575.677    99044069.92044
  23394496.688   122938925.288 8  23394498.002    95796570.41746
  23052697.822   121142748.307 8  23052698.829    94396953.06547
  25398998.138   133472636.801 5  25398996.626   104004646.45642
  20417905.716   107296823.827 9  20417903.004    83607895.42849
  22080315.976   116032847.586 9  22080313.263    90415202.41247
  23364207.823   122779758.497 7  23364205.474    95672532.99145
  22346586.381   117432113.470 9  22346583.593    91505539.11748
  21638135.146   113709169.723 9  21638136.411    88604555.97648
  20609908.975   108305820.332 9  20609908.757    84394155.08449
 18 01 01 02 04 30.0000000  0 10G07G08G10G15G16G18G20G21G26G27       0.000000000
  24178780.703   127060349.705 8  24178778.003    99008045.15544
  23377303.475   122848573.724 7  23377304.578    95726166.61845
  23034427.432   121046737.098 8  23034428.459    94322139.15047
  25388323.333   133416540.699 5  25388321.604   103960935.27543
  20422300.184   107319916.630 9  20422297.418    83625889.80949
  22074138.037   116000382.793 9  22074135.367    90389905.18647
  23376703.566   122845423.456 7  23376701.088    95723700.47845
  22358732.807   117495943.338 9  22358730.045    91555276.67248
  21653207.220   113788374.132 9  21653208.465    88666273.68848
  20601305.056   108260606.225 9  20601304.826    84358923.31749
 18 01 01 02 05 00.0000000  0 10G07G08G10G15G16G18G20G21G26G27       0.000000000
  24170076.158   127014607.206 8  24170073.330    98972401.62644
  23360128.052   122758315.615 8  23360128.977    95655835.66146
  23016201.119   120950957.139 8  23016202.106    94247505.42246
  25377717.701   133360807.831 6  25377716.072   103917507.11544
  20426795.891   107343541.513 9  20426793.080    83644298.80349
  22068045.675   115968367.794 9  22068043.065    90364958.46447
  23389283.872   122911533.215 7  23389281.329    95775214.60245
  22370919.335   117559983.834 9  22370916.584    91605178.35548
  21668350.092   113867950.591 9  21668351.327    88728281.31148
  20592760.389   108215703.639 9  20592760.151    84323934.29349
 18 01 01 02 05 30.0000000  0 10G07G08G10G15G16G18G20G21G26G27       0.000000000
  24161470.121   126969382.052 8  24161467.170    98937161.24444
  23342975.681   122668178.362 8  23342976.405    95585598.82946
  22998024.352   120855437.615 8  22998025.267    94173074.64346
  25367186.645   133305466.707 6  25367184.853   103874384.22143
  20431397.609   107367723.607 9  20431394.773    83663141.98649
  22062044.131   115936829.847 9  22062041.548    90340383.45047
  23401953.517   122978112.255 7  23401950.760    95827094.37445
  22383150.580   117624259.389 9  22383147.742    91655263.19848
  21683568.443   113947923.534 9  21683569.674    88790597.88848
  20584280.103   108171139.612 9  20584279.892    84289209.08149
 18 01 01 02 06 00.0000000  0 10G07G08G10G15G16G18G20G21G26G27       0.000000000
  24152963.614   126924679.696 7  24152960.671    98902328.25444
  23325847.330   122578167.911 8  23325848.017    95515460.83146
  22979898.521   120760185.791 8  22979899.336    94098852.45147
  25356731.501   133250524.402 5  25356729.619   103831571.97243
  20436106.342   107392468.138 9  20436103.515    83682423.43049
  22056134.459   115905774.302 9  22056131.802    90316184.33347
  23414712.885   123045162.784 7  23414710.101    95879341.54345
  22395427.107   117688772.736 9  22395424.176    91705533.33548
  21698862.736   114028295.476 9  21698864.000    88853225.36948
  20575865.217   108126919.361 9  20575865.102    84254751.74649
 18 01 01 02 06 30.0000000  0 10G07G08G10G15G16G18G20G21G26G27       0.000000000
  24144556.420   126880500.087 7  24144553.677    98867902.58744
  23308742.810   122488282.950 8  23308743.598    95445420.63246
  22961823.916   120665202.822 8  22961824.625    94024839.74847
  25346352.334   133195981.728 6  25346350.850   103789071.27544
  20440921.665   107417772.891 9  20440918.883    83702141.41449
  22050316.575   115875200.888 9  22050313.877    90292360.91147
  23427561.235   123112680.509 7  23427558.344    95931952.77544
  22407748.232   117753520.567 9  22407745.187    91755986.19548
  21714232.269   114109062.941 9  21714233.633    88916161.03948
  20567515.631   108083042.083 9  20567515.548    84220561.66349
 18 01 01 02 07 00.0000000  0 10G07G08G10G15G16G18G20G21G26G27       0.000000000
  24136248.909   126836844.410 8  24136246.387    98833885.14245
  23291662.359   122398524.447 8  23291663.129    95375478.95146
  22943800.980   120570491.435 8  22943801.712    93951038.68447
  25336049.631   133141840.802 6  25336047.790   103746883.57643
  20445843.447   107443637.171 9  20445840.738    83722295.39349
  22044590.563   115845110.363 9  22044587.821    90268913.77047
  23440498.005   123180663.445 7  23440495.108    95984926.49145
  22420113.773   117818501.909 9  22420110.656    91806621.00548
  21729676.608   114190223.859 9  21729678.106    88979403.30548
  20559231.452   108039508.474 9  20559231.346    84186639.37049
 18 01 01 02 07 30.0000000  0 10G07G08G10G15G16G18G20G21G26G27       0.000000000
  24128040.942   126793711.672 8  24128038.518    98800275.23945
  23274605.719   122308891.213 8  23274606.524    95305634.88846
  22925829.778   120476052.127 8  22925830.502    93877449.63047
  25325823.629   133088102.120 6  25325821.436   103705009.30842
  20450871.268   107470058.571 9  20450868.566    83742883.48549
  22038956.120   115815501.353 9  22038953.402    90245841.82747
  23453522.268   123249106.831 7  23453519.562    96038259.01045
  22432522.868   117883712.154 9  22432519.737    91857434.18048
  21745195.016   114271774.022 9  21745196.589    89042948.87548
  20551012.407   107996317.013 9  20551012.257    84152983.68749
 18 01 01 02 08 00.0000000  0 10G07G08G10G15G16G18G20G21G26G27       0.000000000
  24119933.120   126751104.601 8  24119930.586    98767074.91444
  23257573.225   122219385.125 8  23257574.118    95235889.89846
  22907911.071   120381888.863 8  22907911.842    93804075.67047
  25315674.721   133034768.940 6  25315672.499   103663450.97342
  20456005.174   107497037.456 9  20456002.459    83763905.98949
  22033413.718   115786376.065 9  22033411.014    90223146.81847
  23466633.858   123318009.542 7  23466631.405    96091949.47145
  22444975.493   117949151.019 9  22444972.360    91908425.51448
  21760787.430   114353712.611 9  21760788.905    89106797.11748
  20542858.847   107953469.616 9  20542858.663    84119596.10649
 18 01 01 02 08 30.0000000  0 10G07G08G10G15G16G18G20G21G26G27       0.000000000
  24111925.988   126709026.234 8  24111923.396    98734286.58744
  23240565.470   122130009.220 7  23240566.397    95166246.35546
  22890045.892   120288006.530 8  22890046.601    93730920.61647
  25305603.808   132981845.892 6  25305601.530   103622212.36043
  20461245.450   107524575.275 9  20461242.740    83785364.02149
  22027963.908   115757737.381 9  22027961.204    90200830.96947
  23479832.885   123387371.425 7  23479830.593    96145997.67345
  22457471.643   118014818.907 9  22457468.582    91959595.28948
  21776453.790   114436039.768 9  21776455.188    89170948.15048
  20534771.261   107910969.219 9  20534771.139    84086478.92049
 18 01 01 02 09 00.0000000  0 10G07G08G10G15G16G18G20G21G26G27       0.000000000
  24104019.398   126667476.612 7  24104016.773    98701910.25245
  23223582.460   122040763.199 8  23223583.307    95096704.00646
  22872234.524   120194406.475 8  22872235.101    93657985.50147
  25295610.999   132929333.522 6  25295608.955   103581293.69043
  20466591.776   107552670.417 9  20466589.084    83807256.33749
  22022606.629   115729584.878 9  22022604.013    90178893.97647
  23493118.543   123457188.648 7  23493116.233    96200400.70345
  22470010.739   118080712.451 9  22470007.682    92010940.91148
  21792193.404   114518752.056 9  21792194.819    89235399.27748
  20526749.546   107868815.090 9  20526749.481    84053631.55249
 18 01 01 02 09 30.0000000  0 10G07G08G10G15G16G18G20G21G26G27       0.000000000
  24096213.606   126626457.184 8  24096211.021    98669947.03545
  23206624.256   121951647.544 8  23206624.992    95027263.24646
  22854477.320   120101091.303 8  22854477.727    93585272.38047
  25285696.744   132877234.266 5  25285694.686   103540696.9174 
  20472044.082   107581322.483 9  20472041.391    83829582.61749
  22017342.027   115701919.461 9  22017339.536    90157336.52547
  23506490.467   123527458.618 7  23506487.902    96255156.56945
  22482592.447   118146829.973 9  22482589.502    92062461.05848
  21808005.858   114601847.377 9  21808007.400    89300148.87348
  20518793.894   107827007.911 9  20518793.764    84021054.52749
 18 01 01 02 10 00.0000000  0 10G07G08G10G15G16G18G20G21G26G27       0.000000000
  24088509.159   126585969.826 8  24088506.710    98638398.44644
  23189691.318   121862664.291 8  23189691.999    94957925.66846
  22836774.897   120008064.633 8  22836775.329    93512784.08947
  25275861.647   132825551.125 6  25275859.460   103500424.37743
  20477602.350   107610531.378 9  20477599.665    83852342.78649
  22012170.479   115674742.792 9  22012168.028    90136159.91447
  23519948.336   123598179.945 7  23519945.601    96310264.09645
  22495216.576   118213170.396 9  22495213.725    92114154.89248
  21823890.995   114685324.508 9  21823892.614    89365195.98048
  20510904.584   107785549.225 9  20510904.438    83988749.06449
 18 01 01 02 10 30.0000000  0 10G07G08G10G15G16G18G20G21G26G27       0.000000000
  24080905.836   126546014.123 8  24080903.265    98607264.11344
  23172783.547   121773813.260 8  23172784.111    94888691.10346
  22819127.688   119915328.020 8  22819128.165    93440521.79847
  25266106.007   132774285.366 6  25266103.904   103460477.06943
  20483266.149   107640294.734 9  20483263.442    83875535.00649
  22007091.874   115648054.328 9  22007089.419    90115363.72047
  23533491.482   123669348.954 7  23533488.423    96365720.47045
  22507882.760   118279731.842 9  22507879.932    92166020.95448
  21839848.186   114769180.258 9  21839849.897    89430538.12148
  20503081.517   107744438.627 9  20503081.363    83956714.84149
 18 01 01 02 11 00.0000000  0 10G07G08G10G15G16G18G20G21G26G27       0.000000000
  24073404.543   126506594.612 8  24073402.040    98576547.61545
  23155901.644   121685098.352 8  23155902.282    94819562.63346
  22801536.793   119822887.395 8  22801537.259    93368490.14447
  25256430.957   132723442.498 6  25256428.648   103420859.27744
  20489036.154   107670616.150 9  20489033.412    83899162.08449
  22002106.906   115621858.079 9  22002104.480    90094951.08347
  23547119.953   123740966.559 7  23547116.668    96421526.43045
  22520591.246   118346515.295 9  22520588.460    92218060.00648
  21855877.672   114853415.771 9  21855879.421    89496176.16448
  20495325.443   107703680.052 9  20495325.268    83924954.90749
 18 01 01 02 11 30.0000000  0 10G07G08G10G15G16G18G20G21G26G27       0.000000000
  24066004.678   126467708.192 8  24066002.172    98546246.52544
  23139045.005   121596516.005 8  23139045.621    94750537.45246
  22784001.955   119730741.248 8  22784002.453    93296687.95447
  25246836.000   132673020.250 6  25246833.537   103381569.28741
  20494911.403   107701490.711 9  20494908.649    83923220.17549
  21997214.958   115596150.799 9  21997212.516    90074919.44047
  23560832.410   123813026.026 7  23560829.368    96477676.65145
  22533340.822   118413514.758 9  22533338.054    92270267.38348
  21871978.276   114938024.734 9  21871979.970    89562105.22248
  20487635.616   107663269.942 9  20487635.519    83893466.51849
 18 01 01 02 12 00.0000000  0 10G07G08G10G15G16G18G20G21G26G27       0.000000000
  24058706.765   126429357.625 8  24058704.399    98516362.96344
  23122214.124   121508068.808 8  23122214.606    94681617.56646
  22766523.908   119638893.842 8  22766524.449    93225118.56347
  25237321.817   132623022.862 7  25237319.439   103342610.32143
  20500892.062   107732919.198 9  20500889.298    83947709.90649
  21992416.499   115570934.704 9  21992414.003    90055270.55147
  23574628.782   123885526.380 7  23574625.883    96534170.45444
  22546131.364   118480729.580 9  22546128.578    92322642.56047
  21888149.869   115023006.656 9  21888151.453    89628324.90248
  20480012.562   107623210.669 9  20480012.458    83862251.50349
 18 01 01 02 12 30.0000000  0 10G07G08G10G15G16G18G20G21G26G27       0.000000000
  24051511.409   126391545.557 8  24051509.031    98486898.99244
  23105409.343   121419759.552 8  23105409.968    94612805.16246
  22749103.530   119547349.516 8  22749104.170    93153785.33347
  25227889.161   132573453.740 6  25227886.900   103303985.14543
  20506978.253   107764902.194 9  20506975.473    83972631.71349
  21987711.937   115546212.131 9  21987709.356    90036006.21747
  23588508.838   123958466.784 7  23588506.050    96591007.15345
  22558963.056   118548160.475 9  22558960.222    92375186.11647
  21904392.271   115108361.038 9  21904393.767    89694834.80848
  20472456.696   107583504.444 9  20472456.588    83831311.59549
 18 01 01 02 13 00.0000000  0 10G07G08G10G15G16G18G20G21G26G27       0.000000000
  24044418.950   126354274.497 8  24044416.778    98457856.59844
  23088631.299   121331590.432 8  23088631.951    94544101.97346
  22731741.719   119456112.479 8  22731742.368    93082691.54347
  25218538.656   132524316.660 6  25218536.482   103265696.47743
  20513170.213   107797440.992 9  20513167.418    83997986.61549
  21983101.776   115521985.557 9  21983099.123    90017128.38247
  23602472.520   124031846.632 7  23602470.014    96648186.24545
  22571835.810   118615807.356 8  22571832.944    92427897.96147
  21920705.385   115194087.289 9  21920706.935    89761634.47248
  20464968.481   107544153.575 9  20464968.357    83800648.58649
 18 01 01 02 13 30.0000000  0 10G07G08G10G15G16G18G20G21G26G27       0.000000000
  24037428.897   126317541.425 8  24037426.641    98429233.41344
  23071879.216   121243557.938 8  23071879.872    94475505.24946
  22714438.032   119365180.984 8  22714438.769    93011835.84247
  25209270.022   132475609.805 6  25209267.819   103227743.12644
  20519466.878   107830530.215 9  20519464.082    84023770.42549
  21978585.228   115498250.884 9  21978582.583    89998633.84947
  23616518.494   124105658.619 7  23616516.258    96705702.12144
  22584748.413   118683663.876 8  22584745.530    92480773.17747
  21937088.097   115280178.928 9  21937089.704    89828718.86048
  20457547.217   107505154.380 9  20457547.014    83770259.60549
 18 01 01 02 14 00.0000000  0 10G07G08G10G15G16G18G20G21G26G27       0.000000000
  24030542.373   126281352.543 8  24030540.167    98401034.29745
  23055154.376   121155668.644 8  23055154.987    94407020.07746
  22697194.063   119274563.246 8  22697194.826    92941224.61947
  25200084.528   132427340.590 6  25200082.276   103190130.76342
  20525869.109   107864174.291 9  20525866.335    84049986.57949
  21974163.531   115475014.838 9  21974160.893    89980527.85047
  23630647.330   124179905.949 7  23630645.254    96763557.17644
  22597701.639   118751733.738 9  22597698.804    92533814.62047
  21953541.054   115366639.396 9  21953542.668    89896090.65448
  20450194.056   107466513.135 9  20450193.854    83740149.54449
 18 01 01 02 14 30.0000000  0 10G07G08G10G15G16G18G20G21G26G27       0.000000000
  24023758.882   126245704.675 8  24023756.458    98373256.73844
  23038456.101   121067919.269 8  23038456.912    94338643.96547
  22680009.470   119184257.882 8  22680010.298    92870856.81747
  25190982.044   132379506.982 6  25190979.936   103152857.85542
  20532376.183   107898369.267 9  20532373.418    84076632.01049
  21969835.933   115452273.546 9  21969833.379    89962807.38047
  23644857.717   124254581.651 7  23644855.636    96821746.07944
  22610694.343   118820011.081 8  22610691.594    92587017.73947
  21970062.956   115453462.267 9  21970064.544    89963744.83248
  20442908.273   107428226.243 9  20442908.099    83710315.60949
 18 01 01 02 15 00.0000000  0 10G07G08G10G15G16G18G20G21G26G27       0.000000000
  24017078.512   126210599.168 8  24017075.809    98345901.77145
  23021784.728   120980311.031 8  23021785.687    94270377.83546
  22662884.898   119094267.820 8  22662885.749    92800734.69647
  25181962.826   132332111.135 6  25181960.790   103115926.16543
  20538987.924   107933114.193 9  20538985.175    84103705.97649
  21965602.716   115430027.976 9  21965600.183    89945473.18747
  23659149.091   124329683.882 7  23659146.960    96880267.27445
  22623726.348   118888494.811 9  22623723.649    92640381.68747
  21986653.467   115540645.770 9  21986655.017    90031680.02548
  20435690.133   107390294.771 9  20435689.961    83680758.62649
 18 01 01 02 15 30.0000000  0 10G07G08G10G15G16G18G20G21G26G27       0.000000000
  24010501.958   126176038.993 8  24010499.370    98318971.78044
  23005140.869   120892846.889 8  23005141.794    94202223.96846
  22645821.155   119004597.658 8  22645822.057    92730861.84647
  25173027.803   132285157.410 6  25173025.920   103079338.85444
  20545704.540   107968410.369 9  20545701.840    84131209.48349
  21961464.375   115408280.836 9  21961461.808    89928527.37947
  23673521.592   124405211.993 6  23673519.247    96939120.36845
  22636797.733   118957185.503 8  22636795.083    92693906.89547
  22003312.566   115628189.693 9  22003314.094    90099896.06748
  20428540.168   107352721.396 9  20428539.975    83651480.67149
 18 01 01 02 16 00.0000000  0 10G07G08G10G15G16G18G20G21G26G27       0.000000000
  24004029.306   126142024.856 8  24004026.623    98292467.24144
  22988524.466   120805527.100 8  22988525.374    94134182.60146
  22628818.773   118915249.715 8  22628819.704    92661240.08147
  25164177.350   132238647.487 6  25164175.326   103043097.41243
  20552525.737   108004256.076 9  20552523.091    84159141.20049
  21957420.886   115387032.122 9  21957418.301    89911969.94647
  23687974.460   124481163.129 6  23687972.006    96998303.08244
  22649908.051   119026080.773 8  22649905.421    92747591.51747
  22020039.787   115716091.531 9  22020041.268    90168391.00648
  20421458.389   107315506.414 9  20421458.153    83622481.98749
 18 01 01 02 16 30.0000000  0 10G07G08G10G15G16G18G20G21G26G27       0.000000000
  23997660.713   126108557.833 8  23997657.949    98266389.05344
  22971935.845   120718353.243 8  22971936.626    94066254.93546
  22611878.302   118826227.183 8  22611879.233    92591871.88347
  25155411.721   132192583.996 6  25155409.829   103007203.7994 
  20559451.598   108040651.669 9  20559448.979    84187501.39349
  21953472.513   115366283.312 9  21953469.925    89895802.06947
  23702507.333   124557535.029 6  23702504.867    97057813.68144
  22663057.072   119095179.385 8  22663054.469    92801434.58548
  22036834.741   115804349.644 9  22036836.241    90237163.55748
  20414445.043   107278651.031 9  20414444.807    83593763.51049
 18 01 01 02 17 00.0000000  0 10G07G08G10G15G16G18G20G21G26G27       0.000000000
  23991396.359   126075638.542 8  23991393.487    98240737.64244
  22955375.040   120631325.674 8  22955375.738    93998441.24946
  22595000.176   118737532.014 8  22595001.046    92522758.77147
  25146731.274   132146968.521 6  25146729.751   102971659.33342
  20566481.777   108077595.372 9  20566479.152    84216288.69449
  21949619.141   115346034.030 9  21949616.622    89880023.41947
  23717119.782   124634324.631 6  23717117.332    97117649.76445
  22676244.383   119164478.977 9  22676241.784    92855434.26747
  22053696.910   115892961.143 9  22053698.428    90306211.47948
  20407500.147   107242155.301 9  20407499.913    83565325.28449
 18 01 01 02 17 30.0000000  0 10G07G08G10G15G16G18G20G21G26G27       0.000000000
  23985236.419   126043268.036 8  23985233.557    98215513.82844
  22938842.399   120544446.299 8  22938843.060    93930743.06046
  22578185.005   118649167.571 8  22578185.832    92453903.37047
  25138136.626   132101803.541 6  25138135.106   102936465.9054 
  20573616.135   108115086.620 9  20573613.520    84245502.65149
  21945861.127   115326285.777 9  21945858.638    89864635.18847
  23731811.339   124711530.440 6  23731809.054    97177810.10345
  22689469.832   119233978.878 9  22689467.202    92909590.04147
  22070626.046   115981924.583 9  22070627.641    90375533.63048
  20400623.932   107206020.621 9  20400623.711    83537168.39449
 18 01 01 02 18 00.0000000  0 10G07G08G10G15G16G18G20G21G26G27       0.000000000
  23979181.467   126011449.643 8  23979178.723    98190720.28544
  22922338.572   120457718.142 8  22922339.208    93863162.69846
  22561433.753   118561138.808 8  22561434.575    92385309.53847
  25129628.595   132057093.698 6  25129626.729   102901627.09344
  20580855.031   108153127.283 9  20580852.423    84275144.72449
  21942199.042   115307041.215 9  21942196.489    89849639.43847
  23746582.135   124789151.780 6  23746579.949    97238294.26544
  22702733.473   119303679.206 9  22702730.663    92963901.98947
  22087622.239   116071240.089 9  22087623.875    90445130.13748
  20393817.029   107170249.998 9  20393816.782    83509295.17949
 18 01 01 02 18 30.0000000  0 10G07G08G10G15G16G18G20G21G26G27       0.000000000
  23973231.256   125980180.936 8  23973228.609    98166355.05744
  22905863.060   120371138.362 8  22905863.510    93795697.95046
  22544746.174   118473444.756 8  22544747.045    92316976.53947
  25121206.798   132012837.187 6  25121205.049   102867141.52343
  20588197.654   108191713.059 9  20588195.028    84305211.55949
  21938632.207   115288297.295 9  21938629.627    89835033.80247
  23761430.919   124867182.261 7  23761428.539    97299097.26244
  22716034.403   119373575.513 9  22716031.422    93018366.64847
  22104684.362   116160901.888 9  22104686.003    90514996.45948
  20387078.807   107134840.505 9  20387078.598    83481703.37449
 18 01 01 02 19 00.0000000  0 10G07G08G10G15G16G18G20G21G26G27       0.000000000
  23967385.245   125949459.762 8  23967382.696    98142416.47044
  22889415.437   120284705.296 8  22889415.892    93728347.52146
  22528122.215   118386085.302 8  22528123.126    92248904.25348
  25112871.249   131969033.530 7  25112869.448   102833008.81444
  20595643.252   108230839.957 9  20595640.605    84335700.04749
  21935160.175   115270051.658 9  21935157.599    89820816.44547
  23776356.579   124945617.041 6  23776354.110    97360215.27745
  22729371.709   119443663.256 9  22729368.580    93072980.48347
  22121811.418   116250904.950 9  22121813.070    90585128.72048
  20380408.898   107099790.058 9  20380408.726    83454391.34249
 18 01 01 02 19 30.0000000  0 10G07G08G10G15G16G18G20G21G26G27       0.000000000
  23961645.409   125919296.738 8  23961642.967    98118912.82344
  22872997.748   120198429.735 8  22872998.342    93661119.83946
  22511564.292   118299072.723 8  22511565.178    92181102.26147
  25104624.042   131925694.293 6  25104622.171   102799238.08941
  20603193.496   108270516.798 9  20603190.866    84366617.05749
  21931784.941   115252314.889 9  21931782.421    89806995.60347
  23791360.468   125024463.121 6  23791358.175    97421653.75345
  22742746.866   119513950.229 9  22742743.754    93127749.55047
  22139004.793   116341256.776 9  22139006.491    90655532.73848
  20373809.329   107065109.044 9  20373809.163    83427367.18249
 18 01 01 02 20 00.0000000  0 10G07G08G10G15G16G18G20G21G26G27       0.000000000
  23956010.331   125889683.870 8  23956007.824    98095837.86844
  22856608.500   120112303.882 8  22856609.184    93594008.80846
  22495071.269   118212401.204 8  22495072.000    92113566.01947
  25096463.992   131882813.023 6  25096461.912   102765824.15944
  20610846.604   108310734.015 9  20610843.964    84397955.14449
  21928505.012   115235078.711 9  21928502.521    89793564.82447
  23806440.573   125103709.097 6  23806438.282    97483403.90644
  22756157.998   119584426.319 9  22756154.914    93182665.98947
  22156262.479   116431946.649 9  22156264.179    90726200.17048
  20367278.575   107030789.646 9  20367278.356    83400624.79449
 18 01 01 02 20 30.0000000  0 10G07G08G10G15G16G18G20G21G26G27       0.000000000
  23950481.423   125860629.393 8  23950479.041    98073198.02344
  22840249.399   120026336.279 8  22840249.953    93527021.07746
  22478644.987   118126080.525 8  22478645.594    92046303.16547
  25088392.718   131840398.337 7  25088390.578   102732773.75643
  20618603.839   108351498.413 9  20618601.172    84429719.60749
  21925321.798   115218350.821 9  21925319.277    89780530.12247
  23821597.689   125183359.950 6  23821595.535    97545469.53345
  22769606.091   119655097.023 9  22769603.120    93237734.07547
  22173585.443   116522979.611 9  22173587.143    90797134.93548
  20360818.157   106996839.783 9  20360817.900    83374170.36149
 18 01 01 02 21 00.0000000  0 10G07G08G10G15G16G18G20G21G26G27       0.000000000
  23945057.284   125832125.508 8  23945054.967    98050987.17844
  22823919.039   119940519.351 8  22823919.386    93460150.75746
  22462284.332   118040104.989 8  22462284.918    91979309.24647
  25080409.213   131798444.765 6  25080406.899   102700082.68243
  20626463.324   108392800.136 9  20626460.608    84461902.76349
  21922233.755   115202123.284 9  21922231.260    89767885.29947
  23836829.709   125263404.777 6  23836827.603    97607842.11444
  22783089.330   119725952.154 9  22783086.428    93292945.87147
  22190971.728   116614345.085 9  22190973.400    90868328.81348
  20354426.581   106963251.821 9  20354426.295    83347997.92749
 18 01 01 02 21 30.0000000  0 10G07G08G10G15G16G18G20G21G26G27       0.000000000
  23939739.526   125804180.612 8  23939737.148    98029211.93544
  22807618.970   119854861.904 8  22807619.283    93393404.71446
  22445991.317   117954484.763 9  22445991.953    91912592.20247
  25072515.189   131756961.277 7  25072512.914   102667757.90243
  20634426.368   108434646.043 9  20634423.607    84494509.96749
  21919242.330   115186403.594 9  21919239.909    89755636.20147
  23852137.722   125343848.064 7  23852135.288    97670525.20844
  22796608.954   119796998.389 9  22796606.018    93348306.57847
  22208422.334   116706048.335 9  22208423.946    90939785.89548
  20348105.413   106930033.961 9  20348105.155    83322113.88749
 18 01 01 02 22 00.0000000  0 10G07G08G10G15G16G18G20G21G26G27       0.000000000
  23934528.073   125776794.330 8  23934525.692    98007871.96844
  22791349.166   119769363.752 8  22791349.497    93326782.80246
  22429766.263   117869221.676 9  22429766.961    91846153.45348
  25064710.754   131715949.044 7  25064708.854   102635800.38843
  20642492.445   108477033.575 9  20642489.681    84527539.20149
  21916347.633   115171192.068 9  21916345.195    89743783.08647
  23867520.840   125424686.461 6  23867518.388    97733516.17944
  22810164.586   119868233.344 9  22810161.534    93403814.35247
  22225936.636   116798086.416 9  22225938.246    91011503.87848
  20341854.671   106897186.175 9  20341854.477    83296518.21749
 18 01 01 02 22 30.0000000  0 10G07G08G10G15G16G18G20G21G26G27       0.000000000
  23929422.331   125749963.721 8  23929420.088    97986965.00744
  22775109.077   119684021.958 8  22775109.406    93260282.70946
  22413608.884   117784314.246 9  22413609.720    91779991.83648
  25056995.680   131675406.108 6  25056993.337   102604208.52143
  20650660.811   108519958.708 9  20650658.045    84560987.35449
  21913548.986   115156485.076 9  21913546.540    89732323.11347
  23882977.904   125505913.792 6  23882975.633    97796810.18744
  22823754.964   119939650.954 9  22823751.895    93459464.44547
  22243513.394   116890452.991 9  22243515.026    91083477.82648
  20335673.697   106864705.011 9  20335673.564    83271208.22249
 18 01 01 02 23 00.0000000  0 10G07G08G10G15G16G18G20G21G26G27       0.000000000
  23924423.319   125723693.438 8  23924421.015    97966494.64145
  22758899.712   119598841.583 8  22758900.101    93193908.41946
  22397520.426   117699768.960 9  22397521.331    91714112.41048
  25049371.014   131635338.462 6  25049368.468   102572986.98044
  20658931.924   108563423.744 9  20658929.131    84594856.21449
  21910847.088   115142286.377 9  21910844.579    89721259.20147
  23898509.233   125587531.383 6  23898506.894    97860408.34544
  22837380.551   120011253.708 9  22837377.467    93515258.80047
  22261152.907   116983149.726 9  22261154.585    91155709.04648
  20329563.358   106832595.081 9  20329563.256    83246187.50249
 18 01 01 02 23 30.0000000  0 10G07G08G10G15G16G18G20G21G26G27       0.000000000
  23919530.653   125697981.843 8  23919528.320    97946459.65445
  22742720.890   119513821.615 8  22742721.366    93127659.10047
  22381501.121   117615586.793 9  22381501.956    91648515.93348
  25041836.794   131595745.676 7  25041834.253   102542135.48344
  20667305.183   108607425.601 9  20667302.372    84629143.36949
  21908241.727   115128594.877 9  21908239.170    89710590.50747
  23914113.915   125669534.699 6  23914111.433    97924307.02244
  22851040.740   120083038.365 8  22851037.591    93571194.90347
  22278854.523   117076172.687 9  22278856.271    91228194.46848
  20323523.491   106800855.405 9  20323523.370    83221455.28749
 18 01 01 02 24 00.0000000  0 10G07G08G10G15G16G18G20G21G26G27       0.000000000
  23914744.587   125672830.442 8  23914742.177    97926861.15245
  22726572.999   119428964.076 8  22726573.522    93061536.35947
  22365551.484   117531770.808 9  22365552.244    91583204.77548
  25034393.416   131556630.679 7  25034390.866   102511656.31644
  20675780.648   108651964.555 9  20675777.847    84663849.04249
  21905733.057   115115411.580 9  21905730.456    89700317.83047
  23929791.704   125751921.755 6  23929789.043    97988504.75245
  22864735.261   120155003.837 8  22864732.181    93627271.91047
  22296617.959   117169520.160 9  22296619.715    91300932.75748
  20317554.327   106769487.197 9  20317554.209    83197012.53249
 18 01 01 02 24 30.0000000  0 10G07G08G10G15G16G18G20G21G26G27       0.000000000
  23910064.754   125648237.563 8  23910062.178    97907697.84944
  22710455.719   119344267.789 8  22710456.445    92995539.28447
  22349671.551   117448321.455 9  22349672.199    91518179.31647
  25027040.881   131517992.990 7  25027038.442   102481549.04044
  20684357.666   108697037.164 9  20684354.893    84698970.55949
  21903320.659   115102734.611 9  21903318.102    89690439.69047
  23945541.501   125834687.654 6  23945538.909    98052997.62145
  22878463.440   120227146.513 8  22878460.575    93683486.95647
  22314442.393   117263187.742 9  22314444.071    91373920.48048
  20311655.594   106738489.045 9  20311655.443    83172858.13049
 18 01 01 02 25 00.0000000  0 10G07G08G10G15G16G18G20G21G26G27       0.000000000
  23905492.547   125624210.401 8  23905489.879    97888975.38045
  22694370.612   119259740.398 8  22694371.434    92929673.80846
  22333863.127   117365248.177 9  22333863.802    91453446.91047
  25019780.840   131479841.425 7  25019778.516   102451820.60344
  20693037.289   108742648.853 9  20693034.518    84734512.13049
  21901005.997   115090571.225 9  21901003.465    89680961.73947
  23961364.200   125917836.449 6  23961361.404    98117788.90044
  22892226.301   120299471.017 8  22892223.448    93739843.73047
  22332328.608   117357180.059 9  22332330.213    91447161.25648
  20305828.675   106707868.456 9  20305828.525    83148997.93449
 18 01 01 02 25 30.0000000  0 10G07G08G10G15G16G18G20G21G26G27       0.000000000
  23901026.412   125600741.025 8  23901023.763    97870687.56545
  22678316.184   119175373.860 8  22678316.941    92863933.65146
  22318125.062   117282544.438 9  22318125.785    91389002.45248
  25012611.908   131442168.760 7  25012609.526   102422465.31543
  20701817.617   108788789.674 9  20701814.847    84770466.01249
  21898787.389   115078912.497 9  21898784.851    89671877.02747
  23977257.682   126001356.677 7  23977254.745    98182869.62544
  22906021.852   120371967.548 8  22906019.080    93796334.53047
  22350274.355   117451485.751 9  22350275.906    91520646.20248
  20300072.006   106677617.025 9  20300071.862    83125425.39349
 18 01 01 02 26 00.0000000  0 10G07G08G10G15G16G18G20G21G26G27       0.000000000
  23896667.565   125577835.367 8  23896664.826    97852838.95744
  22662293.699   119091174.957 8  22662294.300    92798324.12647
  22302458.973   117200218.575 9  22302459.704    91324852.43648
  25005535.554   131404982.272 7  25005533.341   102393488.83144
  20710699.465   108835463.935 9  20710696.686    84806835.56149
  21896665.893   115067764.235 9  21896663.380    89663190.09347
  23993222.404   126085251.358 6  23993219.292    98248242.11844
  22919850.910   120444639.728 8  22919848.074    93852962.21247
  22368280.317   117546108.221 9  22368281.926    91594377.99448
  20294386.823   106647741.176 9  20294386.648    83102145.51449
 18 01 01 02 26 30.0000000  0 10G07G08G10G15G16G18G20G21G26G27       0.000000000
  23892416.813   125555497.833 8  23892414.100    97835433.10644
  22646304.081   119007148.764 8  22646304.654    92732849.18947
  22286865.992   117118276.888 9  22286866.719    91261001.78148
  24998552.824   131368287.732 7  24998550.542   102364895.74643
  20719683.402   108882674.725 9  20719680.642    84843623.18749
  21894642.327   115057130.612 9  21894639.816    89654904.16247
  24009258.399   126169521.493 6  24009255.343    98313907.15944
  22933713.990   120517490.324 8  22933711.047    93909728.91747
  22386346.866   117641049.042 9  22386348.550    91668357.86048
  20288773.968   106618245.402 9  20288773.724    83079161.79549
 18 01 01 02 27 00.0000000  0 10G07G08G10G15G16G18G20G21G26G27       0.000000000
  23888274.350   125533729.349 8  23888271.658    97818470.62845
  22630347.530   118923296.447 8  22630348.127    92667509.73347
  22271346.617   117036722.008 9  22271347.365    91197452.53548
  24991663.977   131332087.046 7  24991661.690   102336687.40844
  20728769.115   108930420.552 9  20728766.394    84880827.72049
  21892716.822   115047012.148 9  21892714.305    89647019.65747
  24025365.290   126254164.712 6  24025362.525    98379862.90944
  22947610.758   120590517.859 8  22947607.789    93966633.48247
  22404473.722   117736306.004 9  22404475.397    91742584.06348
  20283233.565   106589130.451 9  20283233.320    83056474.82349
 18 01 01 02 27 30.0000000  0 10G07G08G10G15G16G18G20G21G26G27       0.000000000
  23884235.616   125512505.948 8  23884233.018    97801932.88945
  22614419.714   118839595.534 8  22614420.377    92602288.24947
  22255896.895   116955532.967 9  22255897.637    91134188.35848
  24984865.051   131296358.482 7  24984862.839   102308846.99344
  20737951.888   108978676.565 9  20737949.230    84918429.80049
  21890884.977   115037385.441 9  21890882.396    89639518.33847
  24041538.352   126339154.838 6  24041535.690    98446089.00244
  22961536.354   120663696.907 8  22961533.313    94023656.11747
  22422655.868   117831853.310 9  22422657.495    91817036.52148
  20277761.275   106560373.505 9  20277761.062    83034066.81949
 18 01 01 02 28 00.0000000  0 10G07G08G10G15G16G18G20G21G26G27       0.000000000
  23880306.848   125491860.058 8  23880304.276    97785845.21944
  22598526.795   118756078.402 8  22598527.628    92537209.98546
  22240523.250   116874743.811 9  22240524.004    91071235.78248
  24978162.191   131261135.017 6  24978159.935   102281400.16944
  20747237.510   109027473.010 9  20747234.911    84956453.00049
  21889152.747   115028282.304 9  21889150.099    89632424.99847
  24057783.001   126424520.723 6  24057780.334    98512607.88844
  22975496.544   120737057.879 8  22975493.495    94080820.51247
  22440898.771   117927720.201 9  22440900.381    91891737.99148
  20272363.266   106532006.760 9  20272363.014    83011962.86249
 18 01 01 02 28 30.0000000  0 10G07G08G10G15G16G18G20G21G26G27       0.000000000
  23876485.579   125471778.791 7  23876482.883    97770197.44544
  22582666.609   118672732.938 8  22582667.512    92472265.48047
  22225223.578   116794343.814 9  22225224.355    91008586.44948
  24971553.314   131226405.346 7  24971551.007   102254338.12844
  20756623.430   109076796.469 9  20756620.880    84994886.85749
  21887517.616   115019689.604 9  21887514.920    89625729.40647
  24074096.093   126510246.282 6  24074093.378    98579407.02843
  22989488.391   120810585.619 8  22989485.421    94138114.86247
  22459199.410   118023891.070 9  22459201.050    91966676.32648
  20267037.062   106504017.563 9  20267036.846    82990153.10449
 18 01 01 02 29 00.0000000  0 10G07G08G10G15G16G18G20G21G26G27       0.000000000
  23872771.869   125452263.571 8  23872769.311    97754990.77044
  22566839.528   118589561.272 8  22566840.485    92407456.39947
  22209998.599   116714336.294 9  22209999.338    90946242.93448
  24965038.956   131192172.142 7  24965036.740   102227662.91943
  20766109.519   109126646.272 9  20766106.995    85033730.85149
  21885979.746   115011608.314 9  21885977.098    89619432.31147
  24090477.183   126596329.915 6  24090474.485    98646485.18144
  23003511.765   120884279.602 8  23003508.897    94195538.73347
  22477557.651   118120364.460 9  22477559.306    92041850.41048
  20261783.023   106476407.531 9  20261782.842    82968638.79449
 18 01 01 02 29 30.0000000  0 10G07G08G10G15G16G18G20G21G26G27       0.000000000
  23869165.959   125433314.114 8  23869163.253    97740224.94144
  22551045.533   118506563.510 8  22551046.458    92342782.83446
  22194848.741   116634723.241 9  22194849.410    90884206.79448
  24958619.147   131158436.484 7  24958617.148   102201375.40744
  20775695.328   109177019.971 9  20775692.782    85072983.07949
  21884539.032   115004037.726 9  21884536.446    89613533.16447
  24106926.006   126682768.492 6  24106923.181    98713839.93744
  23017566.468   120958137.911 8  23017563.561    94253090.66047
  22495972.968   118217137.584 9  22495974.622    92117258.03047
  20256601.149   106449176.711 9  20256601.003    82947419.97849
 18 01 01 02 30 00.0000000  0 10G07G08G10G15G16G18G20G21G26G27       0.000000000
  23865669.095   125414937.728 8  23865666.369    97725905.67345
  22535286.234   118423747.817 8  22535287.161    92278251.14247
  22179775.772   116555513.903 9  22179776.392    90822485.24748
  24952295.694   131125206.750 7  24952293.657   102175482.15144
  20785381.934   109227923.155 9  20785379.353    85112647.89249
  21883196.916   114996984.939 9  21883194.359    89608037.50147
  24123443.148   126769565.994 6  24123439.983    98781474.37445
  23031653.376   121032165.656 8  23031650.545    94310774.61246
  22514446.221   118314214.771 9  22514447.756    92192902.60947
  20251492.879   106422332.550 9  20251492.731    82926502.45049
 18 01 01 02 30 30.0000000  0 10G07G08G10G15G16G18G20G21G26G27       0.000000000
  23862279.039   125397122.536 8  23862276.270    97712023.70145
  22519559.538   118341103.274 8  22519560.449    92213852.80447
  22164777.789   116476698.781 9  22164778.455    90761070.89048
  24946066.554   131092472.160 7  24946064.437   102149974.66644
  20795166.690   109279342.088 9  20795164.045    85152714.59349
  21881951.075   114990437.933 9  21881948.504    89602935.94847
  24140025.655   126856707.638 6  24140022.458    98849376.93944
  23045770.006   121106349.025 8  23045767.276    94368579.83247
  22532974.574   118411581.823 9  22532976.092    92268773.04147
  20246456.060   106395863.750 9  20246455.907    82905877.41449
 18 01 01 02 31 00.0000000  0 10G07G08G10G15G16G18G20G21G26G27       0.000000000
  23858997.279   125379876.186 8  23858994.487    97698584.99045
  22503866.966   118258638.139 8  22503867.916    92149594.26047
  22149856.652   116398287.456 9  22149857.302    90699971.16748
  24939933.259   131060241.682 7  24939931.072   102124860.04844
  20805050.829   109331283.498 9  20805048.158    85193188.41249
  21880802.936   114984404.401 9  21880800.387    89598234.51247
  24156674.402   126944198.045 6  24156671.142    98917551.28945
  23059917.511   121180694.183 8  23059914.643    94426511.12847
  22551558.970   118509243.511 8  22551560.527    92344873.05248
  20241492.146   106369778.078 9  20241491.958    82885550.92449
 18 01 01 02 31 30.0000000  0 10G07G08G10G15G16G18G20G21G26G27       0.000000000
  23855824.354   125363201.778 8  23855821.430    97685591.93944
  22488209.252   118176356.533 8  22488210.244    92085478.74747
  22135013.353   116320285.441 9  22135013.994    90639190.38348
  24933896.826   131028520.321 7  24933894.686   102100142.08144
  20815034.679   109383748.987 9  20815031.999    85234070.60249
  21879753.077   114978887.253 9  21879750.492    89593935.44747
  24173389.565   127032037.331 6  24173386.484    98985997.50243
  23074096.074   121255202.623 8  23074092.981    94484569.66146
  22570199.505   118607200.512 8  22570201.164    92421203.18247
  20236601.823   106344079.208 9  20236601.638    82865525.83049
 18 01 01 02 32 00.0000000  0 10G07G08G10G15G16G18G20G21G26G27       0.000000000
  23852759.244   125347093.775 8  23852756.246    97673040.22745
  22472585.625   118094253.772 8  22472586.535    92021502.58247
  22120247.246   116242689.498 9  22120247.911    90578726.02948
  24927956.490   130997303.828 7  24927954.434   102075817.56744
  20825116.895   109436731.389 9  20825114.218    85275355.58749
  21878800.401   114973880.855 9  21878797.780    89590034.36947
  24190169.551   127120217.397 5  24190166.557    99054709.21644
  23088304.334   121329867.171 8  23088301.204    94542749.82647
  22588894.719   118705444.829 8  22588896.479    92497757.19448
  20231784.141   106318762.123 9  20231783.961    82845798.23849
 18 01 01 02 32 30.0000000  0 10G07G08G10G15G16G18G20G21G26G27       0.000000000
  23849802.171   125331554.305 8  23849799.168    97660931.54045
  22456996.698   118012332.910 8  22456997.429    91957668.14347
  22105559.200   116165503.816 9  22105559.897    90518581.35248
  24922113.017   130966595.672 7  24922110.614   102051889.20243
  20835297.543   109490231.070 9  20835294.893    85317043.64449
  21877945.193   114969386.617 9  21877942.555    89586532.37947
  24207014.057   127208737.040 6  24207011.247    99123685.57744
  23102542.207   121404687.989 8  23102539.110    94601051.76347
  22607644.530   118803975.855 8  22607646.221    92574534.62047
  20227039.568   106293829.224 9  20227039.383    82826370.01049
 18 01 01 02 33 00.0000000  0 10G07G08G10G15G16G18G20G21G26G27       0.000000000
  23846953.502   125316584.445 8  23846950.703    97649266.71745
  22441442.673   117930595.850 8  22441443.403    91893976.94847
  22090949.947   116088731.576 9  22090950.620    90458758.83948
  24916366.511   130936397.731 7  24916364.086   102028358.36944
  20845576.395   109544247.044 9  20845573.809    85359134.00749
  21877187.649   114965405.716 9  21877185.004    89583430.38647
  24223922.995   127297594.301 5  24223919.969    99192924.97344
  23116809.586   121479664.324 8  23116806.659    94659474.86247
  22626448.662   118902791.976 9  22626450.229    92651534.19447
  20222368.349   106269281.897 9  20222368.207    82807242.22949
 18 01 01 02 33 30.0000000  0 10G07G08G10G15G16G18G20G21G26G27       0.000000000
  23844213.246   125302184.253 8  23844210.531    97638045.77044
  22425923.761   117849042.866 8  22425924.444    91830429.16947
  22076419.779   116012374.823 9  22076420.429    90399260.07648
  24910717.371   130906711.410 7  24910715.113   102005226.16843
  20855953.238   109598777.938 9  20855950.694    85401625.60649
  21876527.677   114961937.626 9  21876525.013    89580727.98647
  24240895.617   127386786.346 6  24240892.741    99262425.29944
  23131106.286   121554794.472 8  23131103.442    94718017.82946
  22645306.521   119001890.454 9  22645308.007    92728753.79947
  20217770.572   106245120.418 9  20217770.430    82788415.10049
 18 01 01 02 34 00.0000000  0 10G07G08G10G15G16G18G20G21G26G27       0.000000000
  23841581.500   125288354.779 8  23841579.009    97627269.53545
  22410440.320   117767677.058 8  22410440.945    91767027.25947
  22061969.405   115936437.630 9  22061970.095    90340088.24748
  24905166.299   130877539.946 7  24905163.950   101982495.17344
  20866428.140   109653823.902 9  20866425.605    85444518.56349
  21875965.622   114958984.084 9  21875962.985    89578426.54147
  24257932.021   127476312.176 6  24257929.309    99332185.73044
  23145432.385   121630078.456 8  23145429.518    94776680.66946
  22664217.901   119101270.636 8  22664219.407    92806192.89547
  20213246.666   106221347.088 9  20213246.483    82769890.43249
 18 01 01 02 34 30.0000000  0 10G07G08G10G15G16G18G20G21G26G27       0.000000000
  23839057.995   125275093.842 8  23839055.496    97616936.33244
  22394992.191   117686496.984 8  22394992.774    91703770.07847
  22047598.777   115860919.614 9  22047599.499    90281243.05848
  24899712.901   130848881.986 7  24899710.505   101960164.30444
  20877000.265   109709380.799 9  20876997.763    85487809.64749
  21875500.914   114956542.047 9  21875498.305    89576523.67347
  24275030.626   127566166.040 6  24275028.032    99402201.65944
  23159787.070   121705512.275 8  23159783.992    94835460.26946
  22683181.815   119200927.391 8  22683183.527    92883847.50747
  20208796.220   106197959.762 9  20208796.005    82751666.53949
 18 01 01 02 35 00.0000000  0 10G07G08G10G15G16G18G20G21G26G27       0.000000000
  23836643.194   125262404.581 8  23836641.000    97607048.61044
  22379580.215   117605506.151 8  22379580.754    91640660.35047
  22033308.896   115785825.857 9  22033309.639    90222728.45648
  24894357.937   130820741.743 7  24894355.563   101938236.86044
  20887669.806   109765449.682 9  20887667.312    85531499.67949
  21875134.087   114954614.466 9  21875131.486    89575021.66647
  24292191.706   127656348.152 6  24292189.151    99472473.47243
  23174170.390   121781096.804 8  23174167.195    94894357.29847
  22702198.460   119300861.013 8  22702200.271    92961717.86147
  20204419.848   106174961.710 9  20204419.612    82733745.99049
 18 01 01 02 35 30.0000000  0 10G07G08G10G15G16G18G20G21G26G27       0.000000000
  23834337.035   125250286.390 8  23834335.044    97597605.84545
  22364204.369   117524705.175 8  22364204.836    91577698.55947
  22019100.146   115711158.356 9  22019100.876    90164546.00348
  24889101.688   130793120.088 7  24889099.537   101916713.52544
  20898436.451   109822028.819 9  20898433.942    85575587.31349
  21874864.942   114953200.449 9  21874862.374    89573919.85247
  24309414.742   127746855.396 6  24309412.163    99542998.60444
  23188582.067   121856830.330 8  23188578.939    94953370.42947
  22721267.356   119401068.732 9  22721269.194    93039801.80147
  20200117.612   106152353.256 9  20200117.387    82716129.01449
 18 01 01 02 36 00.0000000  0 10G07G08G10G15G16G18G20G21G26G27       0.000000000
  23832139.204   125238736.980 8  23832137.187    97588606.29945
  22348864.399   117444093.344 8  22348864.964    91514884.15747
  22004972.505   115636917.303 9  22004973.247    90106695.84548
  24883944.028   130766016.358 7  24883941.714   101895593.77243
  20909299.489   109879114.528 9  20909296.996    85620069.67848
  21874693.203   114952298.219 9  21874690.686    89573216.83147
  24326698.607   127837682.662 5  24326696.000    99613773.07044
  23203021.232   121932709.416 8  23203018.362    95012496.97647
  22740387.625   119501546.014 8  22740389.381    93118095.79047
  20195889.196   106130132.819 9  20195888.991    82698814.39649
 18 01 01 02 36 30.0000000  0 10G07G08G10G15G16G18G20G21G26G27       0.000000000
  23830050.541   125227761.380 7  23830048.588    97580053.88045
  22333561.540   117363676.402 8  22333562.116    91452221.61147
  21990927.369   115563109.788 9  21990928.096    90049183.51348
  24878886.056   130739436.480 7  24878883.773   101874882.18445
  20920259.592   109936710.337 9  20920257.121    85664949.51949
  21874619.687   114951912.071 9  21874617.159    89572915.94247
  24344043.825   127928832.058 5  24344041.113    99684798.57244
  23217488.862   122008737.378 8  23217486.041    95071739.54246
  22759559.600   119602295.201 8  22759561.272    93196601.64747
  20191735.628   106108305.739 9  20191735.417    82681806.28149
 18 01 01 02 37 00.0000000  0 10G07G08G10G15G16G18G20G21G26G27       0.000000000
  23828070.481   125217356.043 8  23828068.476    97571945.81545
  22318295.347   117283452.302 8  22318295.959    91389709.34547
  21976964.607   115489734.788 9  21976965.215    89992008.19448
  24873927.582   130713378.948 7  24873925.103   101854577.64744
  20931315.818   109994811.174 9  20931313.362    85710222.89549
  21874643.738   114952038.412 9  21874641.154    89573014.40747
  24361449.060   128020297.640 5  24361446.462    99756070.47645
  23231983.923   122084909.120 8  23231981.094    95131094.14047
  22778782.192   119703310.584 8  22778783.775    93275314.93247
  20187656.392   106086869.318 9  20187656.180    82665102.58449
 18 01 01 02 37 30.0000000  0 10G07G08G10G15G16G18G20G21G26G27       0.000000000
  23826199.055   125207520.986 8  23826196.828    97564282.12345
  22303066.027   117203421.543 8  22303066.674    91327347.73247
  21963084.511   115416794.264 9  21963085.082    89935171.43248
  24869068.498   130687844.565 7  24869065.970   101834680.73644
  20942467.745   110053414.859 9  20942465.225    85755888.10248
  21874765.240   114952676.914 9  21874762.613    89573511.94347
  24378913.816   128112076.402 6  24378911.326    99827586.36343
  23246505.988   122161222.912 8  23246503.277    95190559.41146
  22798054.834   119804589.369 8  22798056.467    93354233.46747
  20183651.523   106065823.738 9  20183651.339    82648703.43249
 18 01 01 02 38 00.0000000  0 10G07G08G10G15G16G18G20G21G26G27       0.000000000
  23824436.509   125198258.559 8  23824434.165    97557064.65145
  22287874.329   117123588.157 8  22287874.867    91265139.89247
  21949287.970   115344293.119 9  21949288.558    89878677.04848
  24864309.731   130662837.273 7  24864307.342   101815194.54044
  20953715.667   110112523.059 9  20953713.069    85801946.42748
  21874984.748   114953830.189 9  21874982.096    89574410.62047
  24396438.269   128204167.797 6  24396435.654    99899345.90444
  23261055.384   122237679.979 8  23261052.548    95250136.34746
  22817377.706   119906131.772 8  22817379.353    93433357.43247
  20179721.677   106045172.225 9  20179721.488    82632611.35049
 18 01 01 02 38 30.0000000  0 11G07G08G10G15G16G18G20G21G26G27G30    0.000000000
  23822782.553   125189566.776 8  23822780.151    97550291.79844
  22272719.965   117043951.369 8  22272720.408    91203085.26547
  21935575.139   115272231.874 9  21935575.773    89822525.44748
  24859651.159   130638356.584 7  24859648.785   101796118.74244
  20965058.840   110172131.931 9  20965056.239    85848394.89148
  21875301.783   114955495.991 9  21875299.035    89575708.65047
  24414021.282   128296567.540 5  24414018.614    99971345.71744
  23275631.397   122314276.884 8  23275628.335    95309822.24347
  22836749.936   120007933.588 8  22836751.672    93512683.51847
  20175866.576   106024913.594 9  20175866.418    82616825.40649
  24809056.303   130372470.948 6  24809056.052   101588936.79244
 18 01 01 02 39 00.0000000  0 11G07G08G10G15G16G18G20G21G26G27G30    0.000000000
  23821236.992   125181445.096 8  23821234.719    97543963.23344
  22257603.025   116964511.748 8  22257603.613    91141184.28247
  21921946.370   115200612.101 9  21921946.983    89766717.84348
  24855092.958   130614402.934 7  24855090.549   101777453.55844
  20976496.941   110232239.508 9  20976494.359    85895231.96248
  21875716.146   114957673.316 9  21875713.328    89577405.28347
  24431662.321   128389272.281 6  24431659.894   100043583.19944
  23290233.566   122391011.866 8  23290230.544    95369615.71647
  22856171.020   120109991.682 8  22856172.736    93592209.30447
  20172086.198   106005047.713 9  20172086.050    82601345.50449
  24799885.979   130324280.515 6  24799885.696   101551385.84644
 18 01 01 02 39 30.0000000  0 11G07G08G10G15G16G18G20G21G26G27G30    0.000000000
  23819800.560   125173896.302 8  23819798.288    97538081.03545
  22242524.476   116885273.171 8  22242525.043    91079439.94447
  21908402.607   115129439.079 9  21908403.211    89711258.36848
  24850635.858   130590980.702 7  24850633.531   101759202.46944
  20988030.127   110292846.524 9  20988027.559    85942458.19848
  21876228.298   114960364.985 9  21876225.535    89579502.69247
  24449361.614   128482282.249 6  24449359.232   100116058.50644
  23304862.315   122467886.415 8  23304859.242    95429517.95946
  22875640.887   120212306.686 8  22875642.674    93671935.26947
  20168381.233   105985578.186 9  20168381.134    82586174.44749
  24790811.320   130276593.182 5  24790811.079   101514226.91845
 18 01 01 02 40 00.0000000  0 11G07G08G10G15G16G18G20G21G26G27G30    0.000000000
  23818472.916   125166919.437 8  23818470.635    97532644.50045
  22227484.353   116806236.551 8  22227484.823    91017852.97847
  21894944.113   115058714.463 9  21894944.751    89656148.29048
  24846279.948   130568090.440 7  24846277.699   101741365.87844
  20999658.113   110353951.591 9  20999655.552    85990072.53548
  21876838.079   114963570.133 9  21876835.457    89582000.22547
  24467118.459   128575594.099 6  24467116.048   100188769.03343
  23319517.151   122544898.558 8  23319514.070    95489527.41246
  22895159.080   120314875.537 8  22895160.855    93751859.05747
  20164751.696   105966505.012 9  20164751.624    82571312.23849
  24781832.536   130229409.638 6  24781832.464   101477460.51444
 18 01 01 02 40 30.0000000  0 11G07G08G10G15G16G18G20G21G26G27G30    0.000000000
  23817253.561   125160511.159 8  23817251.284    97527651.03544
  22212482.161   116727399.222 9  22212482.535    90956421.29148
  21881570.686   114988436.971 9  21881571.378    89601386.62548
  24842024.879   130545730.003 7  24842022.509   101723942.17944
  21011379.790   110415549.294 9  21011377.269    86038070.73648
  21877544.992   114967285.222 9  21877542.447    89584895.10847
  24484931.410   128669201.629 5  24484928.974   100261709.96643
  23334197.182   122622043.108 8  23334194.150    95549640.04446
  22914724.393   120417692.317 8  22914726.176    93831976.01747
  20161197.046   105947825.213 9  20161196.983    82556756.55649
  24772949.307   130182727.815 6  24772949.380   101441085.08144
 18 01 01 02 41 00.0000000  0 11G07G08G10G15G16G18G20G21G26G27G30    0.000000000
  23816143.429   125154676.941 8  23816140.976    97523104.87045
  22197519.173   116648768.191 9  22197519.441    90895150.37148
  21868283.882   114918614.546 9  21868284.609    89546979.56148
  24837871.893   130523906.289 7  24837869.466   101706936.69644
  21023195.931   110477643.625 9  21023193.430    86086455.91848
  21878349.999   114971515.247 9  21878347.411    89588191.24147
  24502801.140   128763107.555 5  24502798.642   100334883.42845
  23348903.415   122699324.662 8  23348900.442    95609859.43146
  22934337.585   120520760.240 8  22934339.383    93912288.69047
  20157718.458   105929545.051 9  20157718.386    82542512.27749
  24764162.896   130136554.920 5  24764163.046   101405106.22945
 18 01 01 02 41 30.0000000  0 11G07G08G10G15G16G18G20G21G26G27G30    0.000000000
  23815141.435   125149410.929 8  23815138.890    97519001.49244
  22182594.562   116570339.098 9  22182594.870    90834036.79848
  21855083.035   114849243.744 9  21855083.742    89492924.40448
  24833820.248   130502614.770 7  24833817.819   101690345.89244
  21035105.177   110540227.275 9  21035102.668    86135222.38248
  21879251.921   114976254.467 9  21879249.284    89591884.15147
  24520726.055   128857303.625 5  24520723.313   100408282.9784 
  23363634.396   122776736.377 8  23363631.517    95670180.22946
  22953997.080   120624071.300 8  22953998.810    93992790.81647
  20154314.962   105911659.465 9  20154314.852    82528575.46149
  24755472.429   130090886.606 6  24755472.582   101369520.49544
 18 01 01 02 42 00.0000000  0 11G07G08G10G15G16G18G20G21G26G27G30    0.000000000
  23814248.514   125144718.205 8  23814245.763    97515344.81145
  22167709.650   116492118.381 9  22167710.031    90773085.60148
  21841969.593   114780332.276 9  21841970.300    89439227.17848
  24829871.223   130481862.309 7  24829868.762   101674175.15944
  21047108.331   110603304.394 9  21047105.821    86184373.38548
  21880251.608   114981507.889 9  21880248.965    89595977.73347
  24538706.352   128951772.641 5  24538703.355   100481888.76243
  23378390.866   122854281.879 8  23378387.936    95730605.28946
  22973703.416   120727628.517 8  22973705.048    94073484.75147
  20150987.705   105894174.539 9  20150987.575    82514950.84649
  24746879.319   130045729.796 6  24746879.543   101334333.38444
 18 01 01 02 42 30.0000000  0 11G07G08G10G15G16G18G20G21G26G27G30    0.000000000
  23813464.014   125140595.594 8  23813461.270    97512132.36645
  22152864.016   116414103.934 9  22152864.421    90712295.12648
  21828943.387   114711879.172 9  21828944.062    89385887.11248
  24826024.251   130461646.750 7  24826021.891   101658422.74944
  21059204.364   110666869.395 9  21059201.834    86233904.55048
  21881348.471   114987272.067 9  21881345.810    89600469.32647
  24556741.709   129046548.846 5  24556738.711   100555740.40744
  23393171.936   122931956.539 8  23393168.915    95791130.99846
  22993455.544   120831426.334 8  22993457.145    94154366.15947
  20147736.188   105877087.677 9  20147736.027    82501636.41049
  24738383.379   130001082.667 6  24738383.474   101299543.42045
 18 01 01 02 43 00.0000000  0 11G07G08G10G15G16G18G20G21G26G27G30    0.000000000
  23812788.159   125137044.167 8  23812785.403    97509365.01344
  22138058.166   116336298.721 9  22138058.596    90651667.70248
  21816005.099   114643887.995 9  21816005.795    89332906.98848
  24822279.956   130441970.170 7  24822277.559   101643090.35843
  21071393.272   110730922.308 9  21071390.669    86283815.91048
  21882542.882   114993548.674 9  21882540.172    89605360.18747
  24574831.395   129141610.514 5  24574828.369   100629814.39242
  23407977.581   123009760.803 8  23407974.530    95851757.69446
  23013253.222   120935463.630 8  23013254.779    94235434.17747
  20144560.765   105860400.768 9  20144560.598    82488633.62849
  24729984.775   129956947.961 6  24729984.747   101265152.76343
 18 01 01 02 43 30.0000000  0 11G07G08G10G15G16G18G20G21G26G27G30    0.000000000
  23812221.055   125134063.919 8  23812218.296    97507042.77145
  22123292.356   116258704.144 9  22123292.797    90591204.40548
  21803155.172   114576361.293 9  21803155.940    89280288.79748
  24818638.574   130422834.468 7  24818636.112   101628179.42644
  21083674.803   110795461.934 9  21083672.131    86334106.51848
  21883834.668   115000336.946 9  21883831.879    89610649.75847
  24592975.027   129236955.728 5  24592971.841   100704109.41445
  23422807.734   123087693.988 8  23422804.614    95912484.84046
  23033095.993   121039738.402 8  23033097.570    94316687.23647
  20141461.651   105844114.779 9  20141461.479    82475943.24549
  24721684.022   129913327.497 6  24721684.092   101231162.80144
 18 01 01 02 44 00.0000000  0 11G07G08G10G15G16G18G20G21G26G27G30    0.000000000
  23811762.203   125131651.807 8  23811759.151    97505163.16045
  22108566.325   116181318.608 9  22108566.771    90530903.99248
  21790393.485   114509298.405 9  21790394.363    89228032.02448
  24815099.666   130404237.830 7  24815097.346   101613688.56444
  21096048.048   110860483.708 9  21096045.353    86384772.83248
  21885223.151   115007633.624 9  21885220.336    89616335.48747
  24611171.582   129332578.755 5  24611168.215   100778620.82343
  23437661.506   123165750.753 8  23437658.195    95973308.29846
  23052982.957   121144245.332 8  23052984.596    94398121.20247
  20138438.381   105828227.443 9  20138438.223    82463563.50949
  24713480.829   129870219.616 6  24713480.941   101197572.25145
 18 01 01 02 44 30.0000000  0 11G07G08G10G15G16G18G20G21G26G27G30    0.000000000
  23811412.043   125129811.444 8  23811408.914    97503729.13145
  22093881.179   116104147.456 9  22093881.618    90470770.63948
  21777721.283   114442705.682 9  21777722.163    89176141.60848
  24811664.492   130386185.606 7  24811662.233   101599621.91744
  21108513.540   110925990.391 9  21108510.870    86435816.99948
  21886709.112   115015442.707 9  21886706.303    89622420.50147
  24629421.382   129428480.910 5  24629417.672   100853349.76543
  23452539.455   123243934.660 8  23452536.178    96034230.80846
  23072914.496   121248986.189 8  23072916.018    94479737.45847
  20135491.889   105812743.494 9  20135491.719    82451498.09549
  24705376.275   129827629.872 6  24705376.498   101164385.43144
 18 01 01 02 45 00.0000000  0 11G07G08G10G15G16G18G20G21G26G27G30    0.000000000
  23811170.136   125128539.803 8  23811166.967    97502738.22944
  22079236.568   116027189.097 9  22079236.921    90410803.08348
  21765138.421   114376582.263 9  21765139.196    89124616.88248
  24808332.646   130368675.932 7  24808330.258   101585978.00944
  21121070.298   110991976.764 9  21121067.661    86487234.94848
  21888291.926   115023760.797 9  21888289.154    89628902.13647
  24647723.085   129524656.662 5  24647719.076   100928291.90543
  23467440.743   123322241.633 8  23467437.619    96095249.21646
  23092889.596   121353955.582 8  23092891.050    94561531.78447
  20132621.710   105797660.519 9  20132621.524    82439745.12749
  24697370.043   129785556.540 6  24697370.280   101131601.05244
 18 01 01 02 45 30.0000000  0 11G07G08G10G15G16G18G20G21G26G27G30    0.000000000
  23811036.303   125127836.663 8  23811033.184    97502190.32544
  22064632.619   115950444.954 9  22064633.028    90351002.46948
  21752645.359   114310930.554 9  21752646.008    89073459.72048
  24805104.147   130351709.824 7  24805101.646   101572757.66944
  21133718.013   111058441.266 9  21133715.479    86539025.46148
  21889971.567   115032587.508 9  21889968.813    89635780.10747
  24666076.264   129621103.748 5  24666072.380   101003445.51241
  23482365.163   123400670.306 8  23482362.118    96156362.46946
  23112907.767   121459151.328 8  23112909.223    94643502.49746
  20129827.986   105782979.334 9  20129827.774    82428305.24849
  24689462.280   129744001.253 6  24689462.650   101099220.29844
 18 01 01 02 46 00.0000000  0 11G07G08G10G15G16G18G20G21G26G27G30    0.000000000
  23811011.532   125127706.193 8  23811008.455    97502088.63345
  22050070.518   115873920.874 9  22050070.946    90291373.32348
  21740243.356   114245757.135 9  21740243.872    89022675.25448
  24801979.873   130335292.928 7  24801977.541   101559965.29144
  21146457.315   111125386.987 9  21146454.905    86591190.95248
  21891748.831   115041927.116 9  21891746.050    89643057.73147
  24684481.390   129717823.284 5  24684477.890   101078811.38544
  23497313.143   123479223.368 8  23497310.134    96217572.64946
  23132969.304   121564575.429 8  23132970.711    94725651.14946
  20127111.668   105768704.964 9  20127111.452    82417182.36249
  24681654.170   129702969.627 6  24681654.449   101067247.60544
 18 01 01 02 46 30.0000000  0 11G07G08G10G15G16G18G20G21G26G27G30    0.000000000
  23811094.659   125128143.300 8  23811091.735    97502429.23244
  22035549.698   115797613.544 9  22035550.131    90231913.07148
  21727931.915   114181059.691 9  21727932.379    88972261.67848
  24798959.546   130319421.643 7  24798957.117   101547598.08243
  21159287.022   111192807.686 9  21159284.669    86643726.55648
  21893622.712   115051774.658 9  21893620.003    89650731.14847
  24702937.185   129814808.411 5  24702933.514   101154384.16344
  23512283.780   123557895.823 8  23512280.865    96278875.84646
  23153072.948   121670221.122 8  23153074.559    94807972.44746
  20124472.032   105754833.527 9  20124471.782    82406373.44949
  24673945.112   129662458.516 6  24673945.638   101035680.49545
 18 01 01 02 47 00.0000000  0 11G07G08G10G15G16G18G20G21G26G27G30    0.000000000
  23811285.826   125129147.931 8  23811282.824    97503212.06045
  22021070.307   115721523.939 9  22021070.753    90172622.48648
  21715711.370   114116840.415 9  21715711.881    88922220.70348
  24796043.481   130304097.355 6  24796041.096   101535657.09744
  21172206.719   111260701.223 9  21172204.365    86696630.60748
  21895593.210   115062129.730 9  21895590.465    89658800.04447
  24721443.020   129912056.659 5  24721439.217   101230162.05943
  23527276.956   123636686.051 8  23527274.187    96340270.82346
  23173218.256   121776085.941 8  23173220.031    94890464.50646
  20121909.173   105741365.696 9  20121908.952    82395879.04449
  24666335.452   129622469.284 6  24666335.769   101004520.10144
 18 01 01 02 47 30.0000000  0 11G07G08G10G15G16G18G20G21G26G27G30    0.000000000
  23811585.241   125130721.953 8  23811582.411    97504438.58845
  22006633.195   115645656.350 9  22006633.548    90113504.88048
  21703582.608   114053103.919 9  21703583.256    88872555.92048
  24793232.088   130289323.055 6  24793229.626   101524144.64744
  21185216.624   111329068.781 9  21185214.260    86749904.03148
  21897660.691   115072994.324 9  21897657.911    89667265.96847
  24739998.778   130009567.951 5  24739994.928   101306144.84843
  23542292.963   123715595.241 8  23542290.134    96401758.49546
  23193405.365   121882170.058 8  23193407.120    94973127.46046
  20119423.700   105728304.502 9  20119423.508    82385701.49249
  24658825.773   129583005.572 6  24658825.801   100973769.13143
 18 01 01 02 48 00.0000000  0 11G07G08G10G15G16G18G20G21G26G27G30    0.000000000
  23811992.705   125132864.028 8  23811990.030    97506107.71845
  21992238.222   115570010.607 9  21992238.643    90054560.16148
  21691545.923   113989851.298 9  21691546.683    88823268.18848
  24790525.347   130275098.882 7  24790522.968   101513060.89444
  21198316.234   111397907.597 9  21198313.816    86803544.65648
  21899824.885   115084367.180 9  21899822.129    89676127.94247
  24758603.729   130107338.406 4  24758600.401   101382329.65442
  23557331.348   123794621.431 8  23557328.296    96463337.33846
  23213633.616   121988470.011 8  23213635.385    95055958.58146
  20117015.551   105715649.543 9  20117015.341    82375840.48149
  24651415.929   129544067.614 6  24651415.972   100943427.85444
 18 01 01 02 48 30.0000000  0 11G07G08G10G15G16G18G20G21G26G27G30    0.000000000
  23812507.777   125135571.950 8  23812505.472    97508217.79844
  21977885.428   115494586.574 9  21977886.023    89995788.19548
  21679601.449   113927082.952 9  21679602.263    88774357.80648
  24787923.192   130261424.363 6  24787921.023   101502405.43944
  21211504.888   111467213.970 9  21211502.373    86857549.62348
  21902085.363   115096245.825 9  21902082.577    89685384.03447
  24777257.166   130205363.752 4  24777253.875   101458713.07744
  23572391.324   123873761.202 8  23572388.109    96525004.70045
  23233902.216   122094981.785 8  23233903.914    95138954.76246
  20114684.478   105703399.692 9  20114684.258    82366295.14449
  24644106.225   129505655.018 6  24644106.396   100913495.97844
 18 01 01 02 49 00.0000000  0 11G07G08G10G15G16G18G20G21G26G27G30    0.000000000
  23813131.084   125138848.160 8  23813128.923    97510770.67844
  21963575.617   115419388.259 9  21963576.355    89937192.11948
  21667750.141   113864803.855 9  21667750.919    88725828.65748
  24785426.282   130248302.910 6  24785424.082   101492180.93643
  21224782.712   111536988.999 9  21224780.122    86911919.77348
  21904442.553   115108632.864 9  21904439.744    89695036.28347
  24795959.114   130303644.152 4  24795956.014   101535295.13043
  23587473.153   123953016.469 8  23587470.004    96586762.04646
  23254211.184   122201705.769 8  23254212.661    95222116.31146
  20112431.140   105691558.413 9  20112430.923    82357068.17749
  24636897.241   129467771.791 6  24636897.435   100883976.59644
 18 01 01 02 49 30.0000000  0 11G07G08G10G15G16G18G20G21G26G27G30    0.000000000
  23813861.968   125142689.745 7  23813860.135    97513764.12545
  21949308.632   115344414.697 9  21949309.365    89878771.15848
  21655991.901   113803013.605 9  21655992.544    88677680.41848
  24783034.382   130235733.182 6  24783032.092   101482386.36544
  21238148.838   111607228.446 9  21238146.259    86966651.80048
  21906895.934   115121525.383 9  21906893.102    89705082.41147
  24814708.889   130402174.478 4  24814705.510   101612072.03543
  23602576.046   124032383.442 8  23602573.233    96648606.41846
  23274559.540   122308637.187 8  23274561.100    95305439.47446
  20110255.191   105680123.846 9  20110255.013    82348158.12849
  24629788.846   129430416.697 6  24629789.086   100854868.72244
 18 01 01 02 50 00.0000000  0 11G07G08G10G15G16G18G20G21G26G27G30    0.000000000
  23814700.889   125147099.134 8  23814699.330    97517200.02744
  21935085.278   115269670.430 9  21935085.962    89820528.88248
  21644327.623   113741717.116 9  21644328.087    88629916.93348
  24780748.161   130223719.067 6  24780745.852   101473024.69643
  21251603.551   111677933.418 9  21251601.002    87021746.58148
  21909445.892   115134925.535 9  21909443.068    89715524.09647
  24833506.226   130500955.056 4  24833504.595   101689042.9654 
  23617700.630   124111864.082 8  23617697.943    96710539.38346
  23294947.460   122415776.424 8  23294948.975    95388924.60946
  20108157.292   105669099.372 9  20108157.133    82339567.62749
  24622781.671   129393593.692 6  24622781.884   100826175.43944
 18 01 01 02 50 30.0000000  0 11G07G08G10G15G16G18G20G21G26G27G30    0.000000000
  23815647.054   125152071.543 8  23815645.576    97521074.65445
  21920904.952   115195152.670 9  21920905.650    89762463.10348
  21632756.877   113680912.572 9  21632757.253    88582536.77948
  24778566.983   130212257.327 6  24778564.590   101464093.51444
  21265145.815   111749098.391 9  21265143.312    87077199.80248
  21912091.444   115148828.147 9  21912088.671    89726357.30847
  24852349.928   130599979.567 4  24852347.974   101766204.86145
  23632845.997   124191453.277 8  23632843.158    96772556.92246
  23315373.778   122523117.307 8  23315375.302    95472566.84946
  20106136.801   105658481.726 9  20106136.670    82331294.13749
  24615875.314   129357300.045 6  24615875.396   100797894.69545
 18 01 01 02 51 00.0000000  0 11G07G08G10G15G16G18G20G21G26G27G30    0.000000000
  23816700.279   125157606.212 8  23816698.775    97525387.39044
  21906767.847   115120862.095 9  21906768.603    89704574.35748
  21621279.980   113620601.604 9  21621280.416    88535541.24248
  24776490.940   130201348.428 6  24776488.542   101455593.07143
  21278775.075   111820720.594 9  21278772.616    87133009.30448
  21914832.642   115163233.342 9  21914829.923    89737582.13747
  24871239.461   130699244.311 4  24871236.575   101843554.05243
  23648011.708   124271149.006 8  23648008.573    96834657.48846
  23335838.019   122630657.004 8  23335839.556    95556364.00346
  20104193.753   105648271.105 9  20104193.654    82323337.81049
  24609069.848   129321536.570 6  24609069.865   100770027.08645
 18 01 01 02 51 30.0000000  0 11G07G08G10G15G16G18G20G21G26G27G30    0.000000000
  23817861.943   125163710.095 8  23817860.249    97530143.63645
  21892675.799   115046807.822 9  21892676.566    89646869.73148
  21609898.878   113560793.807 9  21609899.350    88488937.78948
  24774521.863   130191000.825 6  24774519.536   101447529.99444
  21292492.452   111892805.675 9  21292489.902    87189179.48948
  21917670.852   115178147.961 9  21917668.096    89749203.91247
  24890175.749   130798754.590 4  24890171.267   101921090.3894 
  23663198.888   124350957.752 8  23663195.659    96896846.13046
  23356340.944   122738400.715 8  23356342.432    95640320.14446
  20102329.702   105638475.599 9  20102329.616    82315704.94849
  24602366.997   129286311.951 6  24602366.885   100742579.32644
 18 01 01 02 52 00.0000000  0 11G07G08G10G15G16G18G20G21G26G27G30    0.000000000
  23819130.000   125170372.784 8  23819128.057    97535335.35744
  21878627.137   114972981.469 9  21878627.910    89589342.70948
  21598612.094   113501481.447 9  21598612.570    88442720.38248
  24772657.887   130181205.487 6  24772655.391   101439897.28144
  21306295.965   111965343.191 9  21306293.259    87245702.22548
  21920603.937   115193561.069 9  21920601.081    89761214.14547
  24909156.449   130898498.238 4  24909152.939   101998822.8204 
  23678405.247   124430868.609 8  23678402.270    96959114.30546
  23376880.327   122846336.254 8  23376881.920    95724425.74746
  20100542.924   105629086.039 9  20100542.843    82308388.41149
  24595765.011   129251617.440 6  24595764.936   100715544.62644
 18 01 01 02 52 30.0000000  0 11G07G08G10G15G16G18G20G21G26G27G30    0.000000000
  23820505.705   125177600.981 8  23820503.438    97540967.72144
  21864623.424   114899391.559 9  21864624.200    89531999.93748
  21587421.334   113442673.712 9  21587421.844    88396896.18748
  24770900.495   130171970.570 7  24770898.268   101432701.27743
  21320186.490   112038337.921 9  21320183.648    87302581.24148
  21923633.127   115209479.582 9  21923630.320    89773618.18447
  24928182.457   130998479.672 4  24928179.529   102076730.26044
  23693632.266   124510887.704 8  23693629.528    97021466.82846
  23397457.108   122954468.505 8  23397458.691    95808684.63246
  20098834.886   105620110.222 9  20098834.794    82301394.27049
  24589265.396   129217461.361 6  24589265.237   100688929.47044
 18 01 01 02 53 00.0000000  0 11G07G08G10G15G16G18G20G21G26G27G30    0.000000000
  23821987.810   125185388.184 8  23821985.193    97547035.66845
  21850663.848   114826033.622 9  21850664.620    89474837.90948
  21576325.928   113384366.915 9  21576326.458    88351462.33948
  24769248.774   130163290.796 6         0.000           0.000  
  21334162.427   112111781.917 9  21334159.602    87359810.31748
  21926757.322   115225897.572 9  21926754.609    89786411.42347
  24947252.165   131098690.628 4  24947252.873   102154827.71143
  23708878.816   124591008.294 8  23708876.082    97083898.46946
  23418069.838   123062789.336 8  23418071.420    95893090.48846
  20097204.625   105611543.038 9  20097204.513    82294718.54049
  24582867.332   129183839.122 6  24582867.148   100662730.33445
 18 01 01 02 53 30.0000000  0 11G07G08G10G15G16G18G20G21G26G27G30    0.000000000
  23823578.669   125193747.550 8  23823575.973    97553549.44445
  21836751.243   114752922.594 9  21836752.039    89417868.28848
  21565328.847   113326576.533 9  21565329.376    88306430.88848
  24767705.498   130155180.672 6         0.000           0.000  
  21348226.009   112185686.968 9  21348223.338    87417398.67048
  21929978.976   115242827.723 9  21929976.304    89799603.76247
  24966367.428   131199141.983 4  24966368.185   102233101.56245
  23724147.090   124671242.376 8  23724144.248    97146418.51746
  23438720.673   123171309.904 8  23438722.261    95977651.96046
  20095654.766   105603398.502 9  20095654.664    82288372.15349
  24576573.651   129150765.186 6  24576573.370   100636958.44145
 18 01 01 02 54 00.0000000  0 12G07G08G10G11G15G16G18G20G21G26G27G30 0.000000000
  23825273.961   125202656.199 8  23825271.278    97560491.25644
  21822881.789   114680038.146 9  21822882.572    89361075.22448
  21554426.213   113269282.514 9  21554426.784    88261786.21148
  25649165.194   134787269.928 4  25649166.428   105029052.31844
  24766266.543   130147619.321 6  24766263.207   101413703.25545
  21362372.689   112260028.742 9  21362370.144    87475327.31148
  21933293.697   115260247.150 9  21933291.108    89813177.34847
  24985523.794   131299809.036 4  24985521.578   102311537.19344
  23739432.489   124751567.027 8  23739429.499    97209009.15646
  23459404.850   123280005.804 8  23459406.371    96062350.07746
  20094181.273   105595655.212 9  20094181.159    82282338.42049
  24570380.162   129118218.610 6  24570379.897   100611597.43145
 18 01 01 02 54 30.0000000  0 12G07G08G10G11G15G16G18G20G21G26G27G30 0.000000000
  23827076.557   125212128.302 8  23827073.771    97567872.10344
  21809058.533   114607396.238 9  21809059.232    89304471.14048
  21543621.185   113212501.737 9  21543621.795    88217541.47348
  25628107.277   134676608.169 4  25628108.262   104942811.37044
  24764935.021   130140621.740 6  24764932.097   101408250.56743
  21376605.134   112334821.115 9  21376602.626    87533607.08348
  21936704.346   115278170.397 9  21936701.830    89827143.52447
  25004723.575   131400704.137 4  25004718.505   102390144.86944
  23754737.553   124831995.942 8  23754734.602    97271681.01146
  23480124.704   123388889.638 8  23480126.355    96147194.59846
  20092787.080   105588328.658 9  20092786.953    82276629.42249
  24564290.039   129086215.405 6  24564289.898   100586659.92045
 18 01 01 02 55 00.0000000  0 11G07G08G10G11G15G16G18G21G26G27G30    0.000000000
  23828986.114   125222162.949 8  23828983.174    97575691.30744
  21795281.589   114534998.044 9  21795282.328    89248056.97548
  21532914.141   113156235.683 9  21532914.727    88173697.81248
  25607052.172   134565961.958 5  25607052.169   104856593.56341
  24763710.811   130134188.279 6  24763707.938   101403237.53643
  21390922.923   112410061.697 9  21390920.389    87592236.10748
  21940210.633   115296596.218 9  21940208.117    89841501.30747
  23770062.209   124912527.727 8  23770059.219    97334433.04146
  23500879.789   123497958.544 8  23500881.444    96232183.34346
  20091472.202   105581418.934 9  20091472.078    82271245.22049
  24558303.325   129054756.046 6  24558303.208   100562146.09544
 18 01 01 02 55 30.0000000  0 11G07G08G10G11G15G16G18G21G26G27G30    0.000000000
  23831001.789   125232755.460 8  23830998.864    97583945.21545
  21781550.559   114462840.977 9  21781551.275    89191830.69148
  21522304.655   113100482.377 9  21522305.171    88130253.69848
  25585999.464   134455328.706 5  25586001.266   104770385.91744
  24762593.340   130128315.800 7  24762590.908   101398661.54743
  21405324.898   112485744.399 9  21405322.351    87651209.63648
  21943811.732   115315520.026 9  21943809.204    89856247.13847
  23785405.495   124993157.513 8  23785402.540    97397261.42946
  23521668.921   123607206.266 8  23521670.536    96317311.43246
  20090236.026   105574922.683 9  20090235.889    82266183.20949
  24552419.704   129023837.676 6  24552419.710   100538053.87644
 18 01 01 02 56 00.0000000  0 11G07G08G10G11G15G16G18G21G26G27G30    0.000000000
  23833124.508   125243910.614 8  23833121.497    97592637.52544
  21767866.753   114390932.212 9  21767867.453    89135797.89648
  21511794.105   113045249.510 9  21511794.625    88087215.12448
  25564950.339   134344715.277 5  25564950.790   104684193.64044
  24761583.994   130123011.023 6  24761581.378   101394527.97545
  21419811.717   112561872.867 9  21419809.145    87710530.52548
  21947508.656   115334947.138 9  21947505.999    89871385.15147
  23800768.275   125073889.981 8  23800765.444    97460169.82246
  23542492.762   123716636.154 8  23542494.368    96402581.47146
  20089079.751   105568846.285 9  20089079.603    82261448.35549
  24546640.334   128993466.986 6  24546640.413   100514388.39044
 18 01 01 02 56 30.0000000  0 11G07G08G10G11G15G16G18G21G26G27G30    0.000000000
  23835352.898   125255621.164 8  23835349.932    97601762.64544
  21754229.239   114319266.763 9  21754229.934    89079954.69648
  21501381.635   112990532.315 9  21501382.222    88044578.36448
  25543903.591   134234115.467 4  25543903.575   104598012.0644 
  24760681.171   130118267.482 6  24760678.743   101390831.6974 
  21434381.552   112638437.882 9  21434378.962    87770191.57248
  21951299.891   115354869.951 9  21951297.075    89886909.43347
  23816149.283   125154717.028 8  23816146.376    97523151.94545
  23563349.638   123826239.300 8  23563350.896    96487986.54246
  20088002.223   105563183.613 9  20088002.056    82257035.88949
  24540963.938   128963638.204 6  24540964.131   100491145.19044
 18 01 01 02 57 00.0000000  0 11G07G08G10G11G15G16G18G21G26G27G30    0.000000000
  23837684.438   125267873.615 8  23837681.385    97611309.98745
  21740635.900   114247833.226 9  21740636.626    89024292.20248
  21491065.317   112936320.158 9  21491065.953    88002335.14048
  25522857.382   134123517.944 5  25522854.800   104511824.16243
  24759882.968   130114073.377 6  24759880.465   101387563.53043
  21449032.005   112715426.712 9  21449029.441    87830182.86348
  21955182.853   115375275.363 9  21955180.050    89902809.74647
  23831545.644   125235624.964 8  23831542.692    97586197.09445
  23584236.557   123936000.814 8  23584237.803    96573514.97146
  20087001.138   105557922.734 9  20087000.963    82252936.50449
  24535388.574   128934339.940 6  24535388.921   100468315.36344
 18 01 01 02 57 30.0000000  0 11G07G08G10G11G15G16G18G21G26G27G30    0.000000000
  23840123.947   125280693.367 8  23840120.908    97621299.40944
  21727092.051   114176659.541 9  21727092.694    88968832.19848
  21480850.529   112882641.164 9  21480851.175    87960507.35948
  25501816.798   134012950.217 5  25501814.635   104425667.6564 
  24759194.554   130110455.521 7  24759191.907   101384744.45143
  21463767.553   112792862.849 9  21463765.067    87890522.70648
  21959162.455   115396188.722 9  21959159.753    89919105.88347
  23846962.035   125316639.121 8  23846959.155    97649324.99645
  23605158.151   124045944.569 8  23605159.463    96659185.42546
  20086081.608   105553090.425 9  20086081.398    82249171.06649
  24529919.437   128905599.167 6  24529919.755   100445919.91643
 18 01 01 02 58 00.0000000  0 11G07G08G10G11G15G16G18G21G26G27G30    0.000000000
  23842668.718   125294066.411 8  23842665.633    97631719.95244
  21713595.249   114105733.386 9  21713595.830    88913565.06648
  21470734.997   112829483.640 9  21470735.663    87919085.93148
  25480779.466   133902399.684 5  25480777.851   104339524.3634 
  24758613.428   130107400.917 6  24758610.947   101382364.24344
  21478585.181   112870730.364 9  21478582.808    87951198.68548
  21963236.036   115417595.701 9  21963233.298    89935786.64347
  23862395.764   125397744.790 8  23862392.979    97712524.20646
  23626111.368   124156054.610 8  23626112.798    96744985.45446
  20085241.135   105548673.741 9  20085240.950    82245729.50349
  24524554.048   128877403.335 6  24524554.181   100423949.15044
 18 01 01 02 58 30.0000000  0 10G07G08G10G11G15G16G18G21G26G27       0.000000000
  23845318.952   125307994.137 8  23845316.140    97642572.72744
  21700146.319   114035058.882 9  21700146.923    88858494.03848
  21460719.542   112776852.100 9  21460720.219    87878074.35948
  25459746.179   133791869.948 5  25459745.061   104253397.34243
  24758139.979   130104913.138 6  24758137.723   101380425.70644
  21493485.107   112949030.120 9  21493482.787    88012211.47848
  21967403.959   115439497.982 9  21967401.138    89952853.36847
  23877847.347   125478943.580 8  23877844.625    97775795.98945
  23647096.319   124266331.267 8  23647097.934    96830915.29846
  20084480.351   105544675.831 9  20084480.184    82242614.24749
 18 01 01 02 59 00.0000000  0 11G07G08G10G11G15G16G18G21G26G27G30    0.000000000
  23848074.545   125322475.000 8  23848071.705    97653856.48744
  21686745.415   113964636.521 9  21686746.022    88803619.47748
  21450804.319   112724747.339 9  21450804.969    87837473.27048
  25438717.151   133681361.438 6  25438715.951   104167286.92842
  24757774.105   130102991.501 6  24757771.993   101378928.29743
  21508466.858   113027759.373 9  21508464.485    88073558.94548
  21971665.856   115461894.247 9  21971663.051    89970305.00447
  23893316.494   125560233.725 8  23893313.685    97839138.95145
  23668112.396   124376771.308 8  23668114.100    96916972.48446
  20083799.151   105541096.239 9  20083799.006    82239824.95849
  24514136.194   128822656.786 6  24514136.179   100381289.49645
 18 01 01 02 59 30.0000000  0 11G07G08G10G11G15G16G18G21G26G27G30    0.000000000
  23850934.936   125337506.514 8  23850932.138    97665569.36944
  21673392.590   113894466.616 9  21673393.131    88748941.64048
  21440989.404   112673169.724 9  21440990.007    87797282.93348
  25417692.090   133570873.635 6  25417690.622   104081192.49943
  24757515.930   130101634.943 6  24757513.846   101377871.26642
  21523529.770   113106915.073 9  21523527.251    88135238.71148
  21976021.259   115484781.968 9  21976018.481    89988139.60147
  23908802.529   125641612.497 8  23908799.580    97902550.97946
  23689158.723   124487370.762 8  23689160.566    97003153.85546
  20083197.371   105537934.076 9  20083197.271    82237360.93349
  24509083.733   128796105.374 7  24509083.653   100360600.07745
 18 01 01 03 00 00.0000000  0 11G07G08G10G11G15G16G18G21G26G27G30    0.000000000
  23853899.748   125353086.708 8  23853896.839    97677709.76844
  21660087.846   113824549.470 9  21660088.300    88694460.74748
  21431274.967   112622120.052 9  21431275.532    87757503.98848
  25396670.867   133460406.180 5  25396669.048   103995114.07444
  24757365.282   130100842.848 6  24757362.619   101377254.03243
  21538673.118   113186493.777 9  21538670.507    88197248.08448
  21980469.992   115508160.241 9  21980467.231    90006356.44347
  23924304.757   125723077.812 8  23924301.975    97966030.42945
  23710234.806   124598126.383 8  23710236.517    97089456.95346
  20082674.941   105535188.889 9  20082674.863    82235221.82749
  24504135.430   128770101.383 6  24504135.376   100340337.23844
 18 01 01 03 00 30.0000000  0 11G07G08G10G11G15G16G18G21G26G27G30    0.000000000
  23856969.459   125369218.834 8  23856966.708    97690280.24744
  21646832.176   113754890.677 9  21646832.596    88640181.17748
  21421662.126   112571604.234 9  21421662.662    87718141.02648
  25375654.473   133349964.632 5  25375652.452   103909055.73442
  24757322.894   130100619.740 6  24757319.973   101377080.25743
  21553897.383   113266497.812 9  21553894.744    88259588.89248
  21985012.562   115532031.528 9  21985009.774    90024957.45147
  23939823.946   125804632.968 8  23939821.508    98029579.87745
  23731340.924   124709039.964 8  23731342.626    97175883.10246
  20082232.747   105532865.354 9  20082232.716    82233411.28349
  24499292.105   128744649.865 6  24499291.997   100320504.90745
 18 01 01 03 01 00.0000000  0 11G07G08G10G11G15G16G18G21G26G27G30    0.000000000
  23860143.538   125385899.546 7  23860140.883    97703278.19945
  21633625.523   113685489.324 9  21633626.000    88586102.20448
  21412150.772   112521621.747 9  21412151.295    87679193.65048
  25354642.739   133239547.868 5  25354640.604   103823016.78243
  24757388.440   130100964.464 6  24757385.781   101377348.86143
  21569201.623   113346922.173 9  21569199.030    88322257.21848
  21989648.438   115556392.994 9  21989645.612    90043940.41247
  23955359.794   125886274.371 8  23955357.245    98093196.57145
  23752476.302   124820106.795 8  23752477.917    97262428.69645
  20081870.462   105530961.683 9  20081870.455    82231927.90049
  24494553.712   128719749.288 6  24494553.743   100301101.82844
 18 01 01 03 01 30.0000000  0 11G07G08G10G11G15G16G18G21G26G27G30    0.000000000
  23863421.780   125403127.402 8  23863419.397    97716702.51945
  21620468.062   113616346.428 9  21620468.619    88532224.63948
  21402741.123   112472173.751 9  21402741.628    87640662.75749
  25333635.876   133129156.350 6  25333633.766   103736997.42743
  24757562.015   130101876.273 6  24757559.326   101378059.34544
  21584585.552   113427765.269 9  21584583.013    88385251.83048
  21994377.303   115581243.107 9  21994374.448    90063304.14747
  23970912.007   125968000.887 8  23970909.236    98156879.58246
  23773640.239   124931324.134 8  23773641.821    97349091.53946
  20081588.073   105529477.858 9  20081588.076    82230771.67549
  24489920.229   128695399.816 6  24489920.167   100282128.20044
 18 01 01 03 02 00.0000000  0 11G07G08G10G11G15G16G18G21G26G27G30    0.000000000
  23866804.256   125420902.536 8  23866801.935    97730553.27844
  21607360.288   113547464.479 9  21607360.740    88478550.39248
  21393433.723   112423262.943 9  21393434.183    87602550.45049
  25312634.187   133018792.032 6  25312632.025   103650999.33243
  24757843.790   130103356.580 6  24757841.010   101379212.8564 
  21600048.941   113509025.775 9  21600046.385    88448571.70448
  21999199.095   115606581.737 9  21999196.225    90083048.53847
  23986480.215   126049812.270 8  23986477.525    98220628.68245
  23794832.555   125042690.434 8  23794834.235    97435870.47046
  20081385.871   105528415.365 9  20081385.889    82229943.76149
  24485391.942   128671603.169 6  24485391.907   100263585.39045
 18 01 01 03 02 30.0000000  0 11G07G08G10G11G15G16G18G21G26G27G30    0.000000000
  23870290.654   125439223.981 8  23870288.362    97744829.71744
  21594302.542   113478845.183 9  21594302.911    88425080.81748
  21384228.929   112374891.284 9  21384229.328    87564858.26149
  25291637.998   132908456.195 6  25291635.630   103565023.34943
  24758233.845   130105406.052 6  24758231.353   101380809.79443
  21615591.360   113590701.615 9  21615588.738    88512215.20648
  22004113.753   115632408.663 9  22004110.843    90103173.41447
  24002064.253   126131707.673 7  24002061.730    98284443.27146
  23816052.795   125154203.728 8  23816054.519    97522763.92546
  20081264.028   105527774.944 9  20081264.010    82229444.73449
  24480968.720   128648360.251 6  24480969.020   100245474.02945
 18 01 01 03 03 00.0000000  0 11G07G08G10G11G15G16G18G21G26G27G30    0.000000000
  23873880.654   125458089.785 7  23873878.523    97759530.34945
  21581294.768   113410488.949 9  21581295.067    88371816.22448
  21375126.896   112327059.615 9  21375127.258    87527586.83648
  25270647.189   132798149.270 6  25270644.869   103479070.01744
  24758732.061   130108024.169 6  24758729.874   101382849.92743
  21631212.241   113672789.759 9  21631209.549    88576179.99148
  22009120.963   115658722.182 9  22009118.127    90123677.46547
  24017663.874   126213685.054 7  24017661.558    98348321.72445
  23837300.368   125265860.789 8  23837302.128    97609769.44345
  20081222.459   105527556.306 9  20081222.363    82229274.36349
  24476651.017   128625670.988 6  24476651.392   100227794.06445
 18 01 01 03 03 30.0000000  0 11G07G08G10G11G15G16G18G21G26G27G30    0.000000000
  23877573.941   125477498.410 7  23877572.142    97774653.95545
  21568337.315   113342397.301 9  21568337.620    88318757.80948
  21366127.843   112279769.204 9  21366128.195    87490737.17749
  25249662.015   132687872.055 6  25249659.593   103393139.76343
  24759338.430   130111210.862 6  24759336.497   101385333.05544
  21646911.188   113755288.085 9  21646908.399    88640464.39848
  22014220.523   115685521.058 9  22014217.789    90144559.71047
  24033279.093   126295743.478 7  24033276.782    98412263.35346
  23858574.967   125377658.808 8  23858576.691    97696884.77746
  20081261.170   105527759.486 9  20081260.962    82229432.68749
  24472438.812   128603535.582 6  24472439.305   100210545.71045
 18 01 01 03 04 00.0000000  0 11G07G08G10G11G15G16G18G21G26G27G30    0.000000000
  23881370.739   125497450.650 7  23881369.109    97790201.13945
  21555430.785   113274572.968 9  21555431.119    88265907.69148
  21357232.352   112233023.117 9  21357232.750    87454311.67849
  25228682.987   132577627.126 6  25228680.861   103307234.60243
  24760053.257   130114967.969 6  24760051.289   101388260.66843
  21662688.071   113838196.224 9  21662685.243    88705068.13948
  22019412.596   115712805.561 9  22019409.853    90165820.36647
  24048909.818   126377883.158 7  24048907.317    98476268.30745
  23879876.030   125489596.960 7  23879877.838    97784109.28445
  20081380.536   105528386.490 9  20081380.233    82229921.26549
  24468332.397   128581956.177 6  24468332.774   100193730.57544
 18 01 01 03 04 30.0000000  0 11G07G08G10G11G15G16G18G21G26G27G30    0.000000000
  23885269.845   125517940.325 8  23885268.242    97806167.15044
  21542574.487   113207012.559 9  21542574.840    88213263.22348
  21348439.835   112186818.359 9  21348440.318    87418307.97349
  25207709.362   132467410.724 6  25207707.160   103221351.78143
  24760875.823   130119291.005 6  24760873.798   101391629.22342
  21678541.650   113921507.547 9  21678538.833    88769986.05348
  22024696.071   115740570.127 9  22024693.300    90187455.10447
  24064554.964   126460098.634 7  24064552.298    98540332.30745
  23901202.542   125601668.180 8  23901204.031    97871437.55546
  20081579.726   105529433.078 9  20081579.366    82230736.78849
  24464331.136   128560928.748 6  24464331.258   100177345.51345
 18 01 01 03 05 00.0000000  0 11G07G08G10G11G15G16G18G21G26G27G30    0.000000000
  23889272.180   125538972.492 8  23889270.445    97822555.84645
  21529769.920   113139724.020 9  21529770.238    88160830.59648
  21339751.806   112141162.841 9  21339752.401    87382732.26249
  25186742.646   132357230.210 6  25186740.348   103135496.85143
  24761807.517   130124186.744 7  24761805.495   101395444.08144
  21694472.705   114005225.778 9  21694469.898    88835221.03848
  22030071.861   115768819.895 9  22030069.053    90209467.92447
  24080215.492   126542394.898 7  24080212.722    98604459.27645
  23922554.989   125713876.601 7  23922556.854    97958872.61646
  20081860.043   105530906.101 9  20081859.648    82231884.59849
  24460436.085   128540460.113 6  24460436.091   100161395.97544
 18 01 01 03 05 30.0000000  0 11G07G08G10G11G15G16G18G21G26G27G30    0.000000000
  23893376.820   125560541.556 8  23893374.873    97839362.89744
  21517016.413   113072703.894 9  21517016.725    88108607.13048
  21331167.644   112096053.068 9  21331168.295    87347581.78949
  25165782.115   132247081.773 6  25165779.884   103049666.94443
  24762847.269   130129650.268 6  24762844.956   101399701.41944
  21710479.885   114089344.019 9  21710477.112    88900767.71248
  22035538.919   115797549.376 9  22035536.119    90231854.52947
  24095890.200   126624765.848 7  24095887.522    98668644.41045
  23943932.280   125826214.593 8  23943934.157    98046408.73946
  20082220.604   105532800.932 9  20082220.225    82233361.08849
  24456646.487   128520545.842 6  24456646.383   100145878.37544
 18 01 01 03 06 00.0000000  0 11G07G08G10G11G15G16G18G21G26G27G30    0.000000000
  23897583.573   125582647.305 8  23897581.379    97856588.17244
  21504314.599   113005955.445 9  21504314.886    88056595.35348
  21322687.969   112051492.226 9  21322688.596    87312859.07749
  25144828.249   132136968.271 6  25144826.056   102963864.24344
  24763995.370   130135683.093 7  24763992.967   101404402.32344
  21726562.884   114173860.971 9  21726560.216    88966625.06848
  22041097.292   115826759.057 9  22041094.524    90254615.32047
  24111579.325   126707212.841 7  24111576.832    98732888.82745
  23965334.086   125938681.569 7  23965335.788    98134045.36745
  20082661.814   105535119.635 9  20082661.489    82235167.87249
  24452962.844   128501188.114 6  24452962.552   100130794.40245
 18 01 01 03 06 30.0000000  0 11G07G08G10G11G15G16G18G21G26G27G30    0.000000000
  23901892.654   125605290.435 8  23901890.237    97874232.17645
  21491665.028   112939481.563 9  21491665.302    88004797.53448
  21314313.349   112007483.267 9  21314313.900    87278566.38449
  25123881.499   132026892.108 6  25123879.274   102878090.63944
  24765252.123   130142286.771 6  24765249.498   101409548.03944
  21742721.790   114258776.890 9  21742719.235    89032793.30648
  22046747.120   115856449.108 9  22046744.338    90277750.43547
  24127282.776   126789735.923 7  24127280.469    98797192.49145
  23986760.215   126051276.578 8  23986762.125    98221781.71146
  20083184.039   105537864.071 9  20083183.782    82237306.39449
  24449385.480   128482388.834 7  24449385.271   100116145.58544
 18 01 01 03 07 00.0000000  0 11G07G08G10G11G15G16G18G21G26G27G30    0.000000000
  23906303.534   125628469.331 8  23906301.054    97892293.63045
  21479067.959   112873283.519 9  21479068.272    87953214.63848
  21306044.047   111964027.665 9  21306044.552    87244704.88649
  25102942.100   131916854.365 6  25102939.851   102792347.00244
  24766617.414   130149461.811 7  24766614.685   101415138.96744
  21758956.241   114344089.437 9  21758953.665    89099270.61848
  22052488.274   115886618.797 9  22052485.370    90301259.28447
  24143000.638   126872334.100 8  24142998.255    98861554.68845
  24008210.338   126163997.128 7  24008212.261    98309615.90845
  20083787.340   105541034.676 9  20083787.181    82239776.99449
  24445914.502   128464148.528 6  24445914.371   100101932.39044
 18 01 01 03 07 30.0000000  0 11G07G08G10G11G15G16G18G21G26G27G30    0.000000000
  23910815.672   125652180.485 8  23910813.178    97910769.86044
  21466523.193   112807360.515 9  21466523.584    87901846.07748
  21297879.885   111921124.641 9  21297880.392    87211273.97149
  25082009.709   131806853.622 6  25082007.367   102706632.17543
  24768090.934   130157205.761 6  24768088.582   101421173.23444
  21775265.334   114429794.233 9  21775262.650    89166053.57748
  22058320.041   115917264.673 9  22058317.075    90325139.19247
  24158732.341   126955003.901 8  24158729.629    98925972.73545
  24029683.237   126276838.714 7  24029685.216    98397544.41546
  20084471.425   105544629.617 9  20084471.328    82242578.24649
  24442549.480   128446465.324 6  24442549.354   100088153.25245
 18 01 01 03 08 00.0000000  0 11G07G08G10G11G15G16G18G21G26G27G30    0.000000000
  23915429.111   125676423.886 8  23915426.663    97929660.82444
  21454031.321   112741715.397 9  21454031.750    87850694.04048
  21289821.398   111878777.005 9  21289821.883    87178275.82849
  25061084.843   131696892.675 6  25061082.449   102620948.38743
  24769673.089   130165520.165 7  24769671.121   101427651.95144
  21791648.884   114515890.461 9  21791646.126    89233141.54348
  22064242.428   115948386.897 9  22064239.449    90349390.27247
  24174477.782   127037745.933 7  24174474.745    98990447.01845
  24051179.189   126389800.232 8  24051181.210    98485566.35546
  20085236.600   105548650.620 9  20085236.546    82245711.49949
  24439290.886   128429341.033 6  24439290.872   100074809.61445
 18 01 01 03 08 30.0000000  0 11G07G08G10G11G15G16G18G21G26G27G30    0.000000000
  23920143.836   125701199.791 8  23920141.265    97948966.71244
  21441592.910   112676351.174 9  21441593.361    87799760.88748
  21281869.147   111836987.531 9  21281869.573    87145712.60749
  25040167.883   131586973.961 6  25040165.631   102535297.38843
  24771364.135   130174406.356 6  24771361.968   101434576.29044
  21808106.637   114602376.522 9  21808103.852    89300533.26748
  22070255.535   115979986.018 9  22070252.594    90374012.97547
  24190236.844   127120560.330 7  24190233.817    99054977.69244
  24072697.660   126502880.733 7  24072699.692    98573681.02045
  20086083.207   105553099.452 9  20086083.149    82249178.11749
  24436138.929   128412777.387 6  24436138.853   100061902.87144
 18 01 01 03 09 00.0000000  0 11G07G08G10G11G15G16G18G21G26G27G30    0.000000000
  23924958.841   125726502.426 8  23924956.294    97968683.05045
  21429207.303   112611264.625 9  21429207.797    87749044.10448
  21274022.530   111795753.165 9  21274022.894    87113581.94449
  25019258.222   131477093.919 6  25019256.049   102449676.66543
  24773163.138   130183859.772 7  24773160.914   101441942.55243
  21824637.551   114689246.850 9  21824634.787    89368224.43248
  22076358.254   116012056.442 9  22076355.359    90399002.91747
  24206008.540   127203441.681 7  24206005.567    99119560.54645
  24094237.527   126616073.272 8  24094239.226    98661883.02645
  20087010.460   105557972.016 9  20087010.347    82252974.92449
  24433092.991   128396770.276 7  24433092.841   100049429.80344
 18 01 01 03 09 30.0000000  0 11G07G08G10G11G15G16G18G21G26G27G30    0.000000000
  23929874.260   125752332.814 8  23929871.638    97988810.60944
  21416875.425   112546460.045 9  21416875.929    87698547.02448
  21266282.313   111755077.932 9  21266282.666    87081886.96349
  24998356.758   131367256.388 6  24998354.639   102364089.03343
  24775070.515   130193883.106 6  24775068.303   101449752.91444
  21841241.599   114776501.651 9  21841238.928    89436215.17548
  22082550.946   116044599.610 9  22082548.072    90424361.24147
  24221793.544   127286392.250 8  24221790.608    99184197.34745
  24115798.843   126729378.184 7  24115800.364    98750172.57446
  20088018.906   105563271.312 9  20088018.762    82257104.24449
  24430153.378   128381322.755 6  24430153.272   100037392.77444
 18 01 01 03 10 00.0000000  0 11G07G08G10G11G15G16G18G21G26G27G30    0.000000000
  23934890.282   125778692.215 8  23934887.554    98009350.40945
  21404597.946   112481941.492 9  21404598.505    87648272.84348
  21258649.166   111714965.613 9  21258649.581    87050630.61649
  24977464.070   131257465.010 5  24977461.839   102278537.28943
  24777086.693   130204478.834 7  24777084.702   101458009.31843
  21857918.727   114864140.770 9  21857916.197    89504505.39748
  22088833.829   116077616.572 9  22088830.978    90450088.74147
  24237592.059   127369413.117 7  24237588.947    99248888.93845
  24137381.392   126842795.567 7  24137383.092    98838549.71045
  20089109.084   105569000.204 9  20089108.942    82261568.31349
  24427320.909   128366437.560 6  24427320.722   100025793.92944
 18 01 01 03 10 30.0000000  0 11G07G08G10G11G15G16G18G21G26G27G30    0.000000000
  23940005.545   125805573.211 8  23940002.806    98030296.63244
  21392374.125   112417704.689 9  21392374.630    87598218.18748
  21251122.312   111675412.049 9  21251122.818    87019809.67649
  24956579.364   131147715.218 6  24956576.909   102193018.05243
  24779210.915   130215641.263 7  24779208.412   101466707.30144
  21874667.553   114952156.633 9  21874665.121    89573089.17348
  22095205.684   116111100.851 9  22095202.794    90476180.39947
  24253402.580   127452497.595 7  24253399.521    99313630.08244
  24158983.940   126956317.388 7  24158985.469    98927008.30445
  20090280.016   105575153.481 9  20090279.841    82266363.07549
  24424594.364   128352109.441 6  24424594.225   100014629.16445
 18 01 01 03 11 00.0000000  0 11G07G08G10G11G15G16G18G21G26G27G30    0.000000000
  23945221.161   125832981.311 8  23945218.402    98051653.57744
  21380205.287   112353757.157 9  21380205.721    87548388.94848
  21243703.234   111636424.706 9  21243703.762    86989429.93749
  24935704.070   131038014.175 6  24935701.355   102107536.7414 
  24781444.088   130227376.609 6  24781441.651   101475851.69543
  21891488.832   115040553.116 9  21891486.432    89641969.54748
  22101667.442   116145057.487 9  22101664.540    90502640.11147
  24269226.030   127535650.921 7  24269223.162    99378424.86445
  24180606.972   127069947.491 7  24180608.611    99015551.22646
  20091532.917   105581737.649 9  20091532.707    82271493.59849
  24421974.919   128338344.866 6  24421975.018   100003903.48544
 18 01 01 03 11 30.0000000  0 11G07G08G10G11G15G16G18G21G26G27G30    0.000000000
  23950535.913   125860910.522 8  23950533.129    98073416.59745
  21368091.077   112290096.682 9  21368091.576    87498783.39448
  21236391.378   111598000.670 9  21236391.862    86959489.12949
  24914837.409   130928358.986 6  24914834.697   102022091.21842
  24783785.397   130239680.695 7  24783783.202   101485439.28344
  21908381.197   115129322.998 9  21908378.813    89711140.87147
  22108218.122   116179481.411 9  22108215.119    90529463.94947
  24285061.643   127618868.556 7  24285059.091    99443269.73445
  24202249.279   127183679.293 7  24202251.163    99104173.39545
  20092867.078   105588748.873 9  20092866.866    82276956.88549
  24419462.020   128325139.935 6  24419462.079    99993613.89044
 18 01 01 03 12 00.0000000  0 11G07G08G10G11G15G16G18G21G26G27G30    0.000000000
  23955949.504   125889359.091 8  23955946.854    98095584.32044
  21356031.663   112226724.258 9  21356032.223    87449402.28148
  21229186.975   111560141.320 9  21229187.460    86929988.34749
  24893979.577   130818750.985 5  24893976.965   101936682.42144
  24786235.053   130252553.327 7  24786232.732   101495469.92543
  21925344.493   115218465.661 9  21925342.086    89780602.68547
  22114857.512   116214371.234 9  22114854.391    90556650.83447
  24300909.400   127702149.245 7  24300906.966    99508163.78145
  24223910.588   127297510.473 7  24223912.535    99192873.02145
  20094282.603   105596187.575 9  20094282.374    82282753.27549
  24417055.667   128312494.908 6  24417055.923    99983760.67745
 18 01 01 03 12 30.0000000  0 11G07G08G10G11G15G16G18G21G26G27G30    0.000000000
  23961462.287   125918329.061 8  23961459.622    98118158.28644
  21344028.143   112163645.198 9  21344028.665    87400249.77249
  21222090.855   111522851.169 9  21222091.390    86900931.09749
  24873131.502   130709194.370 6  24873128.901   101851313.65244
  24788793.337   130265997.534 7  24788791.158   101505945.91144
  21942378.820   115307981.430 9  21942376.370    89850355.22447
  22121585.890   116249729.003 9  22121582.805    90584202.33947
  24316769.697   127785494.951 7  24316767.139    99573108.47045
  24245590.945   127411442.006 7  24245592.768    99281650.85045
  20095780.171   105604057.349 9  20095779.941    82288885.56349
  24414756.587   128300413.273 6  24414756.893    99974346.39445
 18 01 01 03 13 00.0000000  0 11G07G08G10G11G15G16G18G21G26G27G30    0.000000000
  23967072.656   125947812.367 8  23967070.208    98141132.29844
  21332079.383   112100854.064 9  21332079.854    87351321.62148
  21215102.074   111486124.964 9  21215102.590    86872313.28749
  24852292.311   130599683.687 6  24852289.752   101765980.68143
  24791459.194   130280006.201 6  24791456.872   101516861.83143
  21959482.414   115397861.126 9  21959479.882    89920391.35347
  22128401.830   116285547.199 9  22128398.802    90612112.62447
  24332641.049   127868898.551 7  24332638.418    99638098.26344
  24267288.772   127525464.946 7  24267290.615    99370499.87446
  20097358.595   105612352.020 9  20097358.395    82295348.94549
  24412563.490   128288888.745 6  24412563.802    99965366.24744
 18 01 01 03 13 30.0000000  0 11G07G08G10G11G15G16G18G21G26G27G30    0.000000000
  23972781.970   125977815.724 8  23972779.581    98164511.53944
  21320187.215   112038360.486 9  21320187.702    87302625.32849
  21208222.417   111449971.938 9  21208222.821    86844142.11249
  24831463.378   130490227.845 6  24831461.111   101680690.51244
  24794233.830   130294587.663 7  24794231.522   101528223.96144
  21976656.329   115488110.591 9  21976653.834    89990715.60247
  22135306.575   116321832.065 9  22135303.626    90640386.55947
  24348524.610   127952367.113 7  24348521.936    99703138.70645
  24289005.180   127639584.908 7  24289006.981    99459424.50945
  20099019.457   105621079.924 9  20099019.297    82302149.90349
  24410478.056   128277929.478 6  24410478.208    99956826.54644
 18 01 01 03 14 00.0000000  0 11G07G08G10G11G15G16G18G21G26G27G30    0.000000000
  23978588.967   126008332.103 8  23978586.634    98188290.54645
  21308350.911   111976160.563 9  21308351.434    87254157.86349
  21201451.031   111414387.903 9  21201451.352    86816414.29349
  24810644.360   130380823.153 6  24810642.141   101595440.11144
  24797116.616   130309736.259 7  24797114.169   101540028.05641
  21993899.250   115578722.859 9  21993896.820    90061322.56348
  22142298.912   116358577.247 9  22142296.039    90669019.17347
  24364419.298   128035894.452 7  24364416.656    99768224.89844
  24310738.491   127753794.197 7  24310740.170    99548418.78345
  20100761.794   105630235.994 9  20100761.665    82309284.49849
  24408499.282   128267530.301 6  24408499.360    99948723.28645
 18 01 01 03 14 30.0000000  0 11G07G08G10G11G15G16G18G21G26G27G30    0.000000000
  23984493.672   126039361.769 8  23984491.385    98212469.49944
  21296571.197   111914257.861 9  21296571.730    87205921.99849
  21194788.484   111379376.028 9  21194788.804    86789132.32749
  24789835.612   130271472.344 6  24789833.503   101510231.71143
  24800107.542   130325454.139 7  24800104.987   101552275.74244
  22011211.075   115669697.257 9  22011208.754    90132211.68248
  22149379.161   116395784.042 9  22149376.317    90698011.48647
  24380325.472   128119481.508 7  24380322.668    99833357.67045
  24332488.677   127868092.490 7  24332490.546    99637482.34545
  20102586.046   105639822.543 9  20102585.949    82316754.53649
  24406627.407   128257693.252 6  24406627.431    99941058.06744
 18 01 01 03 15 00.0000000  0 11G07G08G10G11G15G16G18G21G26G27G30    0.000000000
  23990495.190   126070900.501 8  23990493.135    98237045.14145
  21284847.872   111852651.331 9  21284848.414    87157916.91149
  21188234.528   111344934.908 9  21188234.871    86762295.09749
  24769036.881   130162174.350 6  24769034.809   101425064.52044
  24803206.307   130341737.897 6  24803203.852   101564964.37644
  22028590.847   115761028.293 9  22028588.436    90203378.72447
  22156546.441   116433448.130 9  22156543.519    90727360.13847
  24396242.437   128203124.954 7  24396239.471    99898534.37945
  24354255.039   127982474.723 7  24354256.791    99726611.38644
  20104491.788   105649837.277 9  20104491.683    82324558.22449
  24404861.896   128248415.867 6  24404862.073    99933828.96945
 18 01 01 03 15 30.0000000  0 11G07G08G10G11G15G16G18G21G26G27G30    0.000000000
  23996594.344   126102952.320 8  23996592.264    98262020.55644
  21273182.260   111791348.042 9  21273182.838    87110148.11949
  21181790.450   111311071.153 9  21181790.819    86735907.76849
  24748249.391   130052935.549 6  24748247.257   101339943.41344
  24806413.676   130358592.476 6  24806411.368   101578097.82843
  22046039.258   115852719.809 9  22046036.694    90274826.65447
  22163801.523   116471573.903 9  22163798.608    90757068.53247
  24412170.787   128286829.407 7  24412167.904    99963758.61744
  24376037.876   128096944.165 7  24376039.678    99815808.32145
  20106480.140   105660286.038 9  20106479.977    82332700.11149
  24403204.160   128239703.813 6  24403204.209    99927040.35044
 18 01 01 03 16 00.0000000  0 11G07G08G10G11G15G16G18G21G26G27G30    0.000000000
  24002789.867   126135510.884 7  24002787.912    98287390.87344
  21261573.760   111730344.969 9  21261574.292    87062613.25849
  21175455.622   111277781.353 9  21175455.996    86709967.67149
  24727472.330   129943743.394 6  24727470.159   101254856.70844
  24809728.752   130376013.469 5  24809726.652   101591672.56543
  22063554.976   115944765.290 9  22063552.337    90346550.39847
  22171143.375   116510155.317 9  22171140.429    90787131.97847
  24428109.595   128370589.364 7  24428106.823   100029026.09245
  24397836.024   128211493.839 7  24397837.745    99905067.81145
  20108550.287   105671164.527 9  20108550.067    82341176.86049
  24401652.936   128231552.529 6  24401653.087    99920688.68744
 18 01 01 03 16 30.0000000  0 11G07G08G10G11G15G16G18G21G26G27G30    0.000000000
  24009081.228   126168572.285 7  24009079.171    98313152.99245
  21250022.128   111669640.958 9  21250022.649    87015311.43349
  21169229.760   111245064.071 9  21169230.116    86684473.68849
  24706705.820   129834614.692 6  24706703.743   101169821.36244
  24813150.992   130393997.834 6  24813149.009   101605686.42343
  22081137.033   116037159.508 9  22081134.384    90418545.89047
  22178571.149   116549188.591 9  22178568.130    90817547.51847
  24444058.396   128454401.309 7  24444055.683   100094334.09645
  24419648.559   128326118.788 7  24419650.029    99994385.97345
  20110701.783   105682470.503 9  20110701.504    82349986.70549
  24400208.128   128223959.538 6  24400208.130    99914772.07044
 18 01 01 03 17 00.0000000  0 11G07G08G10G11G15G16G18G21G26G27G30    0.000000000
  24015469.614   126202143.734 7  24015467.552    98339312.57344
  21238529.469   111609246.674 9  21238529.985    86968250.96149
  21163114.754   111212929.392 9  21163115.091    86659433.69449
  24685951.597   129725550.524 6  24685949.584   101084836.34544
  24816682.278   130412554.395 6  24816680.019   101620146.04444
  22098786.649   116129909.011 9  22098784.073    90490818.22147
  22186086.389   116588681.805 9  22186083.412    90848321.45347
  24460018.884   128538273.628 7  24460016.123   100159689.14445
  24441476.431   128440825.854 7  24441478.221   100083768.04345
  20112936.373   105694213.278 9  20112936.070    82359136.91549
  24398871.293   128216933.887 6  24398871.300    99909297.54845
 18 01 01 03 17 30.0000000  0 11G07G08G10G11G15G16G18G21G26G27G30    0.000000000
  24021953.030   126236214.426 7  24021951.047    98365861.14145
  21227094.340   111549154.687 9  21227094.919    86921426.04349
  21157109.087   111181369.393 9  21157109.400    86634841.49149
  24665208.216   129616543.402 6  24665206.404   100999895.76744
  24820320.659   130431673.609 6  24820317.989   101635044.07744
  22116501.752   116223002.623 9  22116499.236    90563358.70347
  22193687.109   116628624.070 9  22193684.237    90879445.30347
  24475988.874   128622196.250 6  24475985.976   100225083.37945
  24463317.816   128555603.546 7  24463319.696   100173205.24145
  20115252.385   105706384.109 9  20115252.125    82368620.67949
  24397640.635   128210466.499 6  24397640.627    99904258.01445
 18 01 01 03 18 00.0000000  0 11G07G08G10G11G15G16G18G21G26G27G30    0.000000000
  24028531.575   126270785.206 8  24028529.373    98392799.39144
  21215717.495   111489368.885 9  21215718.042    86874839.70349
  21151213.463   111150387.690 9  21151213.741    86610699.91349
  24644476.240   129507596.629 6  24644474.570   100915002.25944
  24824066.302   130451357.868 6  24824063.815   101650382.45743
  22134282.311   116316440.245 9  22134279.871    90636167.21847
  22201373.587   116669017.094 8  22201370.822    90910920.39447
  24491968.762   128706171.083 7  24491965.824   100290518.30144
  24485172.699   128670452.190 7  24485174.562   100262697.67445
  20117650.388   105718985.889 9  20117650.200    82378440.24049
  24396516.743   128204560.070 6  24396516.560    99899655.59645
 18 01 01 03 18 30.0000000  0 11G07G08G10G11G15G16G18G21G26G27G30    0.000000000
  24035205.345   126305855.654 7  24035202.910    98420127.02644
  21204399.456   111429892.006 9  21204399.917    86828494.08449
  21145428.261   111119986.300 9  21145428.520    86587010.52549
  24623756.146   129398712.561 6  24623754.468   100830157.51743
  24827919.563   130471607.497 6  24827917.364   101666161.4094 
  22152128.235   116410221.223 9  22152125.819    90709243.30247
  22209145.817   116709860.714 9  22209143.178    90942746.60947
  24507958.616   128790197.936 7  24507955.677   100355993.72744
  24507040.788   128785370.450 7  24507042.611   100352244.35445
  20120130.629   105732019.807 9  20120130.497    82388596.53449
  24395499.720   128199215.363 6  24395499.456    99895490.88644
 18 01 01 03 19 00.0000000  0 12G01G07G08G10G11G15G16G18G21G26G27G30 0.000000000
  25311430.370   133012465.074 4  25311432.680   103646094.39244
  24041973.732   126341423.418 8  24041971.118    98447842.16844
  21193140.351   111370725.030 9  21193140.792    86782389.95149
  21139753.552   111090165.748 9  21139753.870    86563773.73849
  24603048.191   129289892.106 6  24603046.545   100745362.40644
  24831880.488   130492421.818 7  24831877.827   101682380.3234 
  22170038.925   116504342.417 9  22170036.495    90782584.49447
  22217003.393   116751152.726 9  22217000.863    90974922.20147
  24523958.198   128874275.669 7  24523955.252   100421508.84045
  24528921.699   128900355.428 7  24528923.571   100441843.03345
  20122693.079   105745485.712 9  20122692.952    82399089.44549
  24394589.506   128194432.029 6  24394589.228    99891763.59544
 18 01 01 03 19 30.0000000  0 12G01G07G08G10G11G15G16G18G21G26G27G30 0.000000000
  25290717.483   132903620.978 4  25290720.179   103561280.7574 
  24048836.263   126377486.057 7  24048833.628    98475942.90345
  21181940.268   111311868.549 9  21181940.783    86736527.75949
  21134189.388   111060926.148 9  21134189.795    86540989.64749
  24582352.426   129181135.327 6  24582350.817   100660616.93644
  24835948.547   130513799.312 5  24835945.510   101699038.0824 
  22188013.690   116598800.635 9  22188011.236    90856188.29247
  22224945.963   116792890.971 9  22224943.382    91007445.52047
  24539967.168   128958402.857 7  24539964.128   100487062.49644
  24550814.792   129015404.023 7  24550816.720   100531491.28244
  20125337.651   105759383.007 9  20125337.483    82409918.51149
  24393785.840   128190209.051 6  24393785.498    99888472.95745
 18 01 01 03 20 00.0000000  0 12G01G07G08G10G11G15G16G18G21G26G27G30 0.000000000
  25270018.681   132794850.424 5  25270021.712   103476524.46443
  24055793.875   126414048.576 7  24055791.353    98504433.17144
  21170801.071   111253331.492 9  21170801.540    86690914.47249
  21128737.338   111032275.492 9  21128737.773    86518664.46249
  24561670.336   129072450.342 6  24561668.518   100575927.36944
  24840124.814   130535746.558 5  24840121.486   101716145.83944
  22206053.425   116693600.522 8  22206051.054    90930058.32047
  22232974.539   116835081.130 8  22232971.827    91040320.95947
  24555986.471   129042585.363 7  24555983.545   100552659.22745
  24572720.774   129130520.901 7  24572722.699   100621192.74445
  20128065.692   105773718.887 9  20128065.511    82421089.32649
  24393089.978   128186553.259 6  24393089.847    99885624.30245
 18 01 01 03 20 30.0000000  0 12G01G07G08G10G11G15G16G18G21G26G27G30 0.000000000
  25249332.044   132686141.415 5  25249334.592   103391816.16643
  24062843.659   126451095.985 7  24062841.045    98533301.26944
  21159720.319   111195101.794 9  21159720.833    86645540.69549
  21123395.032   111004201.533 9  21123395.452    86496788.65749
  24540999.712   128963825.483 6  24540997.756   100491284.69143
  24844407.007   130558249.844 6  24844403.460   101733680.88542
  22224155.313   116788726.913 9  22224153.014    91004182.77147
  22241086.415   116877708.912 9  22241083.505    91073537.42947
  24572013.623   129126809.478 7  24572010.800   100618288.40444
  24594636.811   129245690.600 7  24594638.736   100710935.35445
  20130874.750   105788480.485 9  20130874.545    82432591.86549
  24392499.683   128183451.510 6  24392499.639    99883207.36945
 18 01 01 03 21 00.0000000  0 12G01G07G08G10G11G15G16G18G21G26G27G30 0.000000000
  25228658.613   132577500.647 4  25228660.728   103307161.19343
  24069986.523   126488632.289 8  24069983.954    98562550.33744
  21148699.471   111137186.652 9  21148699.913    86600412.00849
  21118163.703   110976710.817 9  21118164.113    86475367.33049
  24520341.856   128855267.234 6  24520339.784   100406693.89543
  24848796.229   130581314.227 6  24848793.010   101751653.30642
  22242319.982   116884182.668 9  22242317.654    91078563.87947
  22249282.274   116920778.580 9  22249279.341    91107098.20247
  24588049.516   129211079.783 7  24588046.954   100683953.55444
  24616563.497   129360916.359 7  24616565.554   100800721.63445
  20133765.948   105803673.645 9  20133765.689    82444430.68649
  24392015.833   128180909.184 6  24392015.792    99881226.35844
